FMT, 128, 89, FMT, BBnNZ, Type,Length,Name,Format,Columns
FMT, 118, 44, FMTU, QBNN, TimeUS,FmtType,UnitIds,MultIds
FMT, 163, 54, IMU, QBffffffIIfBBHH, TimeUS,I,GyrX,GyrY,GyrZ,AccX,AccY,AccZ,EG,EA,T,GH,AH,GHz,AHz
IMU, 2337072733, 0, -0.01169018, -0.01725693, -0.003527038, -0.0702658, -0.1368836, -9.794706, 0, 0, 45.28986, 1, 1, 2022, 2022
IMU, 2337072733, 1, -0.002121227, -0.0007575824, -0.003034862, -0.08632258, -0.09279681, -9.820209, 0, 0, 45, 1, 1, 1998, 2046
FMT, 119, 76, UNIT, QbZ, TimeUS,Id,Label
FMT, 120, 20, MULT, Qbd, TimeUS,Id,Mult
FMT, 32, 35, PARM, QNff, TimeUS,Name,Value,Default
FMT, 94, 51, GPS, QBBIHBcLLeffffB, TimeUS,I,Status,GMS,GWk,NSats,HDop,Lat,Lng,Alt,Spd,GCrs,VZ,Yaw,U
FMT, 95, 39, GPA, QBCCCCfBIHeHH, TimeUS,I,VDop,HAcc,VAcc,SAcc,YAcc,VV,SMS,Delta,AEl,RTCMFU,RTCMFD
FMT, 99, 22, UBX1, QBHBBHI, TimeUS,Instance,noisePerMS,jamInd,aPower,agcCnt,config
FMT, 100, 16, UBX2, QBbBbB, TimeUS,Instance,ofsI,magI,ofsQ,magQ
FMT, 96, 42, GRAW, QIHBBddfBbB, TimeUS,WkMS,Week,numSV,sv,cpMes,prMes,doMes,mesQI,cno,lli
FMT, 97, 24, GRXH, QdHbBB, TimeUS,rcvTime,week,leapS,numMeas,recStat
FMT, 98, 41, GRXS, QddfBBBHBBBBB, TimeUS,prMes,cpMes,doMes,gnss,sv,freq,lock,cno,prD,cpD,doD,trk
FMT, 101, 23, SBPH, QIII, TimeUS,CrcError,LastInject,IARhyp
FMT, 102, 67, SBRH, QQQQQQQQ, TimeUS,msg_flag,1,2,3,4,5,6
FMT, 103, 123, SBRM, QQQQQQQQQQQQQQQ, TimeUS,msg_flag,1,2,3,4,5,6,7,8,9,10,11,12,13
FMT, 104, 23, SBRE, QHIiBB, TimeUS,GWk,GMS,ns_residual,level,quality
FMT, 59, 75, MSG, QZ, TimeUS,Message
FMT, 60, 39, RCIN, QHHHHHHHHHHHHHH, TimeUS,C1,C2,C3,C4,C5,C6,C7,C8,C9,C10,C11,C12,C13,C14
FMT, 61, 18, RCI2, QHHHB, TimeUS,C15,C16,OMask,Flags
FMT, 62, 39, RCOU, QHHHHHHHHHHHHHH, TimeUS,C1,C2,C3,C4,C5,C6,C7,C8,C9,C10,C11,C12,C13,C14
FMT, 207, 19, RCO2, QHHHH, TimeUS,C15,C16,C17,C18
FMT, 208, 39, RCO3, QHHHHHHHHHHHHHH, TimeUS,C19,C20,C21,C22,C23,C24,C25,C26,C27,C28,C29,C30,C31,C32
FMT, 63, 19, RSSI, Qff, TimeUS,RXRSSI,RXLQ
FMT, 64, 43, BARO, QBfffcfIffB, TimeUS,I,Alt,AltAMSL,Press,Temp,CRt,SMS,Offset,GndTemp,Health
FMT, 65, 24, BARD, QBfff, TimeUS,I,DynPrX,DynPrY,DynPrZ
FMT, 66, 25, CANF, QBIBBBBBBBBB, TimeUS,Bus,Id,DLC,B0,B1,B2,B3,B4,B5,B6,B7
FMT, 67, 81, CAFD, QBIBQQQQQQQQ, TimeUS,Bus,Id,DLC,D0,D1,D2,D3,D4,D5,D6,D7
FMT, 196, 50, PL, QBBfffffffIIB, TimeUS,Heal,TAcq,pX,pY,vX,vY,mX,mY,mZ,LastMeasMS,EKFOutl,Est
FMT, 68, 24, POWR, QffHHB, TimeUS,Vcc,VServo,Flags,AccFlags,Safety
FMT, 69, 27, MCU, Qffff, TimeUS,MTemp,MVolt,MVmin,MVmax
FMT, 93, 46, CMD, QHHHffffLLfB, TimeUS,CTot,CNum,CId,Prm1,Prm2,Prm3,Prm4,Lat,Lng,Alt,Frame
FMT, 92, 46, MISE, QHHHffffLLfB, TimeUS,CTot,CNum,CId,Prm1,Prm2,Prm3,Prm4,Lat,Lng,Alt,Frame
FMT, 78, 48, MAVC, QBBBBBHffffiifBB, TimeUS,TS,TC,SS,SC,Fr,Cmd,P1,P2,P3,P4,X,Y,Z,Res,WL
FMT, 79, 20, RAD, QBBBBBHH, TimeUS,RSSI,RemRSSI,TxBuf,Noise,RemNoise,RxErrors,Fixed
FMT, 81, 46, CAM, QBHIHLLeeeccC, TimeUS,I,Img,GPSTime,GPSWeek,Lat,Lng,Alt,RelAlt,GPSAlt,R,P,Y
FMT, 82, 46, TRIG, QBHIHLLeeeccC, TimeUS,I,Img,GPSTime,GPSWeek,Lat,Lng,Alt,RelAlt,GPSAlt,R,P,Y
FMT, 83, 48, MNT, QBfffffffff, TimeUS,I,DRoll,Roll,DPitch,Pitch,DYawB,YawB,DYawE,YawE,Dist
FMT, 114, 41, ARSP, QBffcffBBffB, TimeUS,I,Airspeed,DiffPress,Temp,RawPress,Offset,U,H,Hp,TR,Pri
FMT, 88, 41, BAT, QBfffffcfBBB, TimeUS,Inst,Volt,VoltR,Curr,CurrTot,EnrgTot,Temp,Res,RemPct,H,SH
FMT, 89, 40, BCL, QBfHHHHHHHHHHHH, TimeUS,Instance,Volt,V1,V2,V3,V4,V5,V6,V7,V8,V9,V10,V11,V12
FMT, 113, 35, MAG, QBhhhhhhhhhBI, TimeUS,I,MagX,MagY,MagZ,OfsX,OfsY,OfsZ,MOX,MOY,MOZ,Health,S
FMT, 122, 14, MODE, QMBB, TimeUS,Mode,ModeNum,Rsn
FMT, 116, 17, RFND, QBCBBb, TimeUS,Instance,Dist,Stat,Orient,Quality
FMT, 117, 36, DMS, QIIIIBBBBBBBBB, TimeUS,N,Dp,RT,RS,Fa,Fmn,Fmx,Pa,Pmn,Pmx,Sa,Smn,Smx
FMT, 174, 41, BCN, QBBfffffff, TimeUS,Health,Cnt,D0,D1,D2,D3,PosX,PosY,PosZ
FMT, 175, 57, PRX, QBBfffffffffff, TimeUS,Layer,He,D0,D45,D90,D135,D180,D225,D270,D315,DUp,CAn,CDis
FMT, 176, 44, PRXR, QBffffffff, TimeUS,Layer,D0,D45,D90,D135,D180,D225,D270,D315
FMT, 179, 61, PM, QHHHIIHHIIIIIIQ, TimeUS,LR,NLon,NL,MaxT,Mem,Load,ErrL,InE,ErC,SPIC,I2CC,I2CI,Ex,R
FMT, 178, 29, SRTL, QBHHBfff, TimeUS,Active,NumPts,MaxPts,Action,N,E,D
FMT, 170, 48, OABR, QBBHHHBfLLiLLi, TimeUS,Type,Act,DYaw,Yaw,DP,RChg,Mar,DLt,DLg,DAlt,OLt,OLg,OAlt
FMT, 171, 31, OADJ, QBBBBLLLL, TimeUS,State,Err,CurrPoint,TotPoints,DLat,DLng,OALat,OALng
FMT, 172, 37, SA, QBffffffB, TimeUS,State,DVelX,DVelY,DVelZ,MVelX,MVelY,MVelZ,Back
FMT, 173, 21, OAVG, QBBLL, TimeUS,version,point_num,Lat,Lon
FMT, 77, 45, SIM, QccCfLLffff, TimeUS,Roll,Pitch,Yaw,Alt,Lat,Lng,Q1,Q2,Q3,Q4
FMT, 84, 38, TERR, QBLLHffHHf, TimeUS,Status,Lat,Lng,Spacing,TerrH,CHeight,Pending,Loaded,ROfs
FMT, 86, 40, ESC, QBffffcfcf, TimeUS,Instance,RPM,RawRPM,Volt,Curr,Temp,CTot,MotTemp,Err
FMT, 87, 15, EDT2, QBBBB, TimeUS,Instance,Stress,MaxStress,Status
FMT, 85, 46, CSRV, QBfffBfffffB, TimeUS,Id,Pos,Force,Speed,Pow,PosCmd,V,A,MotT,PCBT,Err
FMT, 105, 52, PIDR, QffffffffffB, TimeUS,Tar,Act,Err,P,I,D,FF,DFF,Dmod,SRate,Flags
FMT, 106, 52, PIDP, QffffffffffB, TimeUS,Tar,Act,Err,P,I,D,FF,DFF,Dmod,SRate,Flags
FMT, 107, 52, PIDY, QffffffffffB, TimeUS,Tar,Act,Err,P,I,D,FF,DFF,Dmod,SRate,Flags
FMT, 108, 52, PIDA, QffffffffffB, TimeUS,Tar,Act,Err,P,I,D,FF,DFF,Dmod,SRate,Flags
FMT, 109, 52, PIDS, QffffffffffB, TimeUS,Tar,Act,Err,P,I,D,FF,DFF,Dmod,SRate,Flags
FMT, 110, 52, PIDN, QffffffffffB, TimeUS,Tar,Act,Err,P,I,D,FF,DFF,Dmod,SRate,Flags
FMT, 111, 52, PIDE, QffffffffffB, TimeUS,Tar,Act,Err,P,I,D,FF,DFF,Dmod,SRate,Flags
FMT, 112, 56, DSTL, QBfLLeccfeffff, TimeUS,Stg,THdg,Lat,Lng,Alt,XT,Travel,L1I,Loiter,Des,P,I,D
FMT, 161, 32, ACC, QBQfff, TimeUS,I,SampleUS,AccX,AccY,AccZ
FMT, 162, 32, GYR, QBQfff, TimeUS,I,SampleUS,GyrX,GyrY,GyrZ
FMT, 166, 28, VIBE, QBfffI, TimeUS,IMU,VibeX,VibeY,VibeZ,Clip
FMT, 164, 31, ISBH, QHBBHHQf, TimeUS,N,type,instance,mul,smp_cnt,SampleUS,smp_rate
FMT, 165, 207, ISBD, QHHaaa, TimeUS,N,seqno,x,y,z
FMT, 129, 15, RFRH, QI, TimeUS,TF
FMT, 130, 5, RFRF, BB, FTypes,Slow
FMT, 138, 38, RFRN, IIIfIfffBBB, HLat,HLon,HAlt,E2T,AM,TX,TY,TZ,VC,EKT,Flags
FMT, 131, 4, REV2, B, Event
FMT, 132, 15, RSO2, III, Lat,Lon,Alt
FMT, 133, 11, RWA2, ff, Airspeed,uncertainty
FMT, 134, 4, REV3, B, Event
FMT, 135, 15, RSO3, III, Lat,Lon,Alt
FMT, 136, 11, RWA3, ff, Airspeed,Uncertainty
FMT, 137, 16, REY3, ffIB, yawangle,yawangleerr,timestamp_ms,type
FMT, 139, 13, RISH, HBBfBB, LR,PG,PA,LD,AC,GC
FMT, 140, 37, RISI, ffffffffBB, DVX,DVY,DVZ,DAX,DAY,DAZ,DVDT,DADT,Flags,I
FMT, 148, 5, RASH, BB, Primary,NumInst
FMT, 149, 14, RASI, fIBBB, pd,UpdateMS,H,Use,I
FMT, 141, 5, RBRH, BB, Primary,NumInst
FMT, 142, 13, RBRI, IfBB, LastUpdate,Alt,H,I
FMT, 143, 8, RRNH, hhB, GCl,MaxD,NumSensors
FMT, 144, 20, RRNI, fffHBBB, PX,PY,PZ,Dist,Orient,Status,I
FMT, 145, 5, RGPH, BB, NumInst,Primary
FMT, 146, 23, RGPI, ffffBBBB, OX,OY,OZ,Lg,Flags,Stat,NSats,I
FMT, 147, 58, RGPJ, IffffffIiiiffHB, TS,VX,VY,VZ,SA,Y,YA,YT,Lat,Lon,Alt,HA,VA,HD,I
FMT, 153, 14, RMGH, fBBBBBBB, Dec,Avail,NumInst,AutoDec,NumEna,LOE,C,FUsable
FMT, 154, 35, RMGI, IffffffBBBB, LU,OX,OY,OZ,FX,FY,FZ,UFY,H,HSF,I
FMT, 150, 33, RBCH, ffffiiiBB, PX,PY,PZ,AE,OLat,OLng,OAlt,Flags,NumInst
FMT, 151, 25, RBCI, IffffBB, LU,PX,PY,PZ,Dist,H,I
FMT, 152, 21, RVOH, fffIBB, OX,OY,OZ,Del,H,Ena
FMT, 155, 40, ROFH, ffffIffffB, FX,FY,GX,GY,Tms,PX,PY,PZ,HgtOvr,Qual
FMT, 156, 49, REPH, fffffffffIIH, PX,PY,PZ,Q1,Q2,Q3,Q4,PEr,AEr,TS,RT,D
FMT, 157, 19, RSLL, IIfI, Lat,Lng,PosAccSD,TS
FMT, 158, 25, REVH, ffffIH, VX,VY,VZ,Er,TS,D
FMT, 159, 31, RWOH, ffIffff, DA,DT,TS,PX,PY,PZ,R
FMT, 160, 53, RBOH, ffffffffIfffH, Q,DPX,DPY,DPZ,DAX,DAY,DAZ,DT,TS,OX,OY,OZ,D
FMT, 43, 37, XKF0, QBBccCCcccccccc, TimeUS,C,ID,rng,innov,SIV,TR,BPN,BPE,BPD,OFH,OFL,OFN,OFE,OFD
FMT, 44, 56, XKF1, QBccCfffffffccce, TimeUS,C,Roll,Pitch,Yaw,VN,VE,VD,dPD,PN,PE,PD,GX,GY,GZ,OH
FMT, 45, 46, XKF2, QBccccchhhhhhfff, TimeUS,C,AX,AY,AZ,VWN,VWE,MN,ME,MD,MX,MY,MZ,IDX,IDY,IS
FMT, 46, 42, XKF3, QBcccccchhhccff, TimeUS,C,IVN,IVE,IVD,IPN,IPE,IPD,IMX,IMY,IMZ,IYAW,IVT,RErr,ErSc
FMT, 47, 44, XKF4, QBcccccfffHBIHb, TimeUS,C,SV,SP,SH,SM,SVT,errRP,OFN,OFE,FS,TS,SS,GPS,PI
FMT, 48, 41, XKF5, QBBhhhcccCCfff, TimeUS,C,NI,FIX,FIY,AFI,HAGL,offset,RI,rng,Herr,eAng,eVel,ePos
FMT, 49, 36, XKFD, QBffffff, TimeUS,C,IX,IY,IZ,IVX,IVY,IVZ
FMT, 50, 29, XKFM, QBBffff, TimeUS,C,OGNM,GLR,ALR,GDR,ADR
FMT, 51, 20, XKFS, QBBBBBBBBB, TimeUS,C,MI,BI,GI,AI,SS,GPS_GTA,GPS_CHK_WAIT,MAG_FUSION
FMT, 52, 28, XKQ, QBffff, TimeUS,C,Q1,Q2,Q3,Q4
FMT, 53, 48, XKT, QBIffffffff, TimeUS,C,Cnt,IMUMin,IMUMax,EKFMin,EKFMax,AngMin,AngMax,VMin,VMax
FMT, 54, 20, XKTV, QBff, TimeUS,C,TVS,TVD
FMT, 55, 60, XKV1, QBffffffffffff, TimeUS,C,V00,V01,V02,V03,V04,V05,V06,V07,V08,V09,V10,V11
FMT, 56, 60, XKV2, QBffffffffffff, TimeUS,C,V12,V13,V14,V15,V16,V17,V18,V19,V20,V21,V22,V23
FMT, 57, 60, XKY0, QBffffffffffff, TimeUS,C,YC,YCS,Y0,Y1,Y2,Y3,Y4,W0,W1,W2,W3,W4
FMT, 58, 52, XKY1, QBffffffffff, TimeUS,C,IVN0,IVN1,IVN2,IVN3,IVN4,IVE0,IVE1,IVE2,IVE3,IVE4
FMT, 41, 60, NKY0, QBffffffffffff, TimeUS,C,YC,YCS,Y0,Y1,Y2,Y3,Y4,W0,W1,W2,W3,W4
FMT, 42, 52, NKY1, QBffffffffff, TimeUS,C,IVN0,IVN1,IVN2,IVN3,IVN4,IVE0,IVE1,IVE2,IVE3,IVE4
FMT, 70, 45, AHR2, QccCfLLffff, TimeUS,Roll,Pitch,Yaw,Alt,Lat,Lng,Q1,Q2,Q3,Q4
FMT, 71, 19, AOA, Qff, TimeUS,AOA,SSA
FMT, 72, 36, ATT, QffffffB, TimeUS,DesRoll,Roll,DesPitch,Pitch,DesYaw,Yaw,AEKF
FMT, 73, 24, ORGN, QBLLe, TimeUS,Type,Lat,Lng,Alt
FMT, 74, 31, POS, QLLfff, TimeUS,Lat,Lng,Alt,RelHomeAlt,RelOriginAlt
FMT, 76, 35, ATSC, Qffffff, TimeUS,AngPScX,AngPScY,AngPScZ,PDScX,PDScY,PDScZ
FMT, 204, 51, VSTB, Qffffffffff, TimeUS,GyrX,GyrY,GyrZ,AccX,AccY,AccZ,Q1,Q2,Q3,Q4
FMT, 90, 38, MON, QIbIHHHHHII, TimeUS,Dly,Tsk,IErr,IErrCnt,IErrLn,MM,MC,SmLn,SPICnt,I2CCnt
FMT, 91, 47, WDOG, QbIHHHHHHHIBIIn, TimeUS,Tsk,IE,IEC,IEL,MvMsg,MvCmd,SmLn,FL,FT,FA,FP,ICSR,LR,TN
FMT, 210, 20, UART, QBff, TimeUS,I,Tx,Rx
FMT, 115, 21, RPM, QBffB, TimeUS,I,RPM,Qual,H
FMT, 209, 27, FNCE, QBBBLLBf, TimeUS,Tot,Seq,Type,Lat,Lng,Count,Radius
FMT, 177, 33, DSF, QIHIIII, TimeUS,Dp,Blk,Bytes,FMn,FMx,FAv
FMT, 121, 24, RALY, QBBLLhB, TimeUS,Tot,Seq,Lat,Lng,Alt,Flags
FMT, 183, 23, MAV, QBHHHBHH, TimeUS,chan,txp,rxp,rxdp,flags,ss,tf
FMT, 167, 43, VISO, Qffffffff, TimeUS,dt,AngDX,AngDY,AngDZ,PosDX,PosDY,PosDZ,conf
FMT, 168, 58, VISP, QQIffffffffBBb, TimeUS,RTimeUS,CTimeMS,PX,PY,PZ,R,P,Y,PErr,AErr,Rst,Ign,Q
FMT, 169, 42, VISV, QQIffffBBb, TimeUS,RTimeUS,CTimeMS,VX,VY,VZ,VErr,Rst,Ign,Q
FMT, 180, 28, OF, QBffff, TimeUS,Qual,flowX,flowY,bodyX,bodyY
FMT, 182, 21, WENC, Qfbfb, TimeUS,Dist0,Qual0,Dist1,Qual1
FMT, 185, 35, ADSB, QIiiiHHhH, TimeUS,ICAO_address,Lat,Lng,Alt,Heading,Hor_vel,Ver_vel,Squark
FMT, 181, 12, EV, QB, TimeUS,Id
FMT, 186, 18, ARM, QBIBB, TimeUS,ArmState,ArmChecks,Forced,Method
FMT, 184, 13, ERR, QBB, TimeUS,Subsys,ECode
FMT, 187, 35, WINC, QBBBBBfffHfb, TimeUS,Heal,ThEnd,Mov,Clut,Mode,DLen,Len,DRate,Tens,Vcc,Temp
FMT, 188, 47, PSCN, Qfffffffff, TimeUS,DPN,TPN,PN,DVN,TVN,VN,DAN,TAN,AN
FMT, 189, 47, PSCE, Qfffffffff, TimeUS,DPE,TPE,PE,DVE,TVE,VE,DAE,TAE,AE
FMT, 190, 47, PSCD, Qfffffffff, TimeUS,DPD,TPD,PD,DVD,TVD,VD,DAD,TAD,AD
FMT, 191, 35, PSON, Qffffff, TimeUS,TPON,PON,TVON,VON,TAON,AON
FMT, 192, 35, PSOE, Qffffff, TimeUS,TPOE,POE,TVOE,VOE,TAOE,AOE
FMT, 193, 35, PSOD, Qffffff, TimeUS,TPOD,POD,TVOD,VOD,TAOD,AOD
FMT, 194, 35, PSOT, Qffffff, TimeUS,TPOT,POT,TVOT,VOT,TAOT,AOT
FMT, 75, 63, RATE, Qfffffffffffff, TimeUS,RDes,R,ROut,PDes,P,POut,YDes,Y,YOut,ADes,A,AOut,AOutSlew
FMT, 195, 39, ANG, Qfffffff, TimeUS,DesRoll,Roll,DesPitch,Pitch,DesYaw,Yaw,Dt
FMT, 201, 33, STAK, QBBHHN, TimeUS,Id,Pri,Total,Free,Name
FMT, 202, 88, FILE, NIBZ, FileName,Offset,Length,Data
FMT, 197, 78, AISR, QBBBZ, TimeUS,num,total,ID,payload
FMT, 198, 41, AIS1, QBBIBbHbLLHHBBbI, US,typ,rep,mmsi,nav,rot,sog,pos,lon,lat,cog,hed,sec,man,raim,rad
FMT, 199, 38, AIS4, QBIHBBBBBBLLBBI, US,rep,mmsi,year,mth,day,h,m,s,fix,lon,lat,epfd,raim,rad
FMT, 200, 175, AIS5, QBIBINZBHHBBBBZB, US,rep,mmsi,ver,imo,cal,nam,typ,bow,stn,prt,str,fix,dght,dst,dte
FMT, 203, 39, SCR, QNIii, TimeUS,Name,Runtime,Total_mem,Run_mem
FMT, 206, 90, VER, QBHBBBBIZHBB, TimeUS,BT,BST,Maj,Min,Pat,FWT,GH,FWS,APJ,BU,FV
FMT, 205, 32, MOTB, QfffffB, TimeUS,LiftMax,BatVolt,ThLimit,ThrAvMx,ThrOut,FailFlags
FMT, 6, 24, PTUN, QBfff, TimeUS,Param,TunVal,TunMin,TunMax
FMT, 0, 55, CTUN, Qffffffefffhh, TimeUS,ThI,ABst,ThO,ThH,DAlt,Alt,BAlt,DSAlt,SAlt,TAlt,DCRt,CRt
FMT, 1, 14, D16, QBh, TimeUS,Id,Value
FMT, 2, 14, DU16, QBH, TimeUS,Id,Value
FMT, 3, 16, D32, QBi, TimeUS,Id,Value
FMT, 4, 16, DU32, QBI, TimeUS,Id,Value
FMT, 5, 16, DFLT, QBf, TimeUS,Id,Value
FMT, 9, 47, SIDD, Qfffffffff, TimeUS,Time,Targ,F,Gx,Gy,Gz,Ax,Ay,Az
FMT, 10, 40, SIDS, QBfffffff, TimeUS,Ax,Mag,FSt,FSp,TFin,TC,TR,TFout
FMT, 8, 49, GUIP, QBfffbffffff, TimeUS,Type,pX,pY,pZ,Terrain,vX,vY,vZ,aX,aY,aZ
FMT, 11, 44, GUIA, QBffffffff, TimeUS,Type,Roll,Pitch,Yaw,RollRt,PitchRt,YawRt,Thrust,ClimbRt
POWR, 2337112681, 4.963595, 0, 1, 1, 6
MCU, 2337112681, 44.81113, 3.34938, 3.342496, 3.355444
BAT, 2337112697, 0, 14.63068, 20.49689, 5.103555, 3322.585, 49.31541, 0, 1.149436, 0, 1, 0
MAG, 2337112708, 0, 389, -235, 128, 102, 25, 42, 0, 0, 0, 1, 2337112707
MAG, 2337112708, 1, 373, -157, 126, 32, 17, -32, 0, 0, 0, 1, 2337112706
FMT, 249, 25, SURF, QBBfff, TimeUS,I,St,D,FD,TO
SURF, 2337112727, 0, 2, 0, 0, 3.03687
SURF, 2337112754, 1, 2, 0, 0, 3.03687
BARO, 2337112774, 0, 2.916992, 631.277, 93680.68, 47.42, 0.3603363, 2337112, 0, 28.74239, 1
CTUN, 2337112786, -2.712011E-06, -2.564775E-10, 0, 0.4229944, 3.059551, 3.059551, 2.91, NaN, 0, 0.01759087, 3, 3
ATT, 2337112844, 0.0001700159, 0.7095689, 0.0003397315, -0.342593, 75.24886, 29.84213, 3
ANG, 2337112224, 0.0001700159, 0.7095689, 0.0003397315, -0.342593, 75.24886, 29.84213, 0.0025
RATE, 2337112238, -2.219506, -0.0159574, -0.005162391, 3.557602, 0.0511451, 0.008293085, 263.1017, 0.02083187, 0.7329841, -0.1055717, -0.1055717, 0, 0
PIDR, 2337112861, -0.03899547, -0.0002785092, -0.03871696, -0.00522679, 0, 6.439796E-05, 0, 0, 1, 0.06298342, 9
PIDP, 2337112865, 0.06155667, 0.0008926503, 0.06066402, 0.008189643, 0, 0.0001034422, 0, 0, 1, 0.1025203, 9
PIDY, 2337112869, 4.540223, 0.0003635848, 4.072134, 0.7329841, 0, 0, 0, 0, 1, 0.4719687, 9
PIDA, 2337112873, -0.1055717, -0.1055717, 0, 0, -422.9971, 0, 0, 0, 1, 176.9071, 13
PIDN, 2337112877, 0, 0, 0, 0, 0, 0, 0, 0, 0, 0, 0
PIDE, 2337112881, 0, 0, 0, 0, 0, 0, 0, 0, 0, 0, 0
XKF4, 2337112334, 0, 0.01, 0.03, 0, 0, 0, 0.006129246, -0.3041592, 0.06824394, 0, 48, 109375, 0, 0
XKF1, 2337112334, 0, 0.7, -0.34, 29.84, 0.02008459, -0.003629621, -0.03879809, -0.05629522, -13.38972, -68.68401, -3.059551, -0.63, -0.99, -0.04, 628.36
XKF2, 2337112334, 0, 0, 0, 0, 0, 0, 400, -5, 144, 0, 0, 0, 0, 0, 0
XKF3, 2337112334, 0, 0.02, -0.02, 0, -0.27, 0.34, -0.11, 0, 0, 0, -0.49, 0, 0, 0.0008070495
XKF5, 2337112334, 0, 0, 0, 0, 0, 3.11, 0.04, 0, 0, 0.5, 0.0001050047, 0.01765971, 0.03416645
XKFS, 2337112334, 0, 0, 0, 0, 0, 0, 1, 0, 1
XKQ, 2337112334, 0, 0.9662539, 0.006753095, -0.001294431, 0.2574999
XKT, 2337112334, 0, 408, 0.002500002, 0.002500002, 0.01249189, 0.01250727, 0.01186857, 0.01285771, 0.01186855, 0.01285771
XKF4, 2337112334, 1, 0.03, 0.03, 0, 0, 0, 0.006134835, 0.09063154, 0.2346896, 0, 48, 109375, 0, 0
XKY0, 2337112334, 1, 302.5071, 14.38559, 216.0105, 287.9777, 359.9296, 71.93273, 143.9827, 0.2000233, 0.2003762, 0.200209, 0.1997531, 0.1996384
XKY1, 2337112334, 1, -0.02575212, 0.002605963, 0.007000492, -0.01870189, -0.03895321, -0.05884676, -0.05421808, -0.0258028, -0.0128348, -0.03329923
XKF1, 2337112334, 1, 0.55, -0.66, 29.92, 0.08595005, 0.04301049, -0.03605905, -0.05480783, -13.40873, -68.68997, -3.04854, -0.11, -0.06, 0, 628.36
XKF2, 2337112334, 1, 0.02, 0, 0, 0, 0, 400, -5, 144, 0, 0, 0, 0, 0, 0
XKF3, 2337112334, 1, 0.08, 0.02, 0, -0.32, 0.32, -0.1, 0, 0, 0, -0.41, 0, 0.2088543, 0.00124936
XKFS, 2337112334, 1, 0, 0, 0, 0, 0, 1, 0, 1
XKQ, 2337112334, 1, 0.9660568, 0.006171272, -0.004364757, 0.2582192
XKT, 2337112334, 1, 408, 0.002500002, 0.002500002, 0.01249289, 0.01250886, 0.01200652, 0.01300714, 0.01172589, 0.0131918
AHR2, 2337113022, 0.85, -0.67, 29.16, 634.33, 15.3675301, 75.1247907, 0.9677368, 0.008693558, -0.003802957, 0.2517844
POS, 2337113027, 15.3675276, 75.1247937, 631.41, 0.02955059, 3.059551
MOTB, 2337113032, 1, 1, 1, 0.04229945, 0, 2
RCIN, 2337113039, 1102, 1927, 1102, 1927, 1401, 2000, 2000, 1000, 2000, 875, 875, 875, 875, 875
RCI2, 2337113042, 875, 875, 0, 1
RCOU, 2337113049, 1000, 1000, 1000, 1000, 0, 0, 0, 0, 0, 0, 0, 0, 0, 0
RCO2, 2337113059, 0, 0, 0, 0
PSCN, 2337113065, -13.38972, -13.38972, -13.38972, 0.02008459, 0.02008459, 0.02008459, 0, 0, -6.491779E-05
PSCE, 2337113070, -68.68401, -68.68401, -68.68401, -0.003629621, -0.003629621, -0.003629621, 0, 0, -3.694049E-06
PSCD, 2337113074, -3.059551, -3.059551, -3.059551, -0.03879809, -0.03879809, -0.03879809, 0.001055717, 0.001055717, 0.001055717
VIBE, 2337113079, 0, 0.007333349, 0.008982053, 0.008389397, 0
VIBE, 2337113079, 1, 0.06384013, 0.06010874, 0.06933079, 0
FMT, 246, 31, CTRL, Qfffff, TimeUS,RMSRollP,RMSRollD,RMSPitchP,RMSPitchD,RMSYaw
CTRL, 2337113087, 0.006184607, 0.0001235425, 0.00679097, 0.0002095919, 0.4865288
IMU, 2337113180, 0, -0.01141545, -0.01640231, -0.0004705478, -0.07284916, -0.1324531, -9.796893, 0, 0, 45.28986, 1, 1, 2022, 2022
IMU, 2337113180, 1, -0.001863138, -0.003248535, -0.000233366, -0.07094909, -0.1126311, -9.821487, 0, 0, 45, 1, 1, 1998, 2046
FMT, 252, 43, DCM, Qffffffff, TimeUS,Roll,Pitch,Yaw,ErrRP,ErrYaw,VWN,VWE,VWD
DCM, 2337114825, 0.8553805, -0.6730932, 29.163, 0.02497265, 0.02765688, 0, 0, 0
FMT, 251, 51, EAHR, QffffffLLfI, TimeUS,Roll,Pitch,Yaw,VN,VE,VD,Lat,Lon,Alt,Flg
EAHR, 2337114869, 0, 0, 0, 0, 0, 0, 0, 0, 0, 0
IMU, 2337153165, 0, -0.01185097, -0.01742868, 0.0001144906, -0.07201514, -0.1412982, -9.791526, 0, 0, 44.80676, 1, 1, 2022, 2022
IMU, 2337153165, 1, -0.003091704, -0.003942757, 0.0004157887, -0.06982422, -0.1007436, -9.804725, 0, 0, 45, 1, 1, 1998, 2046
MSG, 2337160467, ArduCopter V4.6.2 (1ebd4d99)
MSG, 2337160475, ChibiOS: 88b84600
VER, 2337160480, 10, 5009, 4, 6, 2, 255, 515722649, ArduCopter V4.6.2 (1ebd4d99), 56, 2, 2
MSG, 2337160493, Pixhawk6C 003D0048 3133510F 31343630
MSG, 2337160510, Param space used: 914/5376
MSG, 2337160541, RC Protocol: SBUS
MSG, 2337160582, RCOut: PWM:1-16
MSG, 2337160602, New mission
SURF, 2337162681, 0, 2, 0, 0, 3.037978
SURF, 2337162692, 1, 2, 0, 0, 3.037978
CMD, 2337162744, 4, 0, 16, 0, 0, 0, 0, 15.3675274, 75.1247941, 631.39, 0
CMD, 2337162753, 4, 1, 22, 1, 0, 0, 0, 0, 0, 10, 3
CMD, 2337162760, 4, 2, 16, 10, 0, 0, 0, 15.367361, 75.1254623, 10, 3
CMD, 2337162767, 4, 3, 20, 0, 0, 0, 0, 0, 0, 0, 0
MSG, 2337162771, New rally
MSG, 2337162777, New fence
FNCE, 2337162784, 14, 0, 98, 15.3679153, 75.1255443, 14, 0
FNCE, 2337162790, 14, 1, 98, 15.3678714, 75.1258394, 14, 0
FNCE, 2337162795, 14, 2, 98, 15.3676541, 75.1260915, 14, 0
FNCE, 2337162801, 14, 3, 98, 15.3674795, 75.1260915, 14, 0
FNCE, 2337162806, 14, 4, 98, 15.3673825, 75.1260754, 14, 0
FNCE, 2337162811, 14, 5, 98, 15.3673075, 75.12607, 14, 0
FNCE, 2337162830, 14, 6, 98, 15.3670748, 75.1260566, 14, 0
FNCE, 2337162848, 14, 7, 98, 15.3668963, 75.1258796, 14, 0
FNCE, 2337162854, 14, 8, 98, 15.366811, 75.1255792, 14, 0
FNCE, 2337162859, 14, 9, 98, 15.3668653, 75.1252922, 14, 0
FNCE, 2337162864, 14, 10, 98, 15.3670334, 75.1250857, 14, 0
FNCE, 2337162870, 14, 11, 98, 15.3673696, 75.1251125, 14, 0
FNCE, 2337162908, 14, 12, 98, 15.3675817, 75.1251393, 14, 0
FNCE, 2337162913, 14, 13, 98, 15.3678481, 75.1253163, 14, 0
MSG, 2337162925, Frame: QUAD/X
MODE, 2337162930, Loiter, 5, 53
ORGN, 2337162934, 0, 15.3676479, 75.1254335, 628.36
ORGN, 2337162938, 1, 15.3675274, 75.1247941, 631.39
MSG, 2337162946, GPS 1: probing for u-blox at 230400 baud
MSG, 2337162956, u-blox 1 HW: 00190000 SW: EXT CORE 4.04 (7f89f7)
FILE, @SYS/uarts.txt, 0, 64, UARTV1\nSERIAL0 OTG1  TX =       0 RX =       0 TXBD=     0 RXBD=
GPS, 2337172741, 0, 3, 302039000, 2379, 11, 1.05, 15.3675303, 75.1247904, 632.37, 0.012, 64.99162, -0.022, 0, 1
GPA, 2337172741, 0, 1.37, 1.55, 2, 0.19, 0, 1, 2337144, 200, 554.36, 0, 0
FILE, @SYS/uarts.txt, 64, 64,      0 FE=0 OE=0 NE=0 FlowCtrl=0\nSERIAL1 UART7 TX*= 4366116 RX*=
IMU, 2337192945, 0, -0.01119423, -0.01715946, -0.003900076, -0.06700229, -0.1405717, -9.797132, 0, 0, 45.28986, 1, 1, 2022, 2022
IMU, 2337192945, 1, -0.002147397, 0.0005362194, -0.002373361, -0.05951343, -0.09102084, -9.783399, 0, 0, 45, 1, 1, 1998, 2046
FILE, @SYS/uarts.txt, 128, 64,   565939 TXBD=   304 RXBD=   583 FE=0 OE=0 NE=0 FlowCtrl=0\nSERIA
POWR, 2337212613, 4.967624, 0, 1, 1, 6
MCU, 2337212613, 44.9503, 3.348817, 3.341234, 3.354597
BAT, 2337212626, 0, 14.62546, 20.49398, 5.105568, 3322.727, 49.31748, 0, 1.149436, 0, 1, 0
MAG, 2337212638, 0, 387, -236, 67, 102, 25, 42, 0, 0, 0, 1, 2337212637
MAG, 2337212638, 1, 372, -156, 125, 32, 17, -32, 0, 0, 0, 1, 2337212635
SURF, 2337212656, 0, 2, 0, 0, 3.039147
SURF, 2337212665, 1, 2, 0, 0, 3.039147
BARO, 2337212684, 0, 2.978821, 631.3388, 93679.96, 47.42, 0.2242279, 2337212, 0, 28.74239, 1
CTUN, 2337212697, -2.712011E-06, -2.544311E-10, 0, 0.4229944, 3.063797, 3.063797, 2.97, NaN, 0, 0.02710259, 3, 3
MAV, 2337212796, 1, 64624, 26720, 0, 6, 0, 18
ATT, 2337212830, 0.0002047321, 0.7081773, 0.0002392524, -0.3377922, 75.31656, 29.8418, 3
ANG, 2337212225, 0.0002047321, 0.7081773, 0.0002392524, -0.3377922, 75.31656, 29.8418, 0.002501
RATE, 2337212237, -2.067808, -0.01893131, -0.00474894, 3.866247, 0.08148544, 0.008844256, 290.0996, -0.07171381, 0.8420671, -0.0623703, -0.0623703, 0, 0
PIDR, 2337212846, -0.03633543, -0.0003304137, -0.03600501, -0.004860677, 0, 0.000111737, 0, 0, 1, 0.05698256, 9
PIDP, 2337212850, 0.06694523, 0.001422189, 0.06552304, 0.008845611, 0, -1.354512E-06, 0, 0, 1, 0.09275254, 9
PIDY, 2337212854, 5.013916, -0.001251642, 4.67815, 0.8420671, 0, 0, 0, 0, 1, 0.520539, 9
PIDA, 2337212857, -0.0623703, -0.0623703, 0, 0, -422.9971, 0, 0, 0, 1, 160.052, 13
PIDN, 2337212861, 0, 0, 0, 0, 0, 0, 0, 0, 0, 0, 0
PIDE, 2337212865, 0, 0, 0, 0, 0, 0, 0, 0, 0, 0, 0
XKF4, 2337212334, 0, 0, 0.04, 0, 0, 0, 0.006099645, -0.3041592, 0.06824394, 0, 48, 109375, 0, 0
XKY0, 2337212334, 0, 179.9478, 15.03759, 216.0001, 288.0001, 6.541386E-05, 72.00007, 144.0001, 0.2, 0.2, 0.2, 0.2, 0.2
XKY1, 2337212334, 0, 0, 0, 0, 0, 0, 0, 0, 0, 0, 0
XKF1, 2337212334, 0, 0.7, -0.33, 29.84, 0.01795999, -0.007375707, -0.03859197, -0.04433218, -13.38289, -68.69162, -3.063797, -0.63, -0.99, -0.04, 628.36
XKF2, 2337212334, 0, 0.01, 0, 0, 0, 0, 400, -5, 144, 0, 0, 0, 0, 0, 0
XKF3, 2337212334, 0, 0.01, 0, -0.01, -0.27, 0.36, -0.15, 0, 0, 0, -0.83, 0, 0, 0.0008736496
XKF5, 2337212334, 0, 0, 0, 0, 0, 3.11, 0.04, 0, 0, 0.5, 9.285189E-05, 0.01447908, 0.03322896
XKFS, 2337212334, 0, 0, 0, 0, 0, 0, 1, 0, 1
XKQ, 2337212334, 0, 0.9662549, 0.006730571, -0.001257096, 0.2574969
XKF4, 2337212334, 1, 0.03, 0.04, 0, 0, 0, 0.006103083, 0.09063154, 0.2346896, 0, 48, 109375, 0, 0
XKY0, 2337212334, 1, 294.2023, 14.27363, 216.0294, 287.9685, 359.8972, 71.91394, 143.9957, 0.2001257, 0.2006153, 0.2002539, 0.1995421, 0.199463
XKY1, 2337212334, 1, -0.02180732, 0.0148478, 0.01923217, -0.01472647, -0.04011725, -0.01876503, -0.01143835, 0.02567697, 0.04133893, 0.01385493
XKF1, 2337212334, 1, 0.55, -0.65, 29.92, 0.08065897, 0.03734095, -0.03594272, -0.04336323, -13.40198, -68.69749, -3.05274, -0.11, -0.07, 0, 628.36
XKF2, 2337212334, 1, 0.04, 0, 0, 0, 0, 400, -5, 144, 0, 0, 0, 0, 0, 0
XKF3, 2337212334, 1, 0.07, 0.04, -0.01, -0.32, 0.34, -0.13, 0, 0, 0, -0.76, 0, 0.2271726, 0.001365425
XKFS, 2337212334, 1, 0, 0, 0, 0, 0, 1, 0, 1
XKQ, 2337212334, 1, 0.9660596, 0.006127059, -0.00430695, 0.2582108
AHR2, 2337212956, 0.87, -0.68, 29.17, 634.3, 15.3675303, 75.1247904, 0.9677117, 0.008860712, -0.003840772, 0.2518747
POS, 2337212969, 15.3675276, 75.1247936, 631.42, 0.03379706, 3.063797
MOTB, 2337212973, 1, 1, 1, 0.04229945, 0, 2
RCIN, 2337212979, 1102, 1927, 1102, 1927, 1401, 2000, 2000, 1000, 2000, 875, 875, 875, 875, 875
RCI2, 2337212983, 875, 875, 0, 1
RCOU, 2337212989, 1000, 1000, 1000, 1000, 0, 0, 0, 0, 0, 0, 0, 0, 0, 0
RCO2, 2337212993, 0, 0, 0, 0
PSCN, 2337212999, -13.38289, -13.38289, -13.38289, 0.01795999, 0.01795999, 0.01795999, 0, 0, -5.295712E-05
PSCE, 2337213004, -68.69162, -68.69162, -68.69162, -0.007375707, -0.007375707, -0.007375707, 0, 0, 1.001816E-05
PSCD, 2337213008, -3.063797, -3.063797, -3.063797, -0.03859197, -0.03859197, -0.03859197, 0.000623703, 0.000623703, 0.000623703
VIBE, 2337213012, 0, 0.007360269, 0.008534518, 0.009393907, 0
VIBE, 2337213012, 1, 0.06431919, 0.05990547, 0.07175141, 0
CTRL, 2337213077, 0.005825606, 0.0001188107, 0.007445822, 0.0002180075, 0.6066818
DCM, 2337214844, 0.8715122, -0.6814123, 29.17325, 0.02380923, 0.02783465, 0, 0, 0
EAHR, 2337214882, 0, 0, 0, 0, 0, 0, 0, 0, 0, 0
FILE, @SYS/uarts.txt, 192, 64, L2 UART5 TX*=   55402 RX*=       0 TXBD=   237 RXBD=     0 FE=0 
IMU, 2337232753, 0, -0.01081906, -0.01606304, 0.0001543919, -0.07278796, -0.1325101, -9.790532, 0, 0, 44.80676, 1, 1, 2022, 2022
IMU, 2337232753, 1, -0.002768646, -0.0008028681, 0.0007498668, -0.0818003, -0.09527194, -9.778621, 0, 0, 45, 1, 1, 1998, 2046
FILE, @SYS/uarts.txt, 256, 64, OE=0 NE=0 FlowCtrl=0\nSERIAL3 UART1 TX*=    9806 RX*= 1592238 TXB
STAK, 2337240408, 16, 183, 1456, 896, IOMCU
FILE, @SYS/uarts.txt, 320, 64, D=    41 RXBD=  1299 FE=148 OE=0 NE=166 FlowCtrl=0\nSERIAL4 UART8
FILE, @SYS/uarts.txt, 384, 64,  TX*=       0 RX*=       0 TXBD=     0 RXBD=     0 FE=0 OE=0 NE=
SURF, 2337262648, 0, 2, 0, 0, 3.04035
SURF, 2337262676, 1, 2, 0, 0, 3.04035
FILE, @SYS/uarts.txt, 448, 64, 0 FlowCtrl=0\nSERIAL5 UART2 TX =       0 RX =       0 TXBD=     0
IMU, 2337272675, 0, -0.01114843, -0.01613044, -0.0004016834, -0.06744266, -0.1425256, -9.795746, 0, 0, 45.28986, 1, 1, 2022, 2022
IMU, 2337272675, 1, -0.002100036, 0.002010528, -0.0006760682, -0.06583688, -0.1088889, -9.818509, 0, 0, 45, 1, 1, 1998, 2046
FILE, @SYS/uarts.txt, 512, 64,  RXBD=     0 FE=0 OE=0 NE=0 FlowCtrl=0\nSERIAL6 UART3 TX =       
FILE, @SYS/uarts.txt, 576, 64, 0 RX =       0 TXBD=     0 RXBD=     0 FE=0 OE=0 NE=0 FlowCtrl=0
FILE, @SYS/uarts.txt, 640, 64, \nSERIAL7 OTG2  TX =       0 RX =       0 TXBD=     0 RXBD=     0
POWR, 2337312685, 4.967624, 0, 1, 1, 6
MCU, 2337312685, 44.91054, 3.34938, 3.342355, 3.356151
BAT, 2337312698, 0, 14.63141, 20.50351, 5.108681, 3322.869, 49.31956, 0, 1.149436, 0, 1, 0
MAG, 2337312710, 0, 385, -233, 75, 102, 25, 42, 0, 0, 0, 1, 2337312709
MAG, 2337312710, 1, 373, -157, 125, 32, 17, -32, 0, 0, 0, 1, 2337312707
SURF, 2337312728, 0, 2, 0, 0, 3.041583
SURF, 2337312737, 1, 2, 0, 0, 3.041583
BARO, 2337312756, 0, 2.914063, 631.274, 93680.7, 47.42, -0.08642195, 2337312, 0, 28.74239, 1
CTUN, 2337312769, -2.712011E-06, -2.514753E-10, 0, 0.4229944, 3.067288, 3.067288, 2.91, NaN, 0, 0.0264312, 3, 3
DU32, 2337312785, 7, 6349272
TERR, 2337312813, 2, 15.3675277, 75.1247935, 100, 631.3936, 0.0264312, 0, 336, -3.568877
ATT, 2337312917, 0.0001936788, 0.7067385, 0.0002731675, -0.3300524, 75.35065, 29.84331, 3
ANG, 2337312224, 0.0001936788, 0.7067385, 0.0002731675, -0.3300524, 75.35065, 29.84331, 0.002494
RATE, 2337312236, -2.013268, -0.028548, -0.004673515, 3.985422, 0.07111059, 0.009165162, 302.9247, -0.1382645, 0.9217942, -0.7156372, -0.7156372, 0, 0
PIDR, 2337312935, -0.03510474, -0.0004982566, -0.03460649, -0.004671876, 0, -1.639381E-06, 0, 0, 1, 0.05155355, 9
PIDP, 2337312966, 0.06963644, 0.001241114, 0.06839533, 0.00923337, 0, -6.820834E-05, 0, 0, 1, 0.08391556, 9
PIDY, 2337312970, 5.286874, -0.002413171, 5.121078, 0.9217942, 0, 0, 0, 0, 1, 0.5482468, 9
PIDA, 2337312973, -0.7156372, -0.7156372, 0, 0, -422.9971, 0, 0, 0, 1, 144.8031, 13
PIDN, 2337312978, 0, 0, 0, 0, 0, 0, 0, 0, 0, 0, 0
PIDE, 2337312981, 0, 0, 0, 0, 0, 0, 0, 0, 0, 0, 0
XKF4, 2337312377, 0, 0, 0.04, 0, 0.01, 0, 0.006179684, -0.3041592, 0.06824394, 0, 48, 109375, 0, 0
XKY0, 2337312377, 0, 179.7275, 15.02849, 215.999, 287.999, 359.999, 71.99903, 143.999, 0.2, 0.2, 0.2, 0.2, 0.2
XKY1, 2337312377, 0, 0, 0, 0, 0, 0, 0, 0, 0, 0, 0
XKF1, 2337312377, 0, 0.7, -0.33, 29.84, 0.0151768, -0.01129815, -0.03784168, -0.03223721, -13.37544, -68.70036, -3.067289, -0.63, -0.99, -0.04, 628.36
XKF2, 2337312377, 0, 0.01, 0, 0, 0, 0, 400, -5, 144, 0, 0, 0, 0, 0, 0
XKF3, 2337312377, 0, 0.01, 0, -0.01, -0.27, 0.36, -0.09, 0, 0, 0, -0.91, 0, 0, 0.0008736496
XKF5, 2337312377, 0, 0, 0, 0, 0, 3.11, 0.04, 0, 0, 0.5, 0.000104958, 0.01630617, 0.03263243
XKFS, 2337312377, 0, 0, 0, 0, 0, 0, 1, 0, 1
XKQ, 2337312377, 0, 0.9662519, 0.006701064, -0.001194977, 0.2575092
XKF4, 2337312377, 1, 0.03, 0.04, 0, 0, 0, 0.006182787, 0.09063154, 0.2346896, 0, 48, 109375, 0, 0
XKY0, 2337312377, 1, 294.2006, 14.27366, 216.0278, 287.9669, 359.8956, 71.91231, 143.994, 0.2001257, 0.2006153, 0.2002539, 0.1995421, 0.199463
XKY1, 2337312377, 1, -0.02180732, 0.0148478, 0.01923217, -0.01472647, -0.04011725, -0.01876503, -0.01143835, 0.02567697, 0.04133893, 0.01385493
XKF1, 2337312377, 1, 0.54, -0.65, 29.92, 0.07360658, 0.02963214, -0.03564845, -0.03227132, -13.39527, -68.70673, -3.056203, -0.11, -0.07, 0, 628.36
XKF2, 2337312377, 1, 0.04, 0, 0, 0, 0, 400, -5, 144, 0, 0, 0, 0, 0, 0
XKF3, 2337312377, 1, 0.07, 0.04, -0.01, -0.32, 0.34, -0.07, 0, 0, 0, -0.83, 0, 0.2468433, 0.001365425
XKFS, 2337312377, 1, 0, 0, 0, 0, 0, 1, 0, 1
XKQ, 2337312377, 1, 0.9660648, 0.006094399, -0.004254648, 0.2581931
AHR2, 2337313151, 0.85, -0.66, 29.18, 634.36, 15.3675303, 75.1247904, 0.9676851, 0.008677837, -0.003743141, 0.2519845
POS, 2337313157, 15.3675277, 75.1247935, 631.42, 0.0372887, 3.067289
MOTB, 2337313165, 1, 1, 1, 0.04229945, 0, 2
RCIN, 2337313171, 1102, 1927, 1102, 1927, 1401, 2000, 2000, 1000, 2000, 875, 875, 875, 875, 875
RCI2, 2337313175, 875, 875, 0, 1
RCOU, 2337313181, 1000, 1000, 1000, 1000, 0, 0, 0, 0, 0, 0, 0, 0, 0, 0
RCO2, 2337313184, 0, 0, 0, 0
PSCN, 2337313191, -13.37544, -13.37544, -13.37544, 0.0151768, 0.0151768, 0.0151768, 0, 0, -5.7051E-05
PSCE, 2337313195, -68.70036, -68.70036, -68.70036, -0.01129815, -0.01129815, -0.01129815, 0, 0, 5.487102E-06
PSCD, 2337313199, -3.067288, -3.067288, -3.067288, -0.03784168, -0.03784168, -0.03784168, 0.007156372, 0.007156372, 0.007156372
VIBE, 2337313203, 0, 0.008672807, 0.008050145, 0.008794583, 0
VIBE, 2337313203, 1, 0.06440504, 0.05824997, 0.07618822, 0
CTRL, 2337313212, 0.005491805, 0.0001086114, 0.008060408, 0.0001954392, 0.7130237
IMU, 2337313222, 0, -0.01163006, -0.01604844, -0.00324884, -0.0738632, -0.1366675, -9.790867, 0, 0, 45.28986, 1, 1, 2022, 2022
IMU, 2337313222, 1, -0.001721446, -0.003272231, -0.002472008, -0.06730458, -0.1143696, -9.814065, 0, 0, 45, 1, 1, 1998, 2046
UART, 2337313319, 1, 2054, 361
UART, 2337313324, 2, 116, 0
UART, 2337313327, 3, 0, 653
UART, 2337313331, 100, 8377, 5168
DCM, 2337314811, 0.8537618, -0.6651157, 29.18628, 0.02380923, 0.02714516, 0, 0, 0
EAHR, 2337314835, 0, 0, 0, 0, 0, 0, 0, 0, 0, 0
FILE, @SYS/uarts.txt, 704, 64,  FE=0 OE=0 NE=0 FlowCtrl=0\nIOMCU   UART6 TX*=19594558 RX*=120406
FILE, @SYS/uarts.txt, 768, 53, 64 TXBD=  1143 RXBD=    63 FE=0 OE=0 NE=0 FlowCtrl=0\n
STAK, 2337341415, 17, 59, 2016, 736, log_io
GPS, 2337353224, 0, 3, 302039200, 2379, 11, 1.05, 15.3675304, 75.1247902, 632.41, 0.026, 64.99162, -0.024, 0, 1
GPA, 2337353224, 0, 1.37, 1.54, 1.98, 0.22, 0, 1, 2337344, 200, 554.4, 0, 0
IMU, 2337353289, 0, -0.01170237, -0.01752236, -0.0003762893, -0.07120226, -0.1233743, -9.789876, 0, 0, 44.80676, 1, 1, 2022, 2022
IMU, 2337353289, 1, -0.003044955, -0.001377434, 0.00238574, -0.07307369, -0.1082308, -9.809501, 0, 0, 45, 1, 1, 1998, 2046
FILE, @SYS/memory.txt, 0, 64, MemInfoV1\nSTART=0x24000000 LEN=512k FREE=  2336 LRG=  1152 TYPE=
SURF, 2337362618, 0, 2, 0, 0, 3.042838
SURF, 2337362627, 1, 2, 0, 0, 3.042838
FILE, @SYS/memory.txt, 64, 64, 4\nSTART=0x30000000 LEN=256k FREE=262136 LRG=262136 TYPE=8\nSTART=
FILE, @SYS/memory.txt, 128, 64, 0x20000000 LEN=128k FREE=112544 LRG=112544 TYPE=2\nSTART=0x000004
IMU, 2337392880, 0, -0.01114071, -0.01593691, -0.0009048127, -0.06936293, -0.1467045, -9.795019, 0, 0, 45.28986, 1, 1, 2022, 2022
IMU, 2337392880, 1, -0.001412765, -0.001988517, 0.0002159789, -0.05588774, -0.1133139, -9.788729, 0, 0, 45, 1, 1, 1998, 2046
FILE, @SYS/memory.txt, 192, 64, 00 LEN= 63k FREE= 64504 LRG= 64504 TYPE=2\nSTART=0x30040000 LEN= 
FILE, @SYS/memory.txt, 256, 64, 32k FREE= 32760 LRG= 32760 TYPE=8\nSTART=0x38000000 LEN= 64k FREE
POWR, 2337412703, 4.969638, 0, 1, 1, 6
MCU, 2337412703, 44.91054, 3.34938, 3.341795, 3.354879
BAT, 2337412718, 0, 14.64029, 20.51492, 5.110878, 3323.011, 49.32164, 0, 1.149436, 0, 1, 0
MAG, 2337412730, 0, 386, -235, 109, 102, 25, 42, 0, 0, 0, 1, 2337412729
MAG, 2337412730, 1, 371, -157, 126, 32, 17, -32, 0, 0, 0, 1, 2337412727
SURF, 2337412752, 0, 2, 0, 0, 3.044116
SURF, 2337412761, 1, 2, 0, 0, 3.044116
BARO, 2337412781, 0, 2.919922, 631.2799, 93680.63, 47.42, -0.1350784, 2337412, 0, 28.74239, 1
CTUN, 2337412793, -2.712011E-06, -2.489742E-10, 0, 0.4229944, 3.070226, 3.070226, 2.91, NaN, 0, 0.03545464, 3, 3
ATT, 2337412854, 0.0002132815, 0.7050414, 0.0002192489, -0.324788, 75.35287, 29.84389, 3
ANG, 2337412230, 0.0002132815, 0.7050414, 0.0002192489, -0.324788, 75.35287, 29.84389, 0.002501
RATE, 2337412243, -2.024203, -0.02321682, -0.004660251, 3.955659, 0.06662583, 0.009244465, 302.9248, -0.1322424, 0.945303, -0.5288124, -0.5288124, 0, 0
PIDR, 2337412870, -0.03528597, -0.0004052101, -0.03488076, -0.004708902, 0, 4.86517E-05, 0, 0, 1, 0.04664147, 9
PIDP, 2337412874, 0.06911699, 0.00116284, 0.06795415, 0.00917381, 0, 7.065592E-05, 0, 0, 1, 0.07591999, 9
PIDY, 2337412878, 5.287035, -0.002308066, 5.251683, 0.945303, 0, 0, 0, 0, 1, 0.559271, 9
PIDA, 2337412882, -0.5288124, -0.5288124, 0, 0, -422.9971, 0, 0, 0, 1, 131.006, 13
PIDN, 2337412886, 0, 0, 0, 0, 0, 0, 0, 0, 0, 0, 0
PIDE, 2337412892, 0, 0, 0, 0, 0, 0, 0, 0, 0, 0, 0
XKF4, 2337412331, 0, 0.01, 0.04, 0, 0, 0, 0.006187786, -0.3041592, 0.06824394, 0, 48, 109375, 0, 0
XKY0, 2337412331, 0, 146.8023, 13.20603, 215.2459, 287.494, 0.4392569, 72.7754, 144.0378, 0.20768, 0.1823196, 0.18111, 0.2054895, 0.2234009
XKY1, 2337412331, 0, -1.000194, 0.986828, 1.655692, 0.0820509, -1.559377, -1.348619, -1.406282, 0.4656695, 1.680262, 0.5589698
XKF1, 2337412331, 0, 0.7, -0.32, 29.84, 0.01060879, -0.01426496, -0.03708598, -0.02581776, -13.36871, -68.70912, -3.070226, -0.63, -0.99, -0.04, 628.36
XKF2, 2337412331, 0, 0.01, 0, 0, 0, 0, 400, -5, 144, 0, 0, 0, 0, 0, 0
XKF3, 2337412331, 0, 0.04, -0.01, -0.01, -0.27, 0.37, -0.15, 0, 0, 0, -0.68, 0, 0, 0.0009973939
XKF5, 2337412331, 0, 0, 0, 0, 0, 3.12, 0.04, 0, 0, 0.5, 0.0001182259, 0.01426021, 0.02878881
XKFS, 2337412331, 0, 0, 0, 0, 0, 0, 1, 0, 1
XKQ, 2337412331, 0, 0.9662508, 0.006674932, -0.001154366, 0.2575139
XKV1, 2337412331, 0, 1.763725E-05, 4.776845E-06, 4.784582E-06, 0.000223901, 0.02255774, 0.02255496, 0.01171558, 0.1148277, 0.1148253, 0.1466342, 3.926572E-11, 3.926358E-11
XKV2, 2337412331, 0, 1.074584E-10, 4.4223E-06, 4.422258E-06, 5.805692E-08, 0, 0, 0, 0, 0, 0, 0, 0
XKF4, 2337412331, 1, 0.03, 0.04, 0, 0, 0, 0.006189305, 0.09063154, 0.2346896, 0, 48, 109375, 0, 0
XKY0, 2337412331, 1, 226.4002, 14.32328, 215.9615, 287.9228, 359.9283, 71.97041, 143.9909, 0.2003171, 0.2001532, 0.1997777, 0.1997094, 0.2000426
XKY1, 2337412331, 1, 0.0119452, 0.05275986, 0.05790706, 0.02023815, -0.008210899, -0.03482657, -0.02692781, 0.01431902, 0.03199686, 0.001586213
XKF1, 2337412331, 1, 0.54, -0.64, 29.92, 0.06374481, 0.0217086, -0.03442299, -0.02500833, -13.38937, -68.71706, -3.059071, -0.11, -0.07, 0, 628.36
XKF2, 2337412331, 1, 0.06, 0, 0, 0, 0, 400, -5, 144, 0, 0, 0, 0, 0, 0
XKF3, 2337412331, 1, 0.09, 0.02, -0.01, -0.32, 0.35, -0.14, 0, 0, 0, -0.6, 0, 0.266215, 0.001456069
XKFS, 2337412331, 1, 0, 0, 0, 0, 0, 1, 0, 1
XKQ, 2337412331, 1, 0.9660602, 0.006066566, -0.004226691, 0.2582111
AHR2, 2337413037, 0.85, -0.64, 29.19, 634.3, 15.3675304, 75.1247902, 0.967665, 0.008625753, -0.003608125, 0.2520654
POS, 2337413043, 15.3675279, 75.1247934, 631.43, 0.04022578, 3.070226
MOTB, 2337413048, 1, 1, 1, 0.04229945, 0, 2
RCIN, 2337413054, 1102, 1927, 1102, 1927, 1401, 2000, 2000, 1000, 2000, 875, 875, 875, 875, 875
RCI2, 2337413058, 875, 875, 0, 1
RCOU, 2337413064, 1000, 1000, 1000, 1000, 0, 0, 0, 0, 0, 0, 0, 0, 0, 0
RCO2, 2337413067, 0, 0, 0, 0
PSCN, 2337413074, -13.36871, -13.36871, -13.36871, 0.01060879, 0.01060879, 0.01060879, 0, 0, -5.071597E-05
PSCE, 2337413078, -68.70912, -68.70912, -68.70912, -0.01426496, -0.01426496, -0.01426496, 0, 0, 1.298927E-05
PSCD, 2337413083, -3.070226, -3.070226, -3.070226, -0.03708598, -0.03708598, -0.03708598, 0.005288124, 0.005288124, 0.005288124
VIBE, 2337413087, 0, 0.007338288, 0.009219559, 0.008746404, 0
VIBE, 2337413087, 1, 0.05824704, 0.06297923, 0.0742154, 0
CTRL, 2337413095, 0.005244871, 9.870056E-05, 0.008482133, 0.0001799318, 0.7943873
DCM, 2337414819, 0.8527701, -0.648671, 29.19577, 0.02305776, 0.02734442, 0, 0, 0
EAHR, 2337414843, 0, 0, 0, 0, 0, 0, 0, 0, 0, 0
FILE, @SYS/memory.txt, 320, 26, = 56808 LRG= 56152 TYPE=1\n
IMU, 2337432716, 0, -0.01152232, -0.01681353, -0.002896869, -0.07426786, -0.1265948, -9.792058, 0, 0, 45.28986, 1, 1, 2022, 2022
IMU, 2337432716, 1, -0.002453709, -0.002885665, -0.001761332, -0.05562488, -0.1006023, -9.792857, 0, 0, 45, 1, 1, 1998, 2046
FILE, @SYS/threads.txt, 0, 64, ThreadsV2\nISR           PRI=255 sp=0x24000000 STACK=1268/1536\nAr
STAK, 2337441458, 18, 176, 1456, 984, I2C1
FILE, @SYS/threads.txt, 64, 64, duCopter    PRI=182 sp=0x24000600 STACK=4000/7168\nidle          
RAD, 2337455659, 73, 0, 100, 106, 0, 0, 0
SURF, 2337462665, 0, 2, 0, 0, 3.045391
SURF, 2337462674, 1, 2, 0, 0, 3.045391
FILE, @SYS/threads.txt, 128, 64, PRI=  1 sp=0x240214B0 STACK=288/496\nUART_RX       PRI= 60 sp=0x2
IMU, 2337472710, 0, -0.01170981, -0.01692, -2.005834E-05, -0.07295968, -0.1264784, -9.787841, 0, 0, 45.28986, 1, 1, 2022, 2022
IMU, 2337472710, 1, -0.002657451, -0.001687399, 0.0005129663, -0.06639726, -0.1231013, -9.782961, 0, 0, 45, 1, 1, 1998, 2046
FILE, @SYS/threads.txt, 192, 64, 407B0E8 STACK=880/1200\nOTG1          PRI= 60 sp=0x2407A1A0 STACK
FILE, @SYS/threads.txt, 256, 64, =480/752\nmonitor       PRI=183 sp=0x2401CE20 STACK=1096/1456\ntim
FILE, @SYS/threads.txt, 320, 64, er         PRI=181 sp=0x2401E3E0 STACK=1520/1968\nrcout         P
POWR, 2337512647, 4.96712, 0, 1, 1, 6
MCU, 2337512647, 44.91054, 3.34938, 3.340954, 3.356151
BAT, 2337512659, 0, 14.63297, 20.50401, 5.107766, 3323.153, 49.32371, 0, 1.149436, 0, 1, 0
MAG, 2337512671, 0, 391, -235, 99, 102, 25, 42, 0, 0, 0, 1, 2337512670
MAG, 2337512671, 1, 372, -156, 125, 32, 17, -32, 0, 0, 0, 1, 2337512668
SURF, 2337512693, 0, 2, 0, 0, 3.046664
SURF, 2337512702, 1, 2, 0, 0, 3.046664
BARO, 2337512749, 0, 2.99054, 631.3505, 93679.85, 47.42, -0.06435394, 2337512, 0, 28.74239, 1
CTUN, 2337512803, -2.712011E-06, -2.469278E-10, 0, 0.4229944, 3.072665, 3.072665, 2.99, NaN, 0, 0.03545464, 3, 3
ATT, 2337512862, 0.0001653454, 0.704048, 0.0003532485, -0.3193322, 75.3538, 29.84498, 3
ANG, 2337512228, 0.0001653454, 0.704048, 0.0003532485, -0.3193322, 75.3538, 29.84498, 0.002503
RATE, 2337512242, -2.038728, -0.01931236, -0.004772379, 3.927043, 0.07179008, 0.009037022, 302.925, -0.0196853, 0.9503156, -0.4315376, -0.4315376, 0, 0
PIDR, 2337512878, -0.03552451, -0.0003370643, -0.03518745, -0.004750305, 0, -2.207385E-05, 0, 0, 1, 0.04219776, 9
PIDP, 2337512885, 0.06862196, 0.001252973, 0.06736898, 0.009094813, 0, -5.779092E-05, 0, 0, 1, 0.06868678, 9
PIDY, 2337512889, 5.287038, -0.0003435734, 5.279531, 0.9503156, 0, 0, 0, 0, 1, 0.5253207, 9
PIDA, 2337512893, -0.4315376, -0.4315376, 0, 0, -422.9971, 0, 0, 0, 1, 118.5246, 13
PIDN, 2337512897, 0, 0, 0, 0, 0, 0, 0, 0, 0, 0, 0
PIDE, 2337512901, 0, 0, 0, 0, 0, 0, 0, 0, 0, 0, 0
XKF4, 2337512351, 0, 0.01, 0.04, 0, 0.01, 0, 0.006267148, -0.3041592, 0.06824394, 0, 48, 109375, 0, 0
XKY0, 2337512351, 0, 146.8011, 13.20606, 215.2447, 287.4928, 0.4380776, 72.77422, 144.0367, 0.20768, 0.1823196, 0.18111, 0.2054895, 0.2234009
XKY1, 2337512351, 0, -1.000194, 0.986828, 1.655692, 0.0820509, -1.559377, -1.348619, -1.406282, 0.4656695, 1.680262, 0.5589698
XKF1, 2337512351, 0, 0.7, -0.31, 29.84, 0.004193718, -0.01661911, -0.03612508, -0.02013757, -13.36327, -68.71738, -3.072665, -0.63, -0.99, -0.04, 628.36
XKF2, 2337512351, 0, 0.01, 0, 0, 0, 0, 400, -5, 144, 0, 0, 0, 0, 0, 0
XKF3, 2337512351, 0, 0.04, -0.01, -0.01, -0.27, 0.37, -0.15, 0, 0, 0, -0.89, 0, 0, 0.0009973939
XKF5, 2337512351, 0, 0, 0, 0, 0, 3.12, 0.04, 0, 0, 0.5, 0.0001124238, 0.01535784, 0.02934501
XKFS, 2337512351, 0, 0, 0, 0, 0, 0, 1, 0, 1
XKQ, 2337512351, 0, 0.9662487, 0.006654307, -0.001110531, 0.2575228
XKF4, 2337512351, 1, 0.03, 0.04, 0, 0, 0, 0.006268858, 0.09063154, 0.2346896, 0, 48, 109375, 0, 0
XKY0, 2337512351, 1, 226.4002, 14.32331, 215.9615, 287.9228, 359.9283, 71.97041, 143.9909, 0.2003171, 0.2001532, 0.1997777, 0.1997094, 0.2000426
XKY1, 2337512351, 1, 0.0119452, 0.05275986, 0.05790706, 0.02023815, -0.008210899, -0.03482657, -0.02692781, 0.01431902, 0.03199686, 0.001586213
XKF1, 2337512351, 1, 0.54, -0.64, 29.92, 0.05344737, 0.01507081, -0.03367694, -0.02014931, -13.38488, -68.72602, -3.061462, -0.11, -0.07, 0, 628.36
XKF2, 2337512351, 1, 0.06, 0, 0, 0, 0, 400, -5, 144, 0, 0, 0, 0, 0, 0
XKF3, 2337512351, 1, 0.09, 0.02, -0.01, -0.32, 0.35, -0.14, 0, 0, 0, -0.81, 0, 0.2845625, 0.001456069
XKFS, 2337512351, 1, 0, 0, 0, 0, 0, 1, 0, 1
XKQ, 2337512351, 1, 0.9660594, 0.006044646, -0.004193698, 0.2582151
AHR2, 2337512989, 0.86, -0.63, 29.2, 634.3, 15.3675304, 75.1247902, 0.9676385, 0.008672165, -0.003428116, 0.2521681
POS, 2337512994, 15.3675279, 75.1247934, 631.43, 0.04266552, 3.072665
MOTB, 2337512999, 1, 1, 1, 0.04229945, 0, 2
RCIN, 2337513005, 1102, 1927, 1102, 1927, 1401, 2000, 2000, 1000, 2000, 875, 875, 875, 875, 875
RCI2, 2337513009, 875, 875, 0, 1
RCOU, 2337513047, 1000, 1000, 1000, 1000, 0, 0, 0, 0, 0, 0, 0, 0, 0, 0
RCO2, 2337513051, 0, 0, 0, 0
PSCN, 2337513058, -13.36327, -13.36327, -13.36327, 0.004193718, 0.004193718, 0.004193718, 0, 0, -6.65265E-05
PSCE, 2337513062, -68.71738, -68.71738, -68.71738, -0.01661911, -0.01661911, -0.01661911, 0, 0, -5.542014E-06
PSCD, 2337513067, -3.072665, -3.072665, -3.072665, -0.03612508, -0.03612508, -0.03612508, 0.004315376, 0.004315376, 0.004315376
VIBE, 2337513071, 0, 0.008321569, 0.009713086, 0.009838205, 0
VIBE, 2337513071, 1, 0.06370286, 0.05819118, 0.07669777, 0
CTRL, 2337513079, 0.005082333, 8.471067E-05, 0.008734267, 0.0001800666, 0.8485874
IMU, 2337513089, 0, -0.01146643, -0.01603192, -0.001180441, -0.07490432, -0.1393767, -9.793846, 0, 0, 44.80676, 1, 1, 2022, 2022
IMU, 2337513089, 1, -0.001524223, -0.0006438479, -0.002654563, -0.06373575, -0.1012712, -9.821454, 0, 0, 45, 1, 1, 1998, 2046
DCM, 2337514843, 0.8628357, -0.6303388, 29.20809, 0.02305776, 0.02642982, 0, 0, 0
EAHR, 2337514884, 0, 0, 0, 0, 0, 0, 0, 0, 0, 0
FILE, @SYS/threads.txt, 384, 64, RI=181 sp=0x2401DA00 STACK=680/944\nrcin          PRI=177 sp=0x24
FILE, @SYS/threads.txt, 448, 64, 01D410 STACK=992/1456\nio            PRI= 58 sp=0x2401C430 STACK=
STAK, 2337542903, 19, 176, 1456, 984, I2C0
FILE, @SYS/threads.txt, 512, 64, 1576/2480\nstorage       PRI= 59 sp=0x2401DDF0 STACK=896/1456\nUAR
GPS, 2337553229, 0, 3, 302039400, 2379, 11, 1.05, 15.3675305, 75.12479, 632.42, 0.017, 64.99162, 0.004, 0, 1
GPA, 2337553229, 0, 1.37, 1.53, 1.96, 0.15, 0, 1, 2337544, 200, 554.41, 0, 0
IMU, 2337553288, 0, -0.01113256, -0.01589116, -0.002852797, -0.0682563, -0.1310356, -9.792068, 0, 0, 44.80676, 1, 1, 2022, 2022
IMU, 2337553288, 1, -0.002058673, 0.001130816, -0.000902376, -0.0859018, -0.09658915, -9.808663, 0, 0, 45, 1, 1, 1998, 2046
FILE, @SYS/threads.txt, 576, 64, T7         PRI= 60 sp=0x24078FF8 STACK=224/752\nUART5         PRI
SURF, 2337562658, 0, 2, 0, 0, 3.047934
SURF, 2337562668, 1, 2, 0, 0, 3.047934
FILE, @SYS/threads.txt, 640, 64, = 60 sp=0x240784B0 STACK=288/752\nUART1         PRI= 60 sp=0x2407
FILE, @SYS/threads.txt, 704, 64, 78E8 STACK=336/752\nUART8         PRI= 60 sp=0x24076D20 STACK=408
FILE, @SYS/threads.txt, 768, 64, /752\nOTG2          PRI= 60 sp=0x24075DD8 STACK=480/752\nUART6    
IMU, 2337592879, 0, -0.01171867, -0.01666201, 0.0004718092, -0.06791084, -0.1314383, -9.790751, 0, 0, 44.80676, 1, 1, 2022, 2022
IMU, 2337592879, 1, -0.002256495, -0.002156585, 0.001721968, -0.06046482, -0.1029498, -9.806643, 0, 0, 45, 1, 1, 1998, 2046
FILE, @SYS/threads.txt, 832, 64,      PRI=181 sp=0x24074F58 STACK=336/752\nIOMCU         PRI=183 s
FILE, @SYS/threads.txt, 896, 64, p=0x2406AB30 STACK=896/1456\nlog_io        PRI= 59 sp=0x2406B2C0 
POWR, 2337612676, 4.969537, 0, 1, 1, 6
MCU, 2337612676, 44.89066, 3.349239, 3.342215, 3.354879
BAT, 2337612689, 0, 14.64304, 20.51745, 5.110694, 3323.295, 49.32579, 0, 1.149436, 0, 1, 0
MAG, 2337612701, 0, 391, -236, 86, 102, 25, 42, 0, 0, 0, 1, 2337612699
MAG, 2337612701, 1, 371, -158, 126, 32, 17, -32, 0, 0, 0, 1, 2337612698
SURF, 2337612719, 0, 2, 0, 0, 3.049202
SURF, 2337612727, 1, 2, 0, 0, 3.049202
BARO, 2337612747, 0, 3.069946, 631.4299, 93678.96, 47.42, 0.03850937, 2337612, 0, 28.74239, 1
CTUN, 2337612759, -2.712011E-06, -2.446541E-10, 0, 0.4229944, 3.074239, 3.074239, 3.06, NaN, 0, 0.03496636, 3, 3
ATT, 2337612846, 0.0001731227, 0.7026445, 0.0003322188, -0.3140121, 75.35362, 29.84526, 3
ANG, 2337612224, 0.0001731227, 0.7026445, 0.0003322188, -0.3140121, 75.35362, 29.84526, 0.002501
RATE, 2337612240, -2.051665, -0.02904025, -0.004804177, 3.898998, 0.01075072, 0.009126243, 302.9252, 0.05355307, 0.951381, -0.4961967, -0.4961967, 0, 0
PIDR, 2337612863, -0.03578349, -0.0005068481, -0.03527664, -0.004762347, 0, -4.183007E-05, 0, 0, 1, 0.03817748, 9
PIDP, 2337612867, 0.06812395, 0.0001876354, 0.06793632, 0.009171403, 0, -4.515973E-05, 0, 0, 1, 0.06214285, 9
PIDY, 2337612904, 5.287041, 0.0009346775, 5.28545, 0.951381, 0, 0, 0, 0, 1, 0.4752722, 9
PIDA, 2337612908, -0.4961967, -0.4961967, 0, 0, -422.9971, 0, 0, 0, 1, 107.2325, 13
PIDN, 2337612912, 0, 0, 0, 0, 0, 0, 0, 0, 0, 0, 0
PIDE, 2337612916, 0, 0, 0, 0, 0, 0, 0, 0, 0, 0, 0
XKF4, 2337612374, 0, 0.01, 0.04, 0, 0, 0, 0.006304607, -0.3041592, 0.06824394, 0, 48, 109375, 0, 0
XKF1, 2337612374, 0, 0.7, -0.31, 29.84, -0.001808388, -0.01844463, -0.03485672, -0.01341558, -13.35794, -68.72586, -3.074239, -0.63, -0.99, -0.04, 628.36
XKF2, 2337612374, 0, 0.02, -0.01, 0, 0, 0, 400, -5, 144, 0, 0, 0, 0, 0, 0
XKF3, 2337612374, 0, 0.02, -0.01, -0.04, -0.27, 0.37, -0.08, 0, 0, 0, -0.6, 0, 0, 0.001013865
XKF5, 2337612374, 0, 0, 0, 0, 0, 3.12, 0.04, 0, 0, 0.5, 9.061118E-05, 0.01535609, 0.02808338
XKFS, 2337612374, 0, 0, 0, 0, 0, 0, 1, 0, 1
XKQ, 2337612374, 0, 0.9662483, 0.006630521, -0.001068808, 0.2575249
XKF4, 2337612374, 1, 0.02, 0.04, 0, 0, 0, 0.006304587, 0.09063154, 0.2346896, 0, 48, 109375, 0, 0
XKY0, 2337612374, 1, 196.5733, 14.47743, 215.9335, 287.8939, 359.9359, 72.00151, 144, 0.2004952, 0.1999866, 0.199497, 0.1997021, 0.2003191
XKY1, 2337612374, 1, -0.007656717, 0.03974534, 0.04796474, 0.005587499, -0.0287793, -0.03412197, -0.02734356, 0.01985581, 0.04225056, 0.008857664
XKF1, 2337612374, 1, 0.54, -0.63, 29.92, 0.04138266, 0.008906318, -0.03339936, -0.01288415, -13.38027, -68.73611, -3.062891, -0.11, -0.07, 0, 628.36
XKF2, 2337612374, 1, 0.07, 0, 0, 0, 0, 400, -5, 144, 0, 0, 0, 0, 0, 0
XKF3, 2337612374, 1, 0.06, 0.01, -0.03, -0.31, 0.36, -0.06, 0, 0, 0, -0.52, 0, 0.2977795, 0.001256025
XKFS, 2337612374, 1, 0, 0, 0, 0, 0, 1, 0, 1
XKQ, 2337612374, 1, 0.9660611, 0.006013946, -0.004135695, 0.2582106
AHR2, 2337613001, 0.86, -0.62, 29.21, 634.38, 15.3675305, 75.12479, 0.9676206, 0.00865374, -0.003353292, 0.2522387
POS, 2337613007, 15.3675279, 75.1247933, 631.43, 0.0442386, 3.074239
MOTB, 2337613012, 1, 1, 1, 0.04229945, 0, 2
RCIN, 2337613042, 1102, 1927, 1102, 1927, 1401, 2000, 2000, 1000, 2000, 875, 875, 875, 875, 875
RCI2, 2337613075, 875, 875, 0, 1
RCOU, 2337613092, 1000, 1000, 1000, 1000, 0, 0, 0, 0, 0, 0, 0, 0, 0, 0
RCO2, 2337613096, 0, 0, 0, 0
PSCN, 2337613102, -13.35794, -13.35794, -13.35794, -0.001808388, -0.001808388, -0.001808388, 0, 0, -6.40669E-05
PSCE, 2337613107, -68.72586, -68.72586, -68.72586, -0.01844462, -0.01844462, -0.01844462, 0, 0, -2.596456E-06
PSCD, 2337613111, -3.074239, -3.074239, -3.074239, -0.03485672, -0.03485672, -0.03485672, 0.004961967, 0.004961967, 0.004961967
VIBE, 2337613116, 0, 0.008744214, 0.008593646, 0.009322849, 0
VIBE, 2337613116, 1, 0.06196363, 0.05821924, 0.07452549, 0
CTRL, 2337613124, 0.00498546, 8.38573E-05, 0.008868885, 0.0001619332, 0.8838474
DCM, 2337614812, 0.8625023, -0.6217028, 29.21655, 0.01957065, 0.02602554, 0, 0, 0
EAHR, 2337614836, 0, 0, 0, 0, 0, 0, 0, 0, 0, 0
FILE, @SYS/threads.txt, 960, 64, STACK=736/2016\nI2C1          PRI=176 sp=0x2406BBD0 STACK=984/145
IMU, 2337632667, 0, -0.01157385, -0.01667093, -0.002052214, -0.07092201, -0.1368647, -9.797627, 0, 0, 45.28986, 1, 1, 2022, 2022
IMU, 2337632667, 1, -0.00173912, -0.002162006, -0.0009119344, -0.06546605, -0.1139468, -9.80667, 0, 0, 45, 1, 1, 1998, 2046
FILE, @SYS/threads.txt, 1024, 64, 6\nI2C0          PRI=176 sp=0x2406C4A0 STACK=984/1456\nSPI1       
STAK, 2337643980, 20, 181, 1456, 768, SPI1
FILE, @SYS/threads.txt, 1088, 64,    PRI=181 sp=0x24070FC0 STACK=768/1456\nFTP           PRI= 58 sp
SURF, 2337662614, 0, 2, 0, 0, 3.050426
SURF, 2337662624, 1, 2, 0, 0, 3.050426
FILE, @SYS/threads.txt, 1152, 28, =0x24032968 STACK=1368/2992\n
IMU, 2337672721, 0, -0.0108483, -0.01661075, -0.002294506, -0.06955934, -0.1293942, -9.790796, 0, 0, 45.28986, 1, 1, 2022, 2022
IMU, 2337672721, 1, -0.002157259, -0.0008718232, 0.0001329932, -0.06797256, -0.09853654, -9.796377, 0, 0, 45, 1, 1, 1998, 2046
FILE, @SYS/timers.txt, 0, 64, TIMERV1\nTIM5  CLK= 200Mhz MODE=  PWM FREQ=       7 TGT=       8\n
FILE, @SYS/timers.txt, 64, 64, TIM4  CLK= 200Mhz MODE=  PWM FREQ=       7 TGT=       8\nTIM1  CL
POWR, 2337712683, 4.967322, 0, 1, 1, 6
MCU, 2337712683, 44.87078, 3.349098, 3.341935, 3.354032
BAT, 2337712696, 0, 14.63883, 20.50672, 5.105019, 3323.437, 49.32787, 0, 1.149436, 0, 1, 0
MAG, 2337712708, 0, 388, -235, 85, 102, 25, 42, 0, 0, 0, 1, 2337712706
MAG, 2337712708, 1, 372, -157, 126, 32, 17, -32, 0, 0, 0, 1, 2337712705
SURF, 2337712726, 0, 2, 0, 0, 3.051616
SURF, 2337712735, 1, 2, 0, 0, 3.051616
BARO, 2337712754, 0, 2.99353, 631.3535, 93679.83, 47.42, 0.2573204, 2337712, 0, 28.74239, 1
CTUN, 2337712767, -2.712011E-06, -2.428351E-10, 0, 0.4229944, 3.075497, 3.075497, 2.99, NaN, 0, 0.03453911, 3, 3
ATT, 2337712825, 0.0001435278, 0.7007727, 0.000411173, -0.31042, 75.35271, 29.84353, 3
ANG, 2337712230, 0.0001435278, 0.7007727, 0.000411173, -0.31042, 75.35271, 29.84353, 0.002506
RATE, 2337712245, -2.055566, -0.02845734, -0.004873587, 3.875512, 0.004319347, 0.00921111, 302.9253, 0.04744684, 0.951675, -0.6871223, -0.6871223, 0, 0
PIDR, 2337712842, -0.03587759, -0.0004966743, -0.03538092, -0.004776424, 0, -9.716273E-05, 0, 0, 1, 0.03453989, 9
PIDP, 2337712846, 0.06768505, 7.538684E-05, 0.06760967, 0.009127306, 0, 8.380392E-05, 0, 0, 1, 0.0566869, 9
PIDY, 2337712850, 5.287044, 0.0008281037, 5.287083, 0.951675, 0, 0, 0, 0, 1, 0.4299877, 9
PIDA, 2337712853, -0.6871223, -0.6871223, 0, 0, -422.9971, 0, 0, 0, 1, 97.01526, 13
PIDN, 2337712857, 0, 0, 0, 0, 0, 0, 0, 0, 0, 0, 0
PIDE, 2337712864, 0, 0, 0, 0, 0, 0, 0, 0, 0, 0, 0
XKF4, 2337712343, 0, 0.01, 0.04, 0, 0, 0, 0.00638368, -0.3041592, 0.06824394, 0, 48, 109375, 0, 0
XKF1, 2337712343, 0, 0.7, -0.31, 29.84, -0.007837466, -0.01975058, -0.03351846, -0.007202788, -13.35322, -68.73398, -3.075497, -0.63, -0.99, -0.04, 628.36
XKF2, 2337712343, 0, 0.02, -0.01, 0, 0, 0, 400, -5, 144, 0, 0, 0, 0, 0, 0
XKF3, 2337712343, 0, 0.02, -0.01, -0.04, -0.27, 0.37, 0, 0, 0, 0, -0.71, 0, 0, 0.001013865
XKF5, 2337712343, 0, 0, 0, 0, 0, 3.12, 0.04, 0, 0, 0.5, 8.573748E-05, 0.01587104, 0.02844515
XKFS, 2337712343, 0, 0, 0, 0, 0, 0, 1, 0, 1
XKQ, 2337712343, 0, 0.9662524, 0.00660665, -0.001042826, 0.2575101
XKF4, 2337712343, 1, 0.02, 0.04, 0, 0, 0, 0.006383608, 0.09063154, 0.2346896, 0, 48, 109375, 0, 0
XKY0, 2337712343, 1, 196.5705, 14.47746, 215.9306, 287.891, 359.933, 71.99864, 143.9971, 0.2004952, 0.1999866, 0.199497, 0.1997021, 0.2003191
XKY1, 2337712343, 1, -0.007656717, 0.03974534, 0.04796474, 0.005587499, -0.0287793, -0.03412197, -0.02734356, 0.01985581, 0.04225056, 0.008857664
XKF1, 2337712343, 1, 0.54, -0.63, 29.92, 0.03001118, 0.003154886, -0.03262036, -0.008765042, -13.3767, -68.74492, -3.064335, -0.11, -0.07, 0, 628.36
XKF2, 2337712343, 1, 0.07, 0, 0, 0, 0, 400, -5, 144, 0, 0, 0, 0, 0, 0
XKF3, 2337712343, 1, 0.06, 0.01, -0.03, -0.31, 0.36, 0, 0, 0, 0, -0.64, 0, 0.3074664, 0.001256025
XKFS, 2337712343, 1, 0, 0, 0, 0, 0, 1, 0, 1
XKQ, 2337712343, 1, 0.9660601, 0.006008952, -0.004128864, 0.2582146
AHR2, 2337712974, 0.85, -0.62, 29.22, 634.45, 15.3675305, 75.12479, 0.9676044, 0.008590309, -0.003370308, 0.2523026
POS, 2337712980, 15.3675279, 75.1247932, 631.43, 0.04549698, 3.075497
MOTB, 2337712985, 1, 1, 1, 0.04229945, 0, 2
RCIN, 2337713009, 1102, 1927, 1102, 1927, 1401, 2000, 2000, 1000, 2000, 875, 875, 875, 875, 875
RCI2, 2337713013, 875, 875, 0, 1
RCOU, 2337713020, 1000, 1000, 1000, 1000, 0, 0, 0, 0, 0, 0, 0, 0, 0, 0
RCO2, 2337713023, 0, 0, 0, 0
PSCN, 2337713030, -13.35322, -13.35322, -13.35322, -0.007837466, -0.007837466, -0.007837466, 0, 0, -7.326785E-05
PSCE, 2337713034, -68.73398, -68.73398, -68.73398, -0.01975058, -0.01975058, -0.01975058, 0, 0, -1.371304E-05
PSCD, 2337713038, -3.075497, -3.075497, -3.075497, -0.03351846, -0.03351846, -0.03351846, 0.006871223, 0.006871223, 0.006871223
VIBE, 2337713043, 0, 0.008293997, 0.007931042, 0.009770083, 0
VIBE, 2337713043, 1, 0.0616621, 0.06001251, 0.07588009, 0
CTRL, 2337713051, 0.004921695, 8.709654E-05, 0.008943122, 0.0001489082, 0.9068453
IMU, 2337713061, 0, -0.01163069, -0.01721615, -1.045525E-05, -0.07215925, -0.1314555, -9.791662, 0, 0, 45.28986, 1, 1, 2022, 2022
IMU, 2337713061, 1, -0.002993713, -0.0009506436, 0.0001798525, -0.0790545, -0.09751965, -9.819516, 0, 0, 45, 1, 1, 1998, 2046
DCM, 2337714869, 0.8549057, -0.6217788, 29.22469, 0.01957065, 0.02595739, 0, 0, 0
EAHR, 2337714888, 0, 0, 0, 0, 0, 0, 0, 0, 0, 0
FILE, @SYS/timers.txt, 128, 48, K= 200Mhz MODE=  PWM FREQ=       7 TGT=       8\n
FILE, @ROMFS/hwdef.dat, 0, 64, MCU STM32H7xx STM32H743xx\nOSCILLATOR_HZ 16000000\nSTM32_ST_USE_TI
STAK, 2337744175, 21, 58, 2992, 1368, FTP
GPS, 2337753236, 0, 3, 302039600, 2379, 11, 1.05, 15.3675307, 75.1247898, 632.42, 0.026, 64.99162, -0.075, 0, 1
GPA, 2337753236, 0, 1.37, 1.52, 1.95, 0.21, 0, 1, 2337744, 200, 554.41, 0, 0
IMU, 2337753315, 0, -0.01198986, -0.01677821, -0.002196341, -0.07183103, -0.1409073, -9.794582, 0, 0, 45.28986, 1, 1, 2022, 2022
IMU, 2337753315, 1, -0.002566793, 0.001533824, -0.00166831, -0.0702772, -0.09978466, -9.82807, 0, 0, 45, 1, 1, 1998, 2046
FILE, @ROMFS/hwdef.dat, 64, 64, MER 2\nUSB_VENDOR 0x3162\nUSB_PRODUCT 0x0053\nUSB_STRING_MANUFACTUR
SURF, 2337762678, 0, 2, 0, 0, 3.052783
SURF, 2337762687, 1, 2, 0, 0, 3.052783
FILE, @ROMFS/hwdef.dat, 128, 64, ER "Holybro"\nAPJ_BOARD_ID 56\nFLASH_RESERVE_START_KB 128\nenv USE_
FILE, @ROMFS/hwdef.dat, 192, 64, ALT_RAM_MAP 1\nFLASH_SIZE_KB 2048\nenv OPTIMIZE -O2\nSERIAL_ORDER O
FMT, 253, 28, HEAT, Qfbfff, TimeUS,Temp,Targ,P,I,Out
HEAT, 2337789735, 45.07246, 45, -3.622818, 8.69817, 5.075352
IMU, 2337792962, 0, -0.01127484, -0.01764178, -0.001995319, -0.06531948, -0.1297429, -9.797062, 0, 0, 45.28986, 1, 1, 2022, 2022
IMU, 2337792962, 1, -0.002622695, -0.004323521, -0.0004560631, -0.07596496, -0.1115, -9.822591, 0, 0, 45, 1, 1, 1998, 2046
FILE, @ROMFS/hwdef.dat, 256, 64, TG1 UART7 UART5 USART1 UART8 USART2 USART3 OTG2\nPA11 OTG_FS_DM O
FILE, @ROMFS/hwdef.dat, 320, 64, TG1\nPA12 OTG_FS_DP OTG1\nPA9 VBUS INPUT OPENDRAIN\nPA13 JTMS-SWDIO
POWR, 2337812559, 4.962689, 0, 1, 1, 6
MCU, 2337812559, 44.91054, 3.349239, 3.342075, 3.35601
BAT, 2337812573, 0, 14.63222, 20.50346, 5.107928, 3323.579, 49.32994, 0, 1.149436, 0, 1, 0
MAG, 2337812608, 0, 385, -235, 99, 102, 25, 42, 0, 0, 0, 1, 2337812607
MAG, 2337812608, 1, 373, -157, 126, 32, 17, -32, 0, 0, 0, 1, 2337812594
SURF, 2337812686, 0, 2, 0, 0, 3.053932
SURF, 2337812695, 1, 2, 0, 0, 3.053932
BARO, 2337812742, 0, 2.949402, 631.3094, 93680.3, 47.42, 0.3245544, 2337812, 0, 28.74239, 1
CTUN, 2337812760, -2.712011E-06, -2.407887E-10, 0, 0.4229944, 3.078154, 3.078154, 2.94, NaN, 0, 0.03405083, 3, 3
ATT, 2337812817, 0.0001999631, 0.6980178, 0.0002617703, -0.3088575, 75.35072, 29.84293, 3
ANG, 2337812224, 0.0001999631, 0.6980178, 0.0002617703, -0.3088575, 75.35072, 29.84293, 0.0025
RATE, 2337812238, -2.048911, 0.008436404, -0.004942901, 3.859165, 0.02454343, 0.008914093, 302.9254, 0.02163545, 0.9517692, -0.5602837, -0.5602837, 0, 0
PIDR, 2337812834, -0.03574797, 0.000147243, -0.03589521, -0.004845854, 0, -9.704746E-05, 0, 0, 1, 0.03124926, 9
PIDP, 2337812838, 0.06735141, 0.0004283637, 0.06692304, 0.009034611, 0, -0.0001205177, 0, 0, 1, 0.05524876, 9
PIDY, 2337812842, 5.287046, 0.0003776098, 5.287606, 0.9517692, 0, 0, 0, 0, 1, 0.3890226, 9
PIDA, 2337812845, -0.5602837, -0.5602837, 0, 0, -422.9971, 0, 0, 0, 1, 87.77258, 13
PIDN, 2337812849, 0, 0, 0, 0, 0, 0, 0, 0, 0, 0, 0
PIDE, 2337812856, 0, 0, 0, 0, 0, 0, 0, 0, 0, 0, 0
XKF4, 2337812334, 0, 0.01, 0.04, 0, 0, 0, 0.006439914, -0.3041592, 0.06824394, 0, 48, 109375, 0, 0
XKY0, 2337812334, 0, 179.9596, 15.03819, 215.9977, 287.9977, 359.9977, 71.99768, 143.9977, 0.2, 0.2, 0.2, 0.2, 0.2
XKY1, 2337812334, 0, 0, 0, 0, 0, 0, 0, 0, 0, 0, 0
XKF1, 2337812334, 0, 0.69, -0.3, 29.84, -0.01129423, -0.0206586, -0.03289965, -0.02013472, -13.34725, -68.7421, -3.078154, -0.63, -0.99, -0.04, 628.36
XKF2, 2337812334, 0, 0.01, -0.01, 0, 0, 0, 400, -5, 144, 0, 0, 0, 0, 0, 0
XKF3, 2337812334, 0, -0.01, -0.02, 0.04, -0.28, 0.38, -0.08, 0, 0, 0, -0.79, 0, 0, 0.001077588
XKF5, 2337812334, 0, 0, 0, 0, 0, 3.13, 0.04, 0, 0, 0.5, 9.764766E-05, 0.02183883, 0.03449252
XKFS, 2337812334, 0, 0, 0, 0, 0, 0, 1, 0, 1
XKQ, 2337812334, 0, 0.966254, 0.006579904, -0.001035876, 0.257505
XKF4, 2337812334, 1, 0.01, 0.04, 0, 0, 0, 0.006439277, 0.09063154, 0.2346896, 0, 48, 109375, 0, 0
XKY0, 2337812334, 1, 299.1739, 14.32951, 215.9854, 287.9543, 359.9131, 71.91859, 143.9633, 0.2000399, 0.2003359, 0.2001676, 0.1997677, 0.1996889
XKY1, 2337812334, 1, -0.04456977, 0.008409339, 0.01781128, -0.02944601, -0.06795583, -0.04566428, -0.03832757, 0.01437757, 0.03956892, 0.002417495
XKF1, 2337812334, 1, 0.53, -0.63, 29.92, 0.02069847, -0.002008357, -0.03372568, -0.02555234, -13.37129, -68.7545, -3.067471, -0.11, -0.07, 0, 628.36
XKF2, 2337812334, 1, 0.07, 0, 0, 0, 0, 400, -5, 144, 0, 0, 0, 0, 0, 0
XKF3, 2337812334, 1, 0.01, 0, 0.04, -0.32, 0.36, -0.07, 0, 0, 0, -0.72, 0, 0.3118607, 0.001088601
XKFS, 2337812334, 1, 0, 0, 0, 0, 0, 1, 0, 1
XKQ, 2337812334, 1, 0.9660575, 0.005981662, -0.004141076, 0.2582245
AHR2, 2337812944, 0.84, -0.63, 29.23, 634.38, 15.3675307, 75.1247898, 0.9675841, 0.008542269, -0.003471144, 0.2523807
POS, 2337812950, 15.3675279, 75.1247931, 631.43, 0.04815368, 3.078154
MOTB, 2337812955, 1, 1, 1, 0.04229945, 0, 2
RCIN, 2337812961, 1102, 1927, 1102, 1927, 1401, 2000, 2000, 1000, 2000, 875, 875, 875, 875, 875
RCI2, 2337812965, 875, 875, 0, 1
RCOU, 2337812971, 1000, 1000, 1000, 1000, 0, 0, 0, 0, 0, 0, 0, 0, 0, 0
RCO2, 2337812974, 0, 0, 0, 0
PSCN, 2337812981, -13.34725, -13.34725, -13.34725, -0.01129423, -0.01129423, -0.01129423, 0, 0, -5.589417E-05
PSCE, 2337812985, -68.7421, -68.7421, -68.7421, -0.0206586, -0.0206586, -0.0206586, 0, 0, 7.391188E-06
PSCD, 2337812989, -3.078154, -3.078154, -3.078154, -0.03289965, -0.03289965, -0.03289965, 0.005602837, 0.005602837, 0.005602837
