FMT, 128, 89, FMT, BBnNZ, Type,Length,Name,Format,Columns
FMT, 118, 44, FMTU, QBNN, TimeUS,FmtType,UnitIds,MultIds
FMT, 163, 54, IMU, QBffffffIIfBBHH, TimeUS,I,GyrX,GyrY,GyrZ,AccX,AccY,AccZ,EG,EA,T,GH,AH,GHz,AHz
IMU, 102685097, 0, -0.004901002, -0.01765344, -0.001343902, -0.1798926, -0.2330819, -9.782479, 0, 0, 44.80676, 1, 1, 2022, 2022
IMU, 102685097, 1, -0.002853661, -0.001606378, 0.001119555, -0.1670163, -0.2048339, -9.796099, 0, 0, 45, 1, 1, 1998, 2046
FMT, 119, 76, UNIT, QbZ, TimeUS,Id,Label
FMT, 120, 20, MULT, Qbd, TimeUS,Id,Mult
FMT, 32, 35, PARM, QNff, TimeUS,Name,Value,Default
FMT, 94, 51, GPS, QBBIHBcLLeffffB, TimeUS,I,Status,GMS,GWk,NSats,HDop,Lat,Lng,Alt,Spd,GCrs,VZ,Yaw,U
FMT, 95, 39, GPA, QBCCCCfBIHeHH, TimeUS,I,VDop,HAcc,VAcc,SAcc,YAcc,VV,SMS,Delta,AEl,RTCMFU,RTCMFD
FMT, 99, 22, UBX1, QBHBBHI, TimeUS,Instance,noisePerMS,jamInd,aPower,agcCnt,config
FMT, 100, 16, UBX2, QBbBbB, TimeUS,Instance,ofsI,magI,ofsQ,magQ
FMT, 96, 42, GRAW, QIHBBddfBbB, TimeUS,WkMS,Week,numSV,sv,cpMes,prMes,doMes,mesQI,cno,lli
FMT, 97, 24, GRXH, QdHbBB, TimeUS,rcvTime,week,leapS,numMeas,recStat
FMT, 98, 41, GRXS, QddfBBBHBBBBB, TimeUS,prMes,cpMes,doMes,gnss,sv,freq,lock,cno,prD,cpD,doD,trk
FMT, 101, 23, SBPH, QIII, TimeUS,CrcError,LastInject,IARhyp
FMT, 102, 67, SBRH, QQQQQQQQ, TimeUS,msg_flag,1,2,3,4,5,6
FMT, 103, 123, SBRM, QQQQQQQQQQQQQQQ, TimeUS,msg_flag,1,2,3,4,5,6,7,8,9,10,11,12,13
FMT, 104, 23, SBRE, QHIiBB, TimeUS,GWk,GMS,ns_residual,level,quality
FMT, 59, 75, MSG, QZ, TimeUS,Message
FMT, 60, 39, RCIN, QHHHHHHHHHHHHHH, TimeUS,C1,C2,C3,C4,C5,C6,C7,C8,C9,C10,C11,C12,C13,C14
FMT, 61, 18, RCI2, QHHHB, TimeUS,C15,C16,OMask,Flags
FMT, 62, 39, RCOU, QHHHHHHHHHHHHHH, TimeUS,C1,C2,C3,C4,C5,C6,C7,C8,C9,C10,C11,C12,C13,C14
FMT, 207, 19, RCO2, QHHHH, TimeUS,C15,C16,C17,C18
FMT, 208, 39, RCO3, QHHHHHHHHHHHHHH, TimeUS,C19,C20,C21,C22,C23,C24,C25,C26,C27,C28,C29,C30,C31,C32
FMT, 63, 19, RSSI, Qff, TimeUS,RXRSSI,RXLQ
FMT, 64, 43, BARO, QBfffcfIffB, TimeUS,I,Alt,AltAMSL,Press,Temp,CRt,SMS,Offset,GndTemp,Health
FMT, 65, 24, BARD, QBfff, TimeUS,I,DynPrX,DynPrY,DynPrZ
FMT, 66, 25, CANF, QBIBBBBBBBBB, TimeUS,Bus,Id,DLC,B0,B1,B2,B3,B4,B5,B6,B7
FMT, 67, 81, CAFD, QBIBQQQQQQQQ, TimeUS,Bus,Id,DLC,D0,D1,D2,D3,D4,D5,D6,D7
FMT, 196, 50, PL, QBBfffffffIIB, TimeUS,Heal,TAcq,pX,pY,vX,vY,mX,mY,mZ,LastMeasMS,EKFOutl,Est
FMT, 68, 24, POWR, QffHHB, TimeUS,Vcc,VServo,Flags,AccFlags,Safety
FMT, 69, 27, MCU, Qffff, TimeUS,MTemp,MVolt,MVmin,MVmax
FMT, 93, 46, CMD, QHHHffffLLfB, TimeUS,CTot,CNum,CId,Prm1,Prm2,Prm3,Prm4,Lat,Lng,Alt,Frame
FMT, 92, 46, MISE, QHHHffffLLfB, TimeUS,CTot,CNum,CId,Prm1,Prm2,Prm3,Prm4,Lat,Lng,Alt,Frame
FMT, 78, 48, MAVC, QBBBBBHffffiifBB, TimeUS,TS,TC,SS,SC,Fr,Cmd,P1,P2,P3,P4,X,Y,Z,Res,WL
FMT, 79, 20, RAD, QBBBBBHH, TimeUS,RSSI,RemRSSI,TxBuf,Noise,RemNoise,RxErrors,Fixed
FMT, 81, 46, CAM, QBHIHLLeeeccC, TimeUS,I,Img,GPSTime,GPSWeek,Lat,Lng,Alt,RelAlt,GPSAlt,R,P,Y
FMT, 82, 46, TRIG, QBHIHLLeeeccC, TimeUS,I,Img,GPSTime,GPSWeek,Lat,Lng,Alt,RelAlt,GPSAlt,R,P,Y
FMT, 83, 48, MNT, QBfffffffff, TimeUS,I,DRoll,Roll,DPitch,Pitch,DYawB,YawB,DYawE,YawE,Dist
FMT, 114, 41, ARSP, QBffcffBBffB, TimeUS,I,Airspeed,DiffPress,Temp,RawPress,Offset,U,H,Hp,TR,Pri
FMT, 88, 41, BAT, QBfffffcfBBB, TimeUS,Inst,Volt,VoltR,Curr,CurrTot,EnrgTot,Temp,Res,RemPct,H,SH
FMT, 89, 40, BCL, QBfHHHHHHHHHHHH, TimeUS,Instance,Volt,V1,V2,V3,V4,V5,V6,V7,V8,V9,V10,V11,V12
FMT, 113, 35, MAG, QBhhhhhhhhhBI, TimeUS,I,MagX,MagY,MagZ,OfsX,OfsY,OfsZ,MOX,MOY,MOZ,Health,S
FMT, 122, 14, MODE, QMBB, TimeUS,Mode,ModeNum,Rsn
FMT, 116, 17, RFND, QBCBBb, TimeUS,Instance,Dist,Stat,Orient,Quality
FMT, 117, 36, DMS, QIIIIBBBBBBBBB, TimeUS,N,Dp,RT,RS,Fa,Fmn,Fmx,Pa,Pmn,Pmx,Sa,Smn,Smx
FMT, 174, 41, BCN, QBBfffffff, TimeUS,Health,Cnt,D0,D1,D2,D3,PosX,PosY,PosZ
FMT, 175, 57, PRX, QBBfffffffffff, TimeUS,Layer,He,D0,D45,D90,D135,D180,D225,D270,D315,DUp,CAn,CDis
FMT, 176, 44, PRXR, QBffffffff, TimeUS,Layer,D0,D45,D90,D135,D180,D225,D270,D315
FMT, 179, 61, PM, QHHHIIHHIIIIIIQ, TimeUS,LR,NLon,NL,MaxT,Mem,Load,ErrL,InE,ErC,SPIC,I2CC,I2CI,Ex,R
FMT, 178, 29, SRTL, QBHHBfff, TimeUS,Active,NumPts,MaxPts,Action,N,E,D
FMT, 170, 48, OABR, QBBHHHBfLLiLLi, TimeUS,Type,Act,DYaw,Yaw,DP,RChg,Mar,DLt,DLg,DAlt,OLt,OLg,OAlt
FMT, 171, 31, OADJ, QBBBBLLLL, TimeUS,State,Err,CurrPoint,TotPoints,DLat,DLng,OALat,OALng
FMT, 172, 37, SA, QBffffffB, TimeUS,State,DVelX,DVelY,DVelZ,MVelX,MVelY,MVelZ,Back
FMT, 173, 21, OAVG, QBBLL, TimeUS,version,point_num,Lat,Lon
FMT, 77, 45, SIM, QccCfLLffff, TimeUS,Roll,Pitch,Yaw,Alt,Lat,Lng,Q1,Q2,Q3,Q4
FMT, 84, 38, TERR, QBLLHffHHf, TimeUS,Status,Lat,Lng,Spacing,TerrH,CHeight,Pending,Loaded,ROfs
FMT, 86, 40, ESC, QBffffcfcf, TimeUS,Instance,RPM,RawRPM,Volt,Curr,Temp,CTot,MotTemp,Err
FMT, 87, 15, EDT2, QBBBB, TimeUS,Instance,Stress,MaxStress,Status
FMT, 85, 46, CSRV, QBfffBfffffB, TimeUS,Id,Pos,Force,Speed,Pow,PosCmd,V,A,MotT,PCBT,Err
FMT, 105, 52, PIDR, QffffffffffB, TimeUS,Tar,Act,Err,P,I,D,FF,DFF,Dmod,SRate,Flags
FMT, 106, 52, PIDP, QffffffffffB, TimeUS,Tar,Act,Err,P,I,D,FF,DFF,Dmod,SRate,Flags
FMT, 107, 52, PIDY, QffffffffffB, TimeUS,Tar,Act,Err,P,I,D,FF,DFF,Dmod,SRate,Flags
FMT, 108, 52, PIDA, QffffffffffB, TimeUS,Tar,Act,Err,P,I,D,FF,DFF,Dmod,SRate,Flags
FMT, 109, 52, PIDS, QffffffffffB, TimeUS,Tar,Act,Err,P,I,D,FF,DFF,Dmod,SRate,Flags
FMT, 110, 52, PIDN, QffffffffffB, TimeUS,Tar,Act,Err,P,I,D,FF,DFF,Dmod,SRate,Flags
FMT, 111, 52, PIDE, QffffffffffB, TimeUS,Tar,Act,Err,P,I,D,FF,DFF,Dmod,SRate,Flags
FMT, 112, 56, DSTL, QBfLLeccfeffff, TimeUS,Stg,THdg,Lat,Lng,Alt,XT,Travel,L1I,Loiter,Des,P,I,D
FMT, 161, 32, ACC, QBQfff, TimeUS,I,SampleUS,AccX,AccY,AccZ
FMT, 162, 32, GYR, QBQfff, TimeUS,I,SampleUS,GyrX,GyrY,GyrZ
FMT, 166, 28, VIBE, QBfffI, TimeUS,IMU,VibeX,VibeY,VibeZ,Clip
FMT, 164, 31, ISBH, QHBBHHQf, TimeUS,N,type,instance,mul,smp_cnt,SampleUS,smp_rate
FMT, 165, 207, ISBD, QHHaaa, TimeUS,N,seqno,x,y,z
FMT, 129, 15, RFRH, QI, TimeUS,TF
FMT, 130, 5, RFRF, BB, FTypes,Slow
FMT, 138, 38, RFRN, IIIfIfffBBB, HLat,HLon,HAlt,E2T,AM,TX,TY,TZ,VC,EKT,Flags
FMT, 131, 4, REV2, B, Event
FMT, 132, 15, RSO2, III, Lat,Lon,Alt
FMT, 133, 11, RWA2, ff, Airspeed,uncertainty
FMT, 134, 4, REV3, B, Event
FMT, 135, 15, RSO3, III, Lat,Lon,Alt
FMT, 136, 11, RWA3, ff, Airspeed,Uncertainty
FMT, 137, 16, REY3, ffIB, yawangle,yawangleerr,timestamp_ms,type
FMT, 139, 13, RISH, HBBfBB, LR,PG,PA,LD,AC,GC
FMT, 140, 37, RISI, ffffffffBB, DVX,DVY,DVZ,DAX,DAY,DAZ,DVDT,DADT,Flags,I
FMT, 148, 5, RASH, BB, Primary,NumInst
FMT, 149, 14, RASI, fIBBB, pd,UpdateMS,H,Use,I
FMT, 141, 5, RBRH, BB, Primary,NumInst
FMT, 142, 13, RBRI, IfBB, LastUpdate,Alt,H,I
FMT, 143, 8, RRNH, hhB, GCl,MaxD,NumSensors
FMT, 144, 20, RRNI, fffHBBB, PX,PY,PZ,Dist,Orient,Status,I
FMT, 145, 5, RGPH, BB, NumInst,Primary
FMT, 146, 23, RGPI, ffffBBBB, OX,OY,OZ,Lg,Flags,Stat,NSats,I
FMT, 147, 58, RGPJ, IffffffIiiiffHB, TS,VX,VY,VZ,SA,Y,YA,YT,Lat,Lon,Alt,HA,VA,HD,I
FMT, 153, 14, RMGH, fBBBBBBB, Dec,Avail,NumInst,AutoDec,NumEna,LOE,C,FUsable
FMT, 154, 35, RMGI, IffffffBBBB, LU,OX,OY,OZ,FX,FY,FZ,UFY,H,HSF,I
FMT, 150, 33, RBCH, ffffiiiBB, PX,PY,PZ,AE,OLat,OLng,OAlt,Flags,NumInst
FMT, 151, 25, RBCI, IffffBB, LU,PX,PY,PZ,Dist,H,I
FMT, 152, 21, RVOH, fffIBB, OX,OY,OZ,Del,H,Ena
FMT, 155, 40, ROFH, ffffIffffB, FX,FY,GX,GY,Tms,PX,PY,PZ,HgtOvr,Qual
FMT, 156, 49, REPH, fffffffffIIH, PX,PY,PZ,Q1,Q2,Q3,Q4,PEr,AEr,TS,RT,D
FMT, 157, 19, RSLL, IIfI, Lat,Lng,PosAccSD,TS
FMT, 158, 25, REVH, ffffIH, VX,VY,VZ,Er,TS,D
FMT, 159, 31, RWOH, ffIffff, DA,DT,TS,PX,PY,PZ,R
FMT, 160, 53, RBOH, ffffffffIfffH, Q,DPX,DPY,DPZ,DAX,DAY,DAZ,DT,TS,OX,OY,OZ,D
FMT, 43, 37, XKF0, QBBccCCcccccccc, TimeUS,C,ID,rng,innov,SIV,TR,BPN,BPE,BPD,OFH,OFL,OFN,OFE,OFD
FMT, 44, 56, XKF1, QBccCfffffffccce, TimeUS,C,Roll,Pitch,Yaw,VN,VE,VD,dPD,PN,PE,PD,GX,GY,GZ,OH
FMT, 45, 46, XKF2, QBccccchhhhhhfff, TimeUS,C,AX,AY,AZ,VWN,VWE,MN,ME,MD,MX,MY,MZ,IDX,IDY,IS
FMT, 46, 42, XKF3, QBcccccchhhccff, TimeUS,C,IVN,IVE,IVD,IPN,IPE,IPD,IMX,IMY,IMZ,IYAW,IVT,RErr,ErSc
FMT, 47, 44, XKF4, QBcccccfffHBIHb, TimeUS,C,SV,SP,SH,SM,SVT,errRP,OFN,OFE,FS,TS,SS,GPS,PI
FMT, 48, 41, XKF5, QBBhhhcccCCfff, TimeUS,C,NI,FIX,FIY,AFI,HAGL,offset,RI,rng,Herr,eAng,eVel,ePos
FMT, 49, 36, XKFD, QBffffff, TimeUS,C,IX,IY,IZ,IVX,IVY,IVZ
FMT, 50, 29, XKFM, QBBffff, TimeUS,C,OGNM,GLR,ALR,GDR,ADR
FMT, 51, 20, XKFS, QBBBBBBBBB, TimeUS,C,MI,BI,GI,AI,SS,GPS_GTA,GPS_CHK_WAIT,MAG_FUSION
FMT, 52, 28, XKQ, QBffff, TimeUS,C,Q1,Q2,Q3,Q4
FMT, 53, 48, XKT, QBIffffffff, TimeUS,C,Cnt,IMUMin,IMUMax,EKFMin,EKFMax,AngMin,AngMax,VMin,VMax
FMT, 54, 20, XKTV, QBff, TimeUS,C,TVS,TVD
FMT, 55, 60, XKV1, QBffffffffffff, TimeUS,C,V00,V01,V02,V03,V04,V05,V06,V07,V08,V09,V10,V11
FMT, 56, 60, XKV2, QBffffffffffff, TimeUS,C,V12,V13,V14,V15,V16,V17,V18,V19,V20,V21,V22,V23
FMT, 57, 60, XKY0, QBffffffffffff, TimeUS,C,YC,YCS,Y0,Y1,Y2,Y3,Y4,W0,W1,W2,W3,W4
FMT, 58, 52, XKY1, QBffffffffff, TimeUS,C,IVN0,IVN1,IVN2,IVN3,IVN4,IVE0,IVE1,IVE2,IVE3,IVE4
FMT, 41, 60, NKY0, QBffffffffffff, TimeUS,C,YC,YCS,Y0,Y1,Y2,Y3,Y4,W0,W1,W2,W3,W4
FMT, 42, 52, NKY1, QBffffffffff, TimeUS,C,IVN0,IVN1,IVN2,IVN3,IVN4,IVE0,IVE1,IVE2,IVE3,IVE4
FMT, 70, 45, AHR2, QccCfLLffff, TimeUS,Roll,Pitch,Yaw,Alt,Lat,Lng,Q1,Q2,Q3,Q4
FMT, 71, 19, AOA, Qff, TimeUS,AOA,SSA
FMT, 72, 36, ATT, QffffffB, TimeUS,DesRoll,Roll,DesPitch,Pitch,DesYaw,Yaw,AEKF
FMT, 73, 24, ORGN, QBLLe, TimeUS,Type,Lat,Lng,Alt
FMT, 74, 31, POS, QLLfff, TimeUS,Lat,Lng,Alt,RelHomeAlt,RelOriginAlt
FMT, 76, 35, ATSC, Qffffff, TimeUS,AngPScX,AngPScY,AngPScZ,PDScX,PDScY,PDScZ
FMT, 204, 51, VSTB, Qffffffffff, TimeUS,GyrX,GyrY,GyrZ,AccX,AccY,AccZ,Q1,Q2,Q3,Q4
FMT, 90, 38, MON, QIbIHHHHHII, TimeUS,Dly,Tsk,IErr,IErrCnt,IErrLn,MM,MC,SmLn,SPICnt,I2CCnt
FMT, 91, 47, WDOG, QbIHHHHHHHIBIIn, TimeUS,Tsk,IE,IEC,IEL,MvMsg,MvCmd,SmLn,FL,FT,FA,FP,ICSR,LR,TN
FMT, 210, 20, UART, QBff, TimeUS,I,Tx,Rx
FMT, 115, 21, RPM, QBffB, TimeUS,I,RPM,Qual,H
FMT, 209, 27, FNCE, QBBBLLBf, TimeUS,Tot,Seq,Type,Lat,Lng,Count,Radius
FMT, 177, 33, DSF, QIHIIII, TimeUS,Dp,Blk,Bytes,FMn,FMx,FAv
FMT, 121, 24, RALY, QBBLLhB, TimeUS,Tot,Seq,Lat,Lng,Alt,Flags
FMT, 183, 23, MAV, QBHHHBHH, TimeUS,chan,txp,rxp,rxdp,flags,ss,tf
FMT, 167, 43, VISO, Qffffffff, TimeUS,dt,AngDX,AngDY,AngDZ,PosDX,PosDY,PosDZ,conf
FMT, 168, 58, VISP, QQIffffffffBBb, TimeUS,RTimeUS,CTimeMS,PX,PY,PZ,R,P,Y,PErr,AErr,Rst,Ign,Q
FMT, 169, 42, VISV, QQIffffBBb, TimeUS,RTimeUS,CTimeMS,VX,VY,VZ,VErr,Rst,Ign,Q
FMT, 180, 28, OF, QBffff, TimeUS,Qual,flowX,flowY,bodyX,bodyY
FMT, 182, 21, WENC, Qfbfb, TimeUS,Dist0,Qual0,Dist1,Qual1
FMT, 185, 35, ADSB, QIiiiHHhH, TimeUS,ICAO_address,Lat,Lng,Alt,Heading,Hor_vel,Ver_vel,Squark
FMT, 181, 12, EV, QB, TimeUS,Id
FMT, 186, 18, ARM, QBIBB, TimeUS,ArmState,ArmChecks,Forced,Method
FMT, 184, 13, ERR, QBB, TimeUS,Subsys,ECode
FMT, 187, 35, WINC, QBBBBBfffHfb, TimeUS,Heal,ThEnd,Mov,Clut,Mode,DLen,Len,DRate,Tens,Vcc,Temp
FMT, 188, 47, PSCN, Qfffffffff, TimeUS,DPN,TPN,PN,DVN,TVN,VN,DAN,TAN,AN
FMT, 189, 47, PSCE, Qfffffffff, TimeUS,DPE,TPE,PE,DVE,TVE,VE,DAE,TAE,AE
FMT, 190, 47, PSCD, Qfffffffff, TimeUS,DPD,TPD,PD,DVD,TVD,VD,DAD,TAD,AD
FMT, 191, 35, PSON, Qffffff, TimeUS,TPON,PON,TVON,VON,TAON,AON
FMT, 192, 35, PSOE, Qffffff, TimeUS,TPOE,POE,TVOE,VOE,TAOE,AOE
FMT, 193, 35, PSOD, Qffffff, TimeUS,TPOD,POD,TVOD,VOD,TAOD,AOD
FMT, 194, 35, PSOT, Qffffff, TimeUS,TPOT,POT,TVOT,VOT,TAOT,AOT
FMT, 75, 63, RATE, Qfffffffffffff, TimeUS,RDes,R,ROut,PDes,P,POut,YDes,Y,YOut,ADes,A,AOut,AOutSlew
FMT, 195, 39, ANG, Qfffffff, TimeUS,DesRoll,Roll,DesPitch,Pitch,DesYaw,Yaw,Dt
FMT, 201, 33, STAK, QBBHHN, TimeUS,Id,Pri,Total,Free,Name
FMT, 202, 88, FILE, NIBZ, FileName,Offset,Length,Data
FMT, 197, 78, AISR, QBBBZ, TimeUS,num,total,ID,payload
FMT, 198, 41, AIS1, QBBIBbHbLLHHBBbI, US,typ,rep,mmsi,nav,rot,sog,pos,lon,lat,cog,hed,sec,man,raim,rad
FMT, 199, 38, AIS4, QBIHBBBBBBLLBBI, US,rep,mmsi,year,mth,day,h,m,s,fix,lon,lat,epfd,raim,rad
FMT, 200, 175, AIS5, QBIBINZBHHBBBBZB, US,rep,mmsi,ver,imo,cal,nam,typ,bow,stn,prt,str,fix,dght,dst,dte
FMT, 203, 39, SCR, QNIii, TimeUS,Name,Runtime,Total_mem,Run_mem
FMT, 206, 90, VER, QBHBBBBIZHBB, TimeUS,BT,BST,Maj,Min,Pat,FWT,GH,FWS,APJ,BU,FV
FMT, 205, 32, MOTB, QfffffB, TimeUS,LiftMax,BatVolt,ThLimit,ThrAvMx,ThrOut,FailFlags
FMT, 6, 24, PTUN, QBfff, TimeUS,Param,TunVal,TunMin,TunMax
FMT, 0, 55, CTUN, Qffffffefffhh, TimeUS,ThI,ABst,ThO,ThH,DAlt,Alt,BAlt,DSAlt,SAlt,TAlt,DCRt,CRt
FMT, 1, 14, D16, QBh, TimeUS,Id,Value
FMT, 2, 14, DU16, QBH, TimeUS,Id,Value
FMT, 3, 16, D32, QBi, TimeUS,Id,Value
FMT, 4, 16, DU32, QBI, TimeUS,Id,Value
FMT, 5, 16, DFLT, QBf, TimeUS,Id,Value
FMT, 9, 47, SIDD, Qfffffffff, TimeUS,Time,Targ,F,Gx,Gy,Gz,Ax,Ay,Az
FMT, 10, 40, SIDS, QBfffffff, TimeUS,Ax,Mag,FSt,FSp,TFin,TC,TR,TFout
FMT, 8, 49, GUIP, QBfffbffffff, TimeUS,Type,pX,pY,pZ,Terrain,vX,vY,vZ,aX,aY,aZ
FMT, 11, 44, GUIA, QBffffffff, TimeUS,Type,Roll,Pitch,Yaw,RollRt,PitchRt,YawRt,Thrust,ClimbRt
FMT, 249, 25, SURF, QBBfff, TimeUS,I,St,D,FD,TO
SURF, 102695340, 0, 2, 0, 0, 0.4023224
SURF, 102695380, 1, 2, 0, 0, 0.4023224
IMU, 102725264, 0, -0.0035875, -0.01711681, -0.006968782, -0.1758396, -0.261863, -9.785831, 0, 0, 44.80676, 1, 1, 2022, 2022
IMU, 102725264, 1, 0.001235749, 0.0009261954, -0.006144932, -0.1885409, -0.2191575, -9.828013, 0, 0, 45, 1, 1, 1998, 2046
POWR, 102745187, 4.949597, 0, 1, 1, 6
MCU, 102745187, 41.0338, 3.348395, 3.340534, 3.355162
BAT, 102745200, 0, 14.50865, 14.85022, 5.106301, 138.5883, 2.027133, 0, 0.06689139, 95, 1, 0
MAG, 102745238, 0, 43, -401, 175, 102, 25, 42, 0, 0, 0, 1, 102745237
MAG, 102745238, 1, 17, -393, 163, 32, 17, -32, 0, 0, 0, 1, 102745223
SURF, 102745281, 0, 2, 0, 0, 0.404115
SURF, 102745290, 1, 2, 0, 0, 0.404115
BARO, 102745313, 0, 0.5271606, 639.5571, 93676.13, 41.67, 0.0349617, 102745, 0, 35, 1
CTUN, 102745326, 0, 0, 0, 0.4229944, 0, 0.440668, 0.52, NaN, 0, 0.02052282, 0, 3
ATT, 102745384, -20.7046, 1.235003, 22.20739, -0.9468718, 77.72776, 77.72776, 3
ANG, 102744615, -20.7046, 1.235003, 22.20739, -0.9468718, 77.72776, 77.72776, 0.002483
RATE, 102744629, -100.9257, 0.008296384, -0.2377865, 99.81674, -0.03280636, 0.2353841, 17.98203, -0.07279148, 0.05714941, 4.438972, 0.2246857, 0, 0
PIDR, 102745401, -1.76147, 0.0001447992, -1.761614, -0.237818, 0, 3.149118E-05, 0, 0, 1, 0.4405283, 9
PIDP, 102745405, 1.742083, -0.000572579, 1.742656, 0.2352585, 0, 0.0001255822, 0, 0, 1, 0.4469091, 9
PIDY, 102745409, 0.3137795, -0.001270451, 0.3174967, 0.05714941, 0, 0, 0, 0, 1, 0.04666204, 9
PIDA, 102745413, 4.438972, 4.438972, 0, 0, -422.9971, 0, 0, 0, 1, 115.2893, 13
XKF4, 102744761, 0, 0.03, 0.06, 0, 0.07, 0, 0.006552241, 3.235183, 0.4386742, 0, 48, 109375, 0, 0
XKY0, 102744761, 0, 111.6326, 13.4051, 213.6398, 287.8164, 2.20531, 73.50515, 142.6835, 0.1878421, 0.1592046, 0.1829401, 0.2331751, 0.2368381
XKY1, 102744761, 0, -1.071615, 0.04404556, 1.111274, 0.6551971, -0.6939022, -0.482962, -1.242612, -0.4163014, 0.8540372, 0.8128386
XKF1, 102744761, 0, 1.23, -0.94, 77.72, 0.0004030956, -0.03963874, -0.03640509, -0.02316786, 2.451001, 1.33327, -0.440668, -0.23, -1, 0.05, 639.02
XKF2, 102744761, 0, 0, 0, 0.01, 0, 0, 400, -5, 144, 0, 0, 0, 0, 0, 0
XKF3, 102744761, 0, -0.02, -0.07, -0.04, 0.76, 0.29, 0.06, 0, 0, 0, -6.54, 0, 0, 0.002470831
XKF5, 102744761, 0, 0, 0, 0, 0, 1.63, 1.17, 0, 0, 0.5, 0.001108998, 0.01205688, 0.02058673
XKFS, 102744761, 0, 0, 0, 0, 0, 0, 1, 0, 1
XKQ, 102744761, 0, 0.7785112, 0.01357574, 0.000328724, 0.6274838
XKF4, 102744761, 1, 0.05, 0.06, 0, 0.07, 0, 0.006574119, 3.441075, 0.3600506, 0, 48, 109375, 0, 0
XKY0, 102744761, 1, 297.8845, 14.32128, 215.9951, 287.972, 359.942, 71.94672, 143.9795, 0.2000351, 0.2002466, 0.2001172, 0.1998258, 0.1997752
XKY1, 102744761, 1, 0.01550579, 0.009525763, 0.002819149, 0.004654261, 0.01249504, -0.09343897, -0.08833025, -0.09243891, -0.1000869, -0.100705
XKF1, 102744761, 1, 1.09, -0.73, 77.96, -0.01619375, -0.1197119, -0.01925747, -0.02015873, 2.453838, 1.277427, -0.3264001, -0.02, -0.09, 0.11, 639.02
XKF2, 102744761, 1, -0.01, 0, 0, 0, 0, 400, -5, 144, 0, 0, 0, 0, 0, 0
XKF3, 102744761, 1, -0.04, -0.15, -0.02, 0.77, 0.25, 0.19, 0, 0, 0, -6.25, 0, 0.07913997, 0.003582674
XKFS, 102744761, 1, 0, 0, 0, 0, 0, 1, 0, 1
XKQ, 102744761, 1, 0.7772677, 0.01146573, 0.001024224, 0.6290647
AHR2, 102745583, 1.43, -3.26, 80.19, 639.97, 15.3676457, 75.1248762, 0.764353, 0.02787066, -0.01371565, 0.6440493
POS, 102745591, 15.3676523, 75.1248786, 639.47, 0.02066806, 0.440668
MOTB, 102745596, 1, 1, 1, 0.04229945, 0, 2
RCIN, 102745602, 1102, 1927, 1102, 1927, 1404, 2000, 2000, 1000, 2000, 875, 875, 875, 875, 875
RCI2, 102745608, 875, 875, 0, 1
RCOU, 102745616, 1000, 1000, 1000, 1000, 0, 0, 0, 0, 0, 0, 0, 0, 0, 0
RCO2, 102745619, 0, 0, 0, 0
VIBE, 102745624, 0, 0.02398077, 0.04499479, 0.01689255, 0
VIBE, 102745624, 1, 0.07163262, 0.0839851, 0.07774162, 0
FMT, 247, 31, CTRL, Qfffff, TimeUS,RMSRollP,RMSRollD,RMSPitchP,RMSPitchD,RMSYaw
CTRL, 102745633, 0.2377839, 0.0004329303, 0.2352007, 0.00044193, 0.05687452
FMT, 252, 43, DCM, Qffffffff, TimeUS,Roll,Pitch,Yaw,ErrRP,ErrYaw,VWN,VWE,VWD
DCM, 102747200, 1.431599, -3.261197, 80.19583, 0.03138472, 0.06469692, 0, 0, 0
FMT, 251, 51, EAHR, QffffffLLfI, TimeUS,Roll,Pitch,Yaw,VN,VE,VD,Lat,Lon,Alt,Flg
EAHR, 102747246, 0, 0, 0, 0, 0, 0, 0, 0, 0, 0
GPS, 102765188, 0, 3, 302708000, 2379, 13, 0.81, 15.3676455, 75.1248761, 635.98, 0.101, 48.71269, 0.07300001, 0, 1
GPA, 102765188, 0, 1.19, 1.79, 2.26, 0.35, 0, 1, 102748, 200, 557.97, 0, 0
IMU, 102765246, 0, -0.004068009, -0.01673039, 0.004899597, -0.1958587, -0.1754374, -9.784822, 0, 0, 44.80676, 1, 1, 2022, 2022
IMU, 102765246, 1, -0.000119279, -0.001315373, 0.00631252, -0.2125321, -0.1348626, -9.808865, 0, 0, 45, 1, 1, 1998, 2046
MSG, 102773087, ArduCopter V4.6.2 (1ebd4d99)
MSG, 102773095, ChibiOS: 88b84600
VER, 102773100, 10, 5009, 4, 6, 2, 255, 515722649, ArduCopter V4.6.2 (1ebd4d99), 56, 2, 2
MSG, 102773146, Pixhawk6C 003D0048 3133510F 31343630
MSG, 102773154, Param space used: 922/5376
MSG, 102773161, RC Protocol: SBUS
MSG, 102773171, RCOut: PWM:1-16
MSG, 102773177, New mission
CMD, 102775619, 4, 0, 16, 0, 0, 0, 0, 15.3676529, 75.124879, 639.45, 0
CMD, 102775629, 4, 1, 22, 1, 0, 0, 0, 0, 0, 10, 3
CMD, 102775636, 4, 2, 16, 10, 0, 0, 0, 15.367361, 75.1254623, 10, 3
CMD, 102775643, 4, 3, 20, 0, 0, 0, 0, 0, 0, 0, 0
MSG, 102775647, New rally
MSG, 102775652, New fence
FNCE, 102775659, 14, 0, 98, 15.3679153, 75.1255443, 14, 0
FNCE, 102775664, 14, 1, 98, 15.3678714, 75.1258394, 14, 0
FNCE, 102775670, 14, 2, 98, 15.3676541, 75.1260915, 14, 0
FNCE, 102775675, 14, 3, 98, 15.3674795, 75.1260915, 14, 0
FNCE, 102775680, 14, 4, 98, 15.3673825, 75.1260754, 14, 0
FNCE, 102775686, 14, 5, 98, 15.3673075, 75.12607, 14, 0
FNCE, 102775691, 14, 6, 98, 15.3670748, 75.1260566, 14, 0
FNCE, 102775696, 14, 7, 98, 15.3668963, 75.1258796, 14, 0
FNCE, 102775702, 14, 8, 98, 15.366811, 75.1255792, 14, 0
FNCE, 102775707, 14, 9, 98, 15.3668653, 75.1252922, 14, 0
FNCE, 102775712, 14, 10, 98, 15.3670334, 75.1250857, 14, 0
FNCE, 102775718, 14, 11, 98, 15.3673696, 75.1251125, 14, 0
FNCE, 102775728, 14, 12, 98, 15.3675817, 75.1251393, 14, 0
FNCE, 102775761, 14, 13, 98, 15.3678481, 75.1253163, 14, 0
MSG, 102775771, Frame: QUAD/X
MODE, 102775775, Stabilize, 0, 1
ORGN, 102775779, 0, 15.3676302, 75.1248661, 639.03
ORGN, 102775783, 1, 15.3676529, 75.124879, 639.45
MSG, 102775810, GPS 1: probing for u-blox at 230400 baud
MSG, 102775819, u-blox 1 HW: 00190000 SW: EXT CORE 4.04 (7f89f7)
SURF, 102795318, 0, 2, 0, 0, 0.4058999
SURF, 102795328, 1, 2, 0, 0, 0.4058999
FILE, @SYS/uarts.txt, 0, 64, UARTV1\nSERIAL0 OTG1  TX =       0 RX =       0 TXBD=     0 RXBD=
IMU, 102805138, 0, -0.004839682, -0.01794401, -0.0009458659, -0.163184, -0.3073759, -9.784575, 0, 0, 44.80676, 1, 1, 2022, 2022
IMU, 102805138, 1, -0.0006783638, -0.001706387, 0.0006262931, -0.1605553, -0.2910536, -9.814676, 0, 0, 45, 1, 1, 1998, 2046
RAD, 102810010, 66, 0, 100, 100, 0, 0, 0
STAK, 102812816, 4, 183, 1456, 1096, monitor
FILE, @SYS/uarts.txt, 64, 64,      0 FE=0 OE=0 NE=0 FlowCtrl=0\nSERIAL1 UART7 TX*=  168012 RX*=
FILE, @SYS/uarts.txt, 128, 64,    18864 TXBD= 16430 RXBD=  1844 FE=0 OE=0 NE=0 FlowCtrl=0\nSERIA
FILE, @SYS/uarts.txt, 192, 64, L2 UART5 TX*=    2873 RX*=       0 TXBD=   280 RXBD=     0 FE=0 
POWR, 102845218, 4.964502, 0, 1, 1, 6
MCU, 102845218, 40.99404, 3.349098, 3.341795, 3.355303
BAT, 102845232, 0, 14.506, 14.84727, 5.101907, 138.7301, 2.029189, 0, 0.06689139, 95, 1, 0
MAG, 102845258, 0, 38, -400, 102, 102, 25, 42, 0, 0, 0, 1, 102845242
MAG, 102845258, 1, 18, -395, 163, 32, 17, -32, 0, 0, 0, 1, 102845240
SURF, 102845277, 0, 2, 0, 0, 0.407625
SURF, 102845288, 1, 2, 0, 0, 0.407625
BARO, 102845311, 0, 0.456604, 639.4866, 93676.91, 41.67, 0.05338668, 102845, 0, 35, 1
CTUN, 102845349, 0, 0, 0, 0.4229944, 0, 0.4409721, 0.45, NaN, 0, 0.02052282, 0, 3
ATT, 102845426, -20.70461, 1.230344, 22.2074, -0.9499189, 77.74574, 77.74573, 3
ANG, 102844613, -20.70461, 1.230344, 22.2074, -0.9499189, 77.74574, 77.74573, 0.0025
RATE, 102844625, -100.9062, -0.02345215, -0.2377462, 99.82877, -0.02223141, 0.2351781, 17.97569, -0.4307916, 0.05712842, 4.438972, 0.7597923, 0, 0
PIDR, 102845442, -1.761174, -0.0004093172, -1.760765, -0.2377032, 0, -4.296107E-05, 0, 0, 1, 0.3985574, 9
PIDP, 102845446, 1.742328, -0.0003880113, 1.742716, 0.2352667, 0, -8.859739E-05, 0, 0, 1, 0.4043303, 9
PIDY, 102845450, 0.3136972, -0.007518733, 0.3173801, 0.05712842, 0, 0, 0, 0, 1, 0.04359939, 9
PIDA, 102845454, 4.438972, 4.438972, 0, 0, -422.9971, 0, 0, 0, 1, 115.2893, 13
XKF4, 102844716, 0, 0.05, 0.06, 0, 0.06, 0, 0.006485643, 3.235183, 0.4386742, 0, 48, 109375, 0, 0
XKY0, 102844716, 0, 66.21934, 11.78586, 214.0894, 289.1743, 2.508431, 72.31466, 141.6011, 0.1331831, 0.1417343, 0.2298407, 0.2871836, 0.2080583
XKY1, 102844716, 0, -1.701384, -0.01838719, 1.596014, 0.8589622, -1.085151, -0.5350178, -1.733959, -0.4360751, 1.420179, 1.355966
XKF1, 102844716, 0, 1.23, -0.94, 77.74, 0.005323642, -0.03853787, -0.03497064, -0.004215389, 2.439034, 1.3274, -0.4409721, -0.23, -1, 0.05, 639.02
XKF2, 102844716, 0, -0.01, 0.01, 0.01, 0, 0, 400, -5, 144, 0, 0, 0, 0, 0, 0
XKF3, 102844716, 0, -0.09, -0.04, -0.11, 0.77, 0.28, 0.08, 0, 0, 0, -5.78, 0, 0, 0.003371339
XKF5, 102844716, 0, 0, 0, 0, 0, 1.62, 1.17, 0, 0, 0.5, 0.000968045, 0.01797943, 0.01643657
XKFS, 102844716, 0, 0, 0, 0, 0, 0, 1, 0, 1
XKQ, 102844716, 0, 0.7784129, 0.01356072, 0.0002846341, 0.627606
XKF4, 102844716, 1, 0.06, 0.06, 0.01, 0.06, 0, 0.006506121, 3.441075, 0.3600506, 0, 48, 109375, 0, 0
XKY0, 102844716, 1, 254.6914, 14.91482, 215.9846, 287.917, 359.893, 71.94582, 144.0025, 0.2003973, 0.200426, 0.1998658, 0.1994915, 0.1998195
XKY1, 102844716, 1, -0.05645099, -0.06461757, -0.0755059, -0.07407544, -0.06229266, -0.02033946, -0.0115458, -0.01658984, -0.02850923, -0.03082899
XKF1, 102844716, 1, 1.09, -0.74, 77.98, -0.01077999, -0.1149261, -0.01848081, -0.0007054497, 2.441432, 1.272311, -0.3263577, -0.02, -0.09, 0.11, 639.02
XKF2, 102844716, 1, -0.02, 0.01, 0, 0, 0, 400, -5, 144, 0, 0, 0, 0, 0, 0
XKF3, 102844716, 1, -0.11, -0.12, -0.09, 0.78, 0.24, 0.2, 0, 0, 0, -5.46, 0, 0.1123932, 0.004063132
XKFS, 102844716, 1, 0, 0, 0, 0, 0, 1, 0, 1
XKQ, 102844716, 1, 0.7771537, 0.01150788, 0.0009697807, 0.6292048
AHR2, 102845616, 1.39, -3.26, 80.23, 639.97, 15.3676456, 75.1248761, 0.7641193, 0.02767015, -0.01389614, 0.6443313
POS, 102845622, 15.3676522, 75.1248785, 639.47, 0.02097216, 0.4409721
MOTB, 102845627, 1, 1, 1, 0.04229945, 0, 2
RCIN, 102845633, 1102, 1927, 1102, 1927, 1403, 2000, 2000, 1000, 2000, 875, 875, 875, 875, 875
RCI2, 102845637, 875, 875, 0, 1
RCOU, 102845643, 1000, 1000, 1000, 1000, 0, 0, 0, 0, 0, 0, 0, 0, 0, 0
RCO2, 102845646, 0, 0, 0, 0
VIBE, 102845651, 0, 0.02065586, 0.04046591, 0.0126354, 0
VIBE, 102845651, 1, 0.06677749, 0.07726167, 0.07492288, 0
CTRL, 102845659, 0.2377597, 0.0003582026, 0.2352034, 0.000367062, 0.05684528
IMU, 102845669, 0, -0.004474765, -0.01794102, -0.006550473, -0.180731, -0.2113311, -9.791207, 0, 0, 44.80676, 1, 1, 2022, 2022
IMU, 102845669, 1, -0.00026228, 0.0004335826, -0.005064126, -0.1932371, -0.1914552, -9.81864, 0, 0, 45, 1, 1, 1998, 2046
DCM, 102847233, 1.398083, -3.260717, 80.23803, 0.03700719, 0.06693263, 0, 0, 0
EAHR, 102847252, 0, 0, 0, 0, 0, 0, 0, 0, 0, 0
FILE, @SYS/uarts.txt, 256, 64, OE=0 NE=0 FlowCtrl=0\nSERIAL3 UART1 TX*=    1818 RX*=   66274 TXB
FILE, @SYS/uarts.txt, 320, 64, D=   177 RXBD=  6481 FE=152 OE=0 NE=170 FlowCtrl=0\nSERIAL4 UART8
FILE, @SYS/uarts.txt, 384, 64,  TX*=       0 RX*=       0 TXBD=     0 RXBD=     0 FE=0 OE=0 NE=
IMU, 102885013, 0, -0.004194833, -0.01833669, 0.003695618, -0.1924687, -0.2217267, -9.787514, 0, 0, 44.80676, 1, 1, 2022, 2022
IMU, 102885013, 1, -0.001315995, 0.0004334682, 0.004373978, -0.1884305, -0.1841685, -9.808813, 0, 0, 45, 1, 1, 1998, 2046
FILE, @SYS/uarts.txt, 448, 64, 0 FlowCtrl=0\nSERIAL5 UART2 TX =       0 RX =       0 TXBD=     0
SURF, 102895331, 0, 2, 0, 0, 0.4092533
SURF, 102895340, 1, 2, 0, 0, 0.4092533
FILE, @SYS/uarts.txt, 512, 64,  RXBD=     0 FE=0 OE=0 NE=0 FlowCtrl=0\nSERIAL6 UART3 TX =       
STAK, 102913777, 5, 181, 1968, 1520, timer
FILE, @SYS/uarts.txt, 576, 64, 0 RX =       0 TXBD=     0 RXBD=     0 FE=0 OE=0 NE=0 FlowCtrl=0
FMT, 253, 28, HEAT, Qfbfff, TimeUS,Temp,Targ,P,I,Out
HEAT, 102922121, 44.83091, 45, 8.454323, 6.393743, 14.84807
IMU, 102925292, 0, -0.004794039, -0.01654649, -0.004389016, -0.1493108, -0.2838164, -9.786242, 0, 0, 44.80676, 1, 1, 2022, 2022
IMU, 102925292, 1, -0.0003509156, -0.00091851, -0.003123569, -0.1512418, -0.2561481, -9.802708, 0, 0, 45, 1, 1, 1998, 2046
FILE, @SYS/uarts.txt, 640, 64, \nSERIAL7 OTG2  TX =       0 RX =       0 TXBD=     0 RXBD=     0
FILE, @SYS/uarts.txt, 704, 64,  FE=0 OE=0 NE=0 FlowCtrl=0\nIOMCU   UART6 TX*=  812144 RX*=  5055
POWR, 102945226, 4.956345, 0, 1, 1, 6
MCU, 102945226, 40.97416, 3.349098, 3.341935, 3.354173
BAT, 102945240, 0, 14.51597, 14.8575, 5.105752, 138.872, 2.031248, 0, 0.06689139, 95, 1, 0
MAG, 102945252, 0, 39, -403, 110, 102, 25, 42, 0, 0, 0, 1, 102945250
MAG, 102945252, 1, 18, -394, 163, 32, 17, -32, 0, 0, 0, 1, 102945249
SURF, 102945270, 0, 2, 0, 0, 0.4108045
SURF, 102945281, 1, 2, 0, 0, 0.4108045
BARO, 102945301, 0, 0.4036255, 639.4336, 93677.54, 41.68, -0.08815765, 102945, 0, 35, 1
CTUN, 102945313, 0, 0, 0, 0.4229944, 0, 0.4413902, 0.4, NaN, 0, 0.02088903, 0, 3
ATT, 102945399, -20.70461, 1.224879, 22.2074, -0.9507638, 77.76143, 77.76143, 3
ANG, 102944618, -20.70461, 1.224879, 22.2074, -0.9507638, 77.76143, 77.76143, 0.002495
RATE, 102944632, -100.883, -0.005952189, -0.2377331, 99.83105, 0.02977503, 0.2350881, 17.98394, -0.3849195, 0.05706552, 4.438972, 0.242424, 0, 0
PIDR, 102945416, -1.760776, -0.0001038853, -1.760672, -0.2376907, 0, -4.238122E-05, 0, 0, 1, 0.3605827, 9
PIDP, 102945433, 1.742417, 0.0005196724, 1.741898, 0.2351562, 0, -6.807355E-05, 0, 0, 1, 0.3658055, 9
PIDY, 102945449, 0.3139361, -0.006718114, 0.3170306, 0.05706552, 0, 0, 0, 0, 1, 0.03944523, 9
PIDA, 102945453, 4.438972, 4.438972, 0, 0, -422.9971, 0, 0, 0, 1, 115.2893, 13
XKF4, 102944725, 0, 0.05, 0.06, 0, 0.07, 0, 0.006565074, 3.235183, 0.4386742, 0, 48, 109375, 0, 0
XKY0, 102944725, 0, 66.20988, 11.78589, 214.0799, 289.1649, 2.498972, 72.30521, 141.5916, 0.1331831, 0.1417343, 0.2298407, 0.2871836, 0.2080583
XKY1, 102944725, 0, -1.701384, -0.01838719, 1.596014, 0.8589622, -1.085151, -0.5350178, -1.733959, -0.4360751, 1.420179, 1.355966
XKF1, 102944725, 0, 1.22, -0.95, 77.76, 0.01153397, -0.03734524, -0.03375427, 0.005855333, 2.431083, 1.322788, -0.4413903, -0.23, -1, 0.05, 639.02
XKF2, 102944725, 0, -0.01, 0.01, 0.01, 0, 0, 400, -5, 144, 0, 0, 0, 0, 0, 0
XKF3, 102944725, 0, -0.09, -0.04, -0.11, 0.77, 0.28, 0, 0, 0, 0, -6.26, 0, 0, 0.003371339
XKF5, 102944725, 0, 0, 0, 0, 0, 1.62, 1.17, 0, 0, 0.5, 0.0009246783, 0.01542351, 0.02389757
XKFS, 102944725, 0, 0, 0, 0, 0, 0, 1, 0, 1
XKQ, 102944725, 0, 0.7783275, 0.01352819, 0.0002508171, 0.6277127
XKF4, 102944725, 1, 0.06, 0.06, 0, 0.06, 0, 0.006585852, 3.441075, 0.3600506, 0, 48, 109375, 0, 0
XKY0, 102944725, 1, 254.6801, 14.91484, 215.9733, 287.9057, 359.8817, 71.93449, 143.9911, 0.2003973, 0.200426, 0.1998658, 0.1994915, 0.1998195
XKY1, 102944725, 1, -0.05645099, -0.06461757, -0.0755059, -0.07407544, -0.06229266, -0.02033946, -0.0115458, -0.01658984, -0.02850923, -0.03082899
XKF1, 102944725, 1, 1.09, -0.74, 78, -0.004172846, -0.1109064, -0.01751683, 0.008865907, 2.433485, 1.266835, -0.3266096, -0.02, -0.09, 0.11, 639.02
XKF2, 102944725, 1, -0.02, 0.01, 0, 0, 0, 400, -5, 144, 0, 0, 0, 0, 0, 0
XKF3, 102944725, 1, -0.11, -0.12, -0.09, 0.78, 0.24, 0.13, 0, 0, 0, -5.97, 0, 0.1400648, 0.004063132
XKFS, 102944725, 1, 0, 0, 0, 0, 0, 1, 0, 1
XKQ, 102944725, 1, 0.7770506, 0.01146973, 0.0009587721, 0.6293329
AHR2, 102945561, 1.35, -3.24, 80.28, 639.9, 15.3676457, 75.1248761, 0.7638871, 0.02730139, -0.01404164, 0.6446192
POS, 102945566, 15.3676521, 75.1248785, 639.47, 0.02139029, 0.4413903
MOTB, 102945575, 1, 1, 1, 0.04229945, 0, 2
RCIN, 102945581, 1102, 1927, 1102, 1927, 1404, 2000, 2000, 1000, 2000, 875, 875, 875, 875, 875
RCI2, 102945585, 875, 875, 0, 1
RCOU, 102945591, 1000, 1000, 1000, 1000, 0, 0, 0, 0, 0, 0, 0, 0, 0, 0
RCO2, 102945620, 0, 0, 0, 0
VIBE, 102945645, 0, 0.02840563, 0.03472853, 0.01025547, 0
VIBE, 102945645, 1, 0.0710018, 0.0704671, 0.07595898, 0
CTRL, 102945675, 0.2377285, 0.0002954534, 0.2352007, 0.0003144719, 0.05687814
FILE, @SYS/uarts.txt, 768, 53, 60 TXBD= 37420 RXBD=  7438 FE=0 OE=0 NE=0 FlowCtrl=0\n
DCM, 102947232, 1.353976, -3.247375, 80.2816, 0.03700719, 0.06820413, 0, 0, 0
EAHR, 102947251, 0, 0, 0, 0, 0, 0, 0, 0, 0, 0
GPS, 102965174, 0, 3, 302708200, 2379, 13, 0.81, 15.3676452, 75.1248761, 636, 0.027, 48.71269, -0.025, 0, 1
GPA, 102965174, 0, 1.19, 1.79, 2.26, 0.35, 0, 1, 102948, 200, 557.99, 0, 0
IMU, 102965236, 0, -0.004791948, -0.0168908, -0.00182802, -0.1906357, -0.2159041, -9.784682, 0, 0, 44.80676, 1, 1, 2022, 2022
IMU, 102965236, 1, -0.0004104132, -0.0001663478, -0.0002622219, -0.1943547, -0.2093857, -9.815608, 0, 0, 45, 1, 1, 1998, 2046
FILE, @SYS/memory.txt, 0, 64, MemInfoV1\nSTART=0x24000000 LEN=512k FREE=  2944 LRG=  1152 TYPE=
FILE, @SYS/memory.txt, 64, 64, 4\nSTART=0x30000000 LEN=256k FREE=262136 LRG=262136 TYPE=8\nSTART=
FILE, @SYS/memory.txt, 128, 64, 0x20000000 LEN=128k FREE=112544 LRG=112544 TYPE=2\nSTART=0x000004
SURF, 102995300, 0, 2, 0, 0, 0.412298
SURF, 102995310, 1, 2, 0, 0, 0.412298
FILE, @SYS/memory.txt, 192, 64, 00 LEN= 63k FREE= 64504 LRG= 64504 TYPE=2\nSTART=0x30040000 LEN= 
IMU, 103005174, 0, -0.003426121, -0.01732023, 0.003555693, -0.1311355, -0.2748027, -9.785547, 0, 0, 44.80676, 1, 1, 2022, 2022
IMU, 103005174, 1, 0.0001983219, 0.0009038898, 0.005126914, -0.1560941, -0.2451843, -9.80502, 0, 0, 45, 1, 1, 1998, 2046
STAK, 103013797, 6, 181, 944, 680, rcout
FILE, @SYS/memory.txt, 256, 64, 32k FREE= 32760 LRG= 32760 TYPE=8\nSTART=0x38000000 LEN= 64k FREE
FILE, @SYS/memory.txt, 320, 26, = 56808 LRG= 56152 TYPE=1\n
POWR, 103045196, 4.969034, 0, 1, 1, 6
MCU, 103045196, 41.01392, 3.349239, 3.341514, 3.357707
BAT, 103045236, 0, 14.51103, 14.85252, 5.105202, 139.0138, 2.033306, 0, 0.06689139, 95, 1, 0
MAG, 103045248, 0, 34, -405, 155, 102, 25, 42, 0, 0, 0, 1, 103045246
MAG, 103045248, 1, 17, -394, 164, 32, 17, -32, 0, 0, 0, 1, 103045245
SURF, 103045287, 0, 2, 0, 0, 0.4137411
SURF, 103045297, 1, 2, 0, 0, 0.4137411
BARO, 103045316, 0, 0.4595337, 639.4895, 93676.89, 41.67, -0.2812195, 103045, 0, 35, 1
CTUN, 103045329, 0, 0, 0, 0.4229944, 0, 0.4423772, 0.45, NaN, 0, 0.02070592, 0, 3
ATT, 103045388, -20.70461, 1.225145, 22.20739, -0.9527552, 77.78339, 77.7834, 3
ANG, 103044613, -20.70461, 1.225145, 22.20739, -0.9527552, 77.78339, 77.7834, 0.002494
RATE, 103044627, -100.8845, -0.08632502, -0.2371963, 99.83965, -0.06588677, 0.2355685, 17.98482, -0.368004, 0.05687747, 4.438972, 0.1028061, 0, 0
PIDR, 103045404, -1.760801, -0.001506656, -1.759294, -0.2375047, 0, 0.0003083854, 0, 0, 1, 0.3262296, 9
PIDP, 103045408, 1.742488, -0.001149941, 1.743638, 0.2353911, 0, 0.000177464, 0, 0, 1, 0.3309548, 9
PIDY, 103045412, 0.3140187, -0.006422882, 0.3159859, 0.05687747, 0, 0, 0, 0, 1, 0.03568724, 9
PIDA, 103045415, 4.438972, 4.438972, 0, 0, -422.9971, 0, 0, 0, 1, 115.2893, 13
XKF4, 103044761, 0, 0.01, 0.06, 0, 0.07, 0, 0.006517848, 3.235183, 0.4386742, 0, 48, 109375, 0, 0
XKY0, 103044761, 0, 137.196, 11.66457, 213.7123, 287.738, 2.052368, 73.42408, 142.7746, 0.2125498, 0.1317635, 0.1377911, 0.2259456, 0.29195
XKY1, 103044761, 0, -2.064535, 0.1957436, 2.267564, 1.334944, -1.225784, -0.6996626, -2.257393, -0.541265, 1.861808, 1.82834
XKF1, 103044761, 0, 1.22, -0.95, 77.78, 0.01267749, -0.03602685, -0.03288389, -0.002608104, 2.416603, 1.318162, -0.4423772, -0.23, -1, 0.05, 639.02
XKF2, 103044761, 0, -0.01, 0, 0.01, 0, 0, 400, -5, 144, 0, 0, 0, 0, 0, 0
XKF3, 103044761, 0, 0.03, -0.03, 0, 0.76, 0.27, -0.04, 0, 0, 0, -6.1, 0, 0, 0.002183564
XKF5, 103044761, 0, 0, 0, 0, 0, 1.62, 1.17, 0, 0, 0.5, 0.001017724, 0.01530102, 0.01928013
XKFS, 103044761, 0, 0, 0, 0, 0, 0, 1, 0, 1
XKQ, 103044761, 0, 0.7782069, 0.01354086, 0.0002413419, 0.6278619
XKV1, 103044761, 0, 0.0001129553, 5.224975E-06, 5.344597E-06, 0.0001735219, 0.02934466, 0.02928821, 0.01173342, 0.1362313, 0.1361548, 0.1440399, 4.217256E-11, 4.031738E-11
XKV2, 103044761, 0, 2.025456E-10, 5.238082E-06, 5.239719E-06, 5.885369E-08, 0, 0, 0, 0, 0, 0, 0, 0
XKF4, 103044761, 1, 0.03, 0.06, 0, 0.06, 0, 0.006536418, 3.441075, 0.3600506, 0, 48, 109375, 0, 0
XKY0, 103044761, 1, 334.3493, 14.64864, 215.9767, 287.9679, 359.9025, 71.8708, 143.9167, 0.1997617, 0.200345, 0.2004515, 0.1999338, 0.199508
XKY1, 103044761, 1, 0.0931756, 0.08221291, 0.06685863, 0.0683331, 0.08461547, -0.006645304, 0.005923184, -0.0006102342, -0.01724692, -0.02097027
XKF1, 103044761, 1, 1.09, -0.73, 78.02, -0.00235813, -0.104638, -0.01742568, -0.001453085, 2.417834, 1.264022, -0.3276476, -0.02, -0.09, 0.11, 639.02
XKF2, 103044761, 1, -0.04, 0, 0, 0, 0, 400, -5, 144, 0, 0, 0, 0, 0, 0
XKF3, 103044761, 1, 0.02, -0.11, 0.01, 0.77, 0.23, 0.07, 0, 0, 0, -5.81, 0, 0.1619082, 0.002722087
XKFS, 103044761, 1, 0, 0, 0, 0, 0, 1, 0, 1
XKQ, 103044761, 1, 0.7769155, 0.01147713, 0.001005749, 0.6294995
AHR2, 103045592, 1.39, -3.23, 80.32, 639.85, 15.3676452, 75.1248761, 0.7636389, 0.02747482, -0.0137032, 0.6449131
POS, 103045598, 15.367652, 75.1248784, 639.47, 0.02237719, 0.4423772
MOTB, 103045603, 1, 1, 1, 0.04229945, 0, 2
RCIN, 103045609, 1102, 1927, 1102, 1927, 1403, 2000, 2000, 1000, 2000, 875, 875, 875, 875, 875
RCI2, 103045612, 875, 875, 0, 1
RCOU, 103045619, 1000, 1000, 1000, 1000, 0, 0, 0, 0, 0, 0, 0, 0, 0, 0
RCO2, 103045622, 0, 0, 0, 0
VIBE, 103045626, 0, 0.04294511, 0.03674191, 0.009671614, 0
VIBE, 103045626, 1, 0.07771068, 0.07336234, 0.07552107, 0
CTRL, 103045635, 0.2377128, 0.0002586309, 0.2352093, 0.0002642697, 0.05687505
IMU, 103045645, 0, -0.005580886, -0.01869454, -0.005482015, -0.2707938, -0.2102575, -9.783415, 0, 0, 44.80676, 1, 1, 2022, 2022
IMU, 103045645, 1, -0.00125309, -0.001570309, -0.003969146, -0.2910689, -0.2011423, -9.810423, 0, 0, 45, 1, 1, 1998, 2046
DCM, 103047201, 1.395573, -3.230711, 80.32438, 0.04413787, 0.07267831, 0, 0, 0
EAHR, 103047227, 0, 0, 0, 0, 0, 0, 0, 0, 0, 0
FILE, @SYS/threads.txt, 0, 64, ThreadsV2\nISR           PRI=255 sp=0x24000000 STACK=1284/1536\nAr
FILE, @SYS/threads.txt, 64, 64, duCopter    PRI=182 sp=0x24000600 STACK=4176/7168\nidle          
FILE, @SYS/threads.txt, 128, 64, PRI=  1 sp=0x240214B0 STACK=288/496\nUART_RX       PRI= 60 sp=0x2
IMU, 103085089, 0, -0.003870842, -0.01768913, 0.001612292, -0.0742024, -0.2595433, -9.788377, 0, 0, 44.80676, 1, 1, 2022, 2022
IMU, 103085089, 1, 0.001272887, 0.0002675737, 0.004211043, -0.07855821, -0.2193883, -9.824381, 0, 0, 45, 1, 1, 1998, 2046
FILE, @SYS/threads.txt, 192, 64, 407B0E8 STACK=880/1200\nOTG1          PRI= 60 sp=0x2407A1A0 STACK
SURF, 103095325, 0, 2, 0, 0, 0.4151395
SURF, 103095334, 1, 2, 0, 0, 0.4151395
FILE, @SYS/threads.txt, 256, 64, =480/752\nmonitor       PRI=183 sp=0x2401CE20 STACK=1096/1456\ntim
FILE, @SYS/threads.txt, 320, 64, er         PRI=181 sp=0x2401E3E0 STACK=1520/1968\nrcout         P
STAK, 103114077, 7, 177, 1456, 992, rcin
FILE, @SYS/threads.txt, 384, 64, RI=181 sp=0x2401DA00 STACK=680/944\nrcin          PRI=177 sp=0x24
IMU, 103125264, 0, -0.004848489, -0.01750812, 0.001265606, -0.2904195, -0.2109053, -9.787807, 0, 0, 44.80676, 1, 1, 2022, 2022
IMU, 103125264, 1, -0.001825788, 0.0003229706, 0.001995133, -0.3060817, -0.1852341, -9.794216, 0, 0, 45, 1, 1, 1998, 2046
FILE, @SYS/threads.txt, 448, 64, 01D410 STACK=992/1456\nio            PRI= 58 sp=0x2401C430 STACK=
POWR, 103145202, 4.959265, 0, 1, 1, 6
MCU, 103145202, 40.99404, 3.349521, 3.341655, 3.356434
BAT, 103145218, 0, 14.51735, 14.85893, 5.106484, 139.1556, 2.035365, 0, 0.06689139, 95, 1, 0
MAG, 103145230, 0, 42, -402, 123, 102, 25, 42, 0, 0, 0, 1, 103145228
MAG, 103145230, 1, 17, -393, 164, 32, 17, -32, 0, 0, 0, 1, 103145227
SURF, 103145248, 0, 2, 0, 0, 0.4165057
SURF, 103145259, 1, 2, 0, 0, 0.4165057
BARO, 103145279, 0, 0.5712891, 639.6013, 93675.64, 41.68, -0.2619553, 103145, 0, 35, 1
CTUN, 103145292, 0, 0, 0, 0.4229944, 0, 0.4440615, 0.57, NaN, 0, 0.02143834, 0, 3
ATT, 103145394, -20.70462, 1.227627, 22.2074, -0.9541288, 77.80824, 77.80824, 3
ANG, 103144613, -20.70462, 1.227627, 22.2074, -0.9541288, 77.80824, 77.80824, 0.0025
RATE, 103144628, -100.8954, -0.03065936, -0.237699, 99.84621, -0.03871746, 0.2354025, 17.98598, -0.3242996, 0.0567353, 4.438972, 1.053429, 0, 0
PIDR, 103145411, -1.760956, -0.0005351068, -1.760421, -0.2376568, 0, -4.22523E-05, 0, 0, 1, 0.2951478, 9
PIDP, 103145415, 1.742605, -0.0006757472, 1.743281, 0.235343, 0, 5.954752E-05, 0, 0, 1, 0.2994228, 9
PIDY, 103145419, 0.3140512, -0.005660097, 0.3151961, 0.0567353, 0, 0, 0, 0, 1, 0.03228711, 9
PIDA, 103145423, 4.438972, 4.438972, 0, 0, -422.9971, 0, 0, 0, 1, 115.2893, 13
XKF4, 103144717, 0, 0.01, 0.06, 0, 0.07, 0, 0.006597211, 3.235183, 0.4386742, 0, 48, 109375, 0, 0
XKY0, 103144717, 0, 137.1894, 11.6646, 213.7057, 287.7314, 2.045743, 73.41745, 142.768, 0.2125498, 0.1317635, 0.1377911, 0.2259456, 0.29195
XKY1, 103144717, 0, -2.064535, 0.1957436, 2.267564, 1.334944, -1.225784, -0.6996626, -2.257393, -0.541265, 1.861808, 1.82834
XKF1, 103144717, 0, 1.22, -0.95, 77.8, 0.01330863, -0.03417052, -0.03277006, -0.01382367, 2.404477, 1.314544, -0.4440615, -0.23, -1, 0.05, 639.02
XKF2, 103144717, 0, -0.01, 0, 0.01, 0, 0, 400, -5, 144, 0, 0, 0, 0, 0, 0
XKF3, 103144717, 0, 0.03, -0.03, 0, 0.76, 0.27, 0, 0, 0, 0, -6.88, 0, 0, 0.002183564
XKF5, 103144717, 0, 0, 0, 0, 0, 1.63, 1.17, 0, 0, 0.5, 0.001060476, 0.0126405, 0.01995573
XKFS, 103144717, 0, 0, 0, 0, 0, 0, 1, 0, 1
XKQ, 103144717, 0, 0.7780704, 0.01356518, 0.0002485497, 0.6280306
XKF4, 103144717, 1, 0.03, 0.06, 0, 0.07, 0, 0.006615673, 3.441075, 0.3600506, 0, 48, 109375, 0, 0
XKY0, 103144717, 1, 334.3433, 14.64867, 215.9707, 287.9619, 359.8965, 71.86476, 143.9106, 0.1997617, 0.200345, 0.2004515, 0.1999338, 0.199508
XKY1, 103144717, 1, 0.0931756, 0.08221291, 0.06685863, 0.0683331, 0.08461547, -0.006645304, 0.005923184, -0.0006102342, -0.01724692, -0.02097027
XKF1, 103144717, 1, 1.09, -0.73, 78.05, -0.001349837, -0.09868447, -0.01659505, -0.01115142, 2.406171, 1.260762, -0.3290902, -0.02, -0.09, 0.11, 639.02
XKF2, 103144717, 1, -0.04, 0, 0, 0, 0, 400, -5, 144, 0, 0, 0, 0, 0, 0
XKF3, 103144717, 1, 0.02, -0.11, 0.01, 0.77, 0.23, 0.13, 0, 0, 0, -6.56, 0, 0.1834493, 0.002722087
XKFS, 103144717, 1, 0, 0, 0, 0, 0, 1, 0, 1
XKQ, 103144717, 1, 0.776739, 0.01148938, 0.001022747, 0.629717
AHR2, 103145587, 1.45, -3.21, 80.37, 639.9, 15.3676452, 75.1248761, 0.763329, 0.02779867, -0.0132279, 0.645276
POS, 103145593, 15.3676518, 75.1248784, 639.47, 0.02406156, 0.4440615
MOTB, 103145600, 1, 1, 1, 0.04229945, 0, 2
RCIN, 103145606, 1102, 1927, 1102, 1927, 1404, 2000, 2000, 1000, 2000, 875, 875, 875, 875, 875
RCI2, 103145611, 875, 875, 0, 1
RCOU, 103145617, 1000, 1000, 1000, 1000, 0, 0, 0, 0, 0, 0, 0, 0, 0, 0
RCO2, 103145621, 0, 0, 0, 0
VIBE, 103145625, 0, 0.06597063, 0.0358952, 0.009316921, 0
VIBE, 103145625, 1, 0.1004933, 0.07422944, 0.07817892, 0
CTRL, 103145634, 0.2376961, 0.0002226757, 0.2352329, 0.0002237551, 0.05685613
DCM, 103147221, 1.457556, -3.213532, 80.37769, 0.04413787, 0.07112004, 0, 0, 0
EAHR, 103147242, 0, 0, 0, 0, 0, 0, 0, 0, 0, 0
FILE, @SYS/threads.txt, 512, 64, 1576/2480\nstorage       PRI= 59 sp=0x2401DDF0 STACK=904/1456\nUAR
FILE, @SYS/threads.txt, 576, 64, T7         PRI= 60 sp=0x24078FF8 STACK=224/752\nUART5         PRI
GPS, 103165160, 0, 3, 302708400, 2379, 13, 0.81, 15.3676449, 75.1248761, 636.05, 0.036, 48.71269, -0.028, 0, 1
GPA, 103165160, 0, 1.19, 1.79, 2.26, 0.35, 0, 1, 103148, 200, 558.04, 0, 0
IMU, 103165247, 0, -0.004743656, -0.0173936, -0.007438052, -0.07516953, -0.2535274, -9.795796, 0, 0, 44.80676, 1, 1, 2022, 2022
IMU, 103165247, 1, -0.001241577, -0.001355034, -0.006364514, -0.08009721, -0.2158311, -9.808811, 0, 0, 45, 1, 1, 1998, 2046
FILE, @SYS/threads.txt, 640, 64, = 60 sp=0x240784B0 STACK=280/752\nUART1         PRI= 60 sp=0x2407
FILE, @SYS/threads.txt, 704, 64, 78E8 STACK=376/752\nUART8         PRI= 60 sp=0x24076D20 STACK=408
SURF, 103195316, 0, 2, 0, 0, 0.4178512
SURF, 103195326, 1, 2, 0, 0, 0.4178512
FILE, @SYS/threads.txt, 768, 64, /752\nOTG2          PRI= 60 sp=0x24075DD8 STACK=480/752\nUART6    
IMU, 103205146, 0, -0.004545999, -0.01702474, 0.0009345753, -0.292158, -0.2335994, -9.78293, 0, 0, 44.80676, 1, 1, 2022, 2022
IMU, 103205146, 1, -0.002226394, -0.0001504927, 0.001320458, -0.3058147, -0.2101054, -9.790586, 0, 0, 45, 1, 1, 1998, 2046
FILE, @SYS/threads.txt, 832, 64,      PRI=181 sp=0x24074F58 STACK=344/752\nIOMCU         PRI=183 s
STAK, 103214144, 8, 58, 2480, 1576, io
FILE, @SYS/threads.txt, 896, 64, p=0x2406AB30 STACK=896/1456\nlog_io        PRI= 59 sp=0x2406B2C0 
FILE, @SYS/threads.txt, 960, 64, STACK=712/2016\nI2C1          PRI=176 sp=0x2406BBD0 STACK=984/145
FILE, @SYS/threads.txt, 1024, 64, 6\nI2C0          PRI=176 sp=0x2406C4A0 STACK=984/1456\nSPI1       
POWR, 103245210, 4.955841, 0, 1, 1, 6
MCU, 103245210, 40.97416, 3.34938, 3.342075, 3.353891
BAT, 103245224, 0, 14.51661, 14.85832, 5.108315, 139.2975, 2.037425, 0, 0.06689139, 95, 1, 0
MAG, 103245235, 0, 42, -404, 152, 102, 25, 42, 0, 0, 0, 1, 103245234
MAG, 103245235, 1, 17, -395, 162, 32, 17, -32, 0, 0, 0, 1, 103245232
SURF, 103245257, 0, 2, 0, 0, 0.4191844
SURF, 103245266, 1, 2, 0, 0, 0.4191844
BARO, 103245292, 0, 0.5124512, 639.5424, 93676.31, 41.68, 0.0569725, 103245, 0, 35, 1
CTUN, 103245307, 0, 0, 0, 0.4229944, 0, 0.446478, 0.51, NaN, 0, 0.02180455, 0, 3
ATT, 103245365, -20.70461, 1.229451, 22.20739, -0.9526437, 77.82526, 77.82525, 3
ANG, 103244616, -20.70461, 1.229451, 22.20739, -0.9526437, 77.82526, 77.82525, 0.002499
RATE, 103244628, -100.9029, -0.07871686, -0.2375235, 99.84029, 0.01590783, 0.2351331, 17.99557, -0.078357, 0.05682009, 4.438972, 0.4609108, 0, 0
PIDR, 103245381, -1.761101, -0.001373868, -1.759727, -0.2375631, 0, 3.962493E-05, 0, 0, 1, 0.2670266, 9
PIDP, 103245385, 1.742556, 0.000277644, 1.742278, 0.2352076, 0, -7.448853E-05, 0, 0, 1, 0.2708942, 9
PIDY, 103245389, 0.3141527, -0.001367588, 0.3156672, 0.05682009, 0, 0, 0, 0, 1, 0.02921085, 9
PIDA, 103245392, 4.438972, 4.438972, 0, 0, -422.9971, 0, 0, 0, 1, 115.2893, 13
XKF4, 103244719, 0, 0.02, 0.06, 0, 0.06, 0, 0.006579092, 3.235183, 0.4386742, 0, 48, 109375, 0, 0
XKF1, 103244719, 0, 1.22, -0.95, 77.82, 0.01293128, -0.02673839, -0.03286188, -0.02441484, 2.386502, 1.311558, -0.446478, -0.23, -1, 0.05, 639.02
XKF2, 103244719, 0, -0.02, 0, 0.01, 0, 0, 400, -5, 144, 0, 0, 0, 0, 0, 0
XKF3, 103244719, 0, 0.03, -0.04, 0, 0.76, 0.27, 0.11, 0, 0, 0, -5.62, 0, 0, 0.002178134
XKF5, 103244719, 0, 0, 0, 0, 0, 1.63, 1.17, 0, 0, 0.5, 0.001064053, 0.02006043, 0.02552678
XKFS, 103244719, 0, 0, 0, 0, 0, 0, 1, 0, 1
XKQ, 103244719, 0, 0.777977, 0.01356939, 0.0002706463, 0.6281461
XKF4, 103244719, 1, 0.03, 0.06, 0.01, 0.06, 0, 0.006595633, 3.441075, 0.3600506, 0, 48, 109375, 0, 0
XKY0, 103244719, 1, 346.1623, 14.35638, 216.0051, 288.0147, 359.8945, 71.81046, 143.8789, 0.1993682, 0.2005143, 0.2009503, 0.2000716, 0.1990955
XKY1, 103244719, 1, 0.06889698, 0.05599666, 0.04265456, 0.04728259, 0.06351334, -0.01771646, -0.007876053, -0.01708923, -0.03263557, -0.0330365
XKF1, 103244719, 1, 1.09, -0.73, 78.07, -2.445729E-05, -0.08323133, -0.01619908, -0.02232693, 2.387357, 1.26067, -0.33148, -0.02, -0.09, 0.11, 639.02
XKF2, 103244719, 1, -0.05, 0, 0, 0, 0, 400, -5, 144, 0, 0, 0, 0, 0, 0
XKF3, 103244719, 1, 0.02, -0.11, 0.01, 0.77, 0.23, 0.24, 0, 0, 0, -5.3, 0, 0.2038575, 0.002680463
XKFS, 103244719, 1, 0, 0, 0, 0, 0, 1, 0, 1
XKQ, 103244719, 1, 0.7766476, 0.01144737, 0.001051737, 0.6298304
AHR2, 103245523, 1.46, -3.21, 80.41, 640.02, 15.3676449, 75.1248761, 0.7631434, 0.02787632, -0.01311921, 0.6454943
POS, 103245529, 15.3676517, 75.1248784, 639.47, 0.02647802, 0.446478
MOTB, 103245534, 1, 1, 1, 0.04229945, 0, 2
RCIN, 103245540, 1102, 1927, 1102, 1927, 1403, 2000, 2000, 1000, 2000, 875, 875, 875, 875, 875
RCI2, 103245544, 875, 875, 0, 1
RCOU, 103245550, 1000, 1000, 1000, 1000, 0, 0, 0, 0, 0, 0, 0, 0, 0, 0
RCO2, 103245554, 0, 0, 0, 0
VIBE, 103245558, 0, 0.0907894, 0.03282975, 0.01001874, 0
VIBE, 103245558, 1, 0.1143362, 0.07117291, 0.07845914, 0
CTRL, 103245566, 0.2376828, 0.0001881035, 0.2352329, 0.0001890965, 0.0569062
IMU, 103245577, 0, -0.005459182, -0.01727158, -0.0004533831, -0.01498634, -0.2823552, -9.789952, 0, 0, 44.80676, 1, 1, 2022, 2022
IMU, 103245577, 1, -0.002905981, -0.0002132817, 0.001244518, -0.003116779, -0.2860316, -9.817067, 0, 0, 45, 1, 1, 1998, 2046
DCM, 103247233, 1.470016, -3.210657, 80.41073, 0.04141395, 0.07080245, 0, 0, 0
EAHR, 103247270, 0, 0, 0, 0, 0, 0, 0, 0, 0, 0
FILE, @SYS/threads.txt, 1088, 40,    PRI=181 sp=0x24070FC0 STACK=840/1456\n
FILE, @SYS/timers.txt, 0, 64, TIMERV1\nTIM5  CLK= 200Mhz MODE=  PWM FREQ=       7 TGT=       8\n
IMU, 103285078, 0, -0.002918041, -0.017998, -0.0008505466, -0.3158195, -0.1825869, -9.78723, 0, 0, 44.80676, 1, 1, 2022, 2022
IMU, 103285078, 1, -0.0009959043, 7.8328E-05, 0.000341462, -0.3393488, -0.1296396, -9.785703, 0, 0, 45, 1, 1, 1998, 2046
FILE, @SYS/timers.txt, 64, 64, TIM4  CLK= 200Mhz MODE=  PWM FREQ=       7 TGT=       8\nTIM1  CL
SURF, 103295346, 0, 2, 0, 0, 0.4205171
SURF, 103295355, 1, 2, 0, 0, 0.4205171
FILE, @SYS/timers.txt, 128, 48, K= 200Mhz MODE=  PWM FREQ=       7 TGT=       8\n
STAK, 103315138, 9, 59, 1456, 904, storage
IMU, 103325250, 0, -0.005959601, -0.01706162, -9.0262E-05, -0.07285938, -0.2823304, -9.796154, 0, 0, 44.80676, 1, 1, 2022, 2022
IMU, 103325250, 1, -0.002690747, -0.002295384, 0.001561261, -0.05515726, -0.2884936, -9.817789, 0, 0, 45, 1, 1, 1998, 2046
FILE, @ROMFS/hwdef.dat, 0, 64, MCU STM32H7xx STM32H743xx\nOSCILLATOR_HZ 16000000\nSTM32_ST_USE_TI
FILE, @ROMFS/hwdef.dat, 64, 64, MER 2\nUSB_VENDOR 0x3162\nUSB_PRODUCT 0x0053\nUSB_STRING_MANUFACTUR
POWR, 103345244, 4.967322, 0, 1, 1, 6
MCU, 103345244, 41.01392, 3.348958, 3.340254, 3.354315
BAT, 103345257, 0, 14.53135, 14.87331, 5.11216, 139.4396, 2.03949, 0, 0.06689139, 95, 1, 0
MAG, 103345269, 0, 38, -402, 129, 102, 25, 42, 0, 0, 0, 1, 103345267
MAG, 103345269, 1, 16, -394, 161, 32, 17, -32, 0, 0, 0, 1, 103345266
SURF, 103345314, 0, 2, 0, 0, 0.4218554
SURF, 103345323, 1, 2, 0, 0, 0.4218554
BARO, 103345342, 0, 0.5065308, 639.5365, 93676.35, 41.68, 0.3253365, 103345, 0, 35, 1
CTUN, 103345355, 0, 0, 0, 0.4229944, 0, 0.4495259, 0.5, NaN, 0, 0.02210973, 0, 3
ATT, 103345416, -20.7046, 1.233563, 22.20739, -0.9511543, 77.84746, 77.84747, 3
ANG, 103344613, -20.7046, 1.233563, 22.20739, -0.9511543, 77.84746, 77.84746, 0.0025
RATE, 103344626, -100.9202, 0.02863151, -0.2382505, 99.8349, 0.02724456, 0.2351048, 17.99377, -0.005518969, 0.05676467, 4.438972, 1.212406, 0, 0
PIDR, 103345489, -1.761331, 0.0004997142, -1.761831, -0.2378472, 0, -0.0004032716, 0, 0, 1, 0.2415862, 9
PIDP, 103345503, 1.742481, 0.0004755072, 1.742005, 0.2351708, 0, -6.598536E-05, 0, 0, 1, 0.2450853, 9
PIDY, 103345507, 0.3140492, -9.632419E-05, 0.3153593, 0.05676467, 0, 0, 0, 0, 1, 0.02642784, 9
PIDA, 103345511, 4.438972, 4.438972, 0, 0, -422.9971, 0, 0, 0, 1, 115.2893, 13
XKF4, 103344759, 0, 0.02, 0.06, 0, 0.06, 0, 0.006658192, 3.235183, 0.4386742, 0, 48, 109375, 0, 0
XKF1, 103344759, 0, 1.23, -0.95, 77.84, 0.01169153, -0.02301183, -0.03341582, -0.03323275, 2.371471, 1.309924, -0.4495259, -0.23, -1, 0.05, 639.02
XKF2, 103344759, 0, -0.02, 0, 0.01, 0, 0, 400, -5, 144, 0, 0, 0, 0, 0, 0
XKF3, 103344759, 0, 0.03, -0.04, 0, 0.76, 0.27, 0.04, 0, 0, 0, -5.75, 0, 0, 0.002178134
XKF5, 103344759, 0, 0, 0, 0, 0, 1.63, 1.17, 0, 0, 0.5, 0.0009608428, 0.01490404, 0.02126982
XKFS, 103344759, 0, 0, 0, 0, 0, 0, 1, 0, 1
XKQ, 103344759, 0, 0.7778549, 0.01358908, 0.0003059326, 0.6282969
XKF4, 103344759, 1, 0.03, 0.06, 0, 0.06, 0, 0.006674605, 3.441075, 0.3600506, 0, 48, 109375, 0, 0
XKY0, 103344759, 1, 346.1458, 14.3564, 215.9886, 287.9981, 359.8779, 71.7939, 143.8623, 0.1993682, 0.2005143, 0.2009503, 0.2000716, 0.1990955
XKY1, 103344759, 1, 0.06889698, 0.05599666, 0.04265456, 0.04728259, 0.06351334, -0.01771646, -0.007876053, -0.01708923, -0.03263557, -0.0330365
XKF1, 103344759, 1, 1.09, -0.73, 78.09, -0.0003710927, -0.07491735, -0.01605837, -0.02966375, 2.373158, 1.260584, -0.3341329, -0.02, -0.09, 0.11, 639.02
XKF2, 103344759, 1, -0.05, 0, 0, 0, 0, 400, -5, 144, 0, 0, 0, 0, 0, 0
XKF3, 103344759, 1, 0.02, -0.11, 0.01, 0.77, 0.23, 0.17, 0, 0, 0, -5.42, 0, 0.2239508, 0.002680463
XKFS, 103344759, 1, 0, 0, 0, 0, 0, 1, 0, 1
XKQ, 103344759, 1, 0.7765322, 0.01146351, 0.001032374, 0.6299725
AHR2, 103345599, 1.47, -3.21, 80.45, 639.96, 15.3676449, 75.1248761, 0.7629126, 0.02790804, -0.01310489, 0.645766
POS, 103345605, 15.3676516, 75.1248784, 639.47, 0.0295259, 0.4495259
MOTB, 103345610, 1, 1, 1, 0.04229945, 0, 2
RCIN, 103345616, 1102, 1927, 1102, 1927, 1403, 2000, 2000, 1000, 2000, 875, 875, 875, 875, 875
RCI2, 103345620, 875, 875, 0, 1
RCOU, 103345626, 1000, 1000, 1000, 1000, 0, 0, 0, 0, 0, 0, 0, 0, 0, 0
RCO2, 103345629, 0, 0, 0, 0
VIBE, 103345634, 0, 0.08713426, 0.05684386, 0.009324949, 0
VIBE, 103345634, 1, 0.1168323, 0.09036231, 0.07970326, 0
CTRL, 103345642, 0.237694, 0.0002127497, 0.2352245, 0.0001640155, 0.05688094
FILE, @ROMFS/hwdef.dat, 128, 64, ER "Holybro"\nAPJ_BOARD_ID 56\nFLASH_RESERVE_START_KB 128\nenv USE_
DCM, 103347204, 1.472854, -3.212415, 80.45176, 0.04141395, 0.0719066, 0, 0, 0
EAHR, 103347230, 0, 0, 0, 0, 0, 0, 0, 0, 0, 0
FILE, @ROMFS/hwdef.dat, 192, 64, ALT_RAM_MAP 1\nFLASH_SIZE_KB 2048\nenv OPTIMIZE -O2\nSERIAL_ORDER O
GPS, 103365178, 0, 3, 302708600, 2379, 13, 0.81, 15.3676445, 75.1248761, 636.08, 0.045, 48.71269, -0.081, 0, 1
GPA, 103365178, 0, 1.19, 1.79, 2.26, 0.39, 0, 1, 103348, 200, 558.07, 0, 0
IMU, 103365238, 0, -0.003213704, -0.01761788, -0.0001133983, -0.2571583, -0.1960452, -9.788743, 0, 0, 44.80676, 1, 1, 2022, 2022
IMU, 103365238, 1, 0.001522573, -0.00176261, 0.001463175, -0.282619, -0.1312859, -9.802896, 0, 0, 45, 1, 1, 1998, 2046
FILE, @ROMFS/hwdef.dat, 256, 64, TG1 UART7 UART5 USART1 UART8 USART2 USART3 OTG2\nPA11 OTG_FS_DM O
FILE, @ROMFS/hwdef.dat, 320, 64, TG1\nPA12 OTG_FS_DP OTG1\nPA9 VBUS INPUT OPENDRAIN\nPA13 JTMS-SWDIO
SURF, 103395300, 0, 2, 0, 0, 0.4232066
SURF, 103395310, 1, 2, 0, 0, 0.4232066
FILE, @ROMFS/hwdef.dat, 384, 64,  SWD\nPA14 JTCK-SWCLK SWD\nPE8  UART7_TX UART7\nPE7  UART7_RX UART7
IMU, 103405139, 0, -0.006055502, -0.0167569, -0.001292212, -0.1369864, -0.2796692, -9.789899, 0, 0, 44.80676, 1, 1, 2022, 2022
IMU, 103405139, 1, -0.003178747, 0.0007762483, -0.0008389176, -0.1218074, -0.2919418, -9.791201, 0, 0, 45, 1, 1, 1998, 2046
FILE, @ROMFS/hwdef.dat, 448, 64, \nPE9  UART7_RTS UART7 LOW PULLDOWN\nPE10 UART7_CTS UART7\nPC12 UAR
RAD, 103410024, 60, 0, 100, 94, 0, 0, 0
STAK, 103415112, 10, 60, 752, 224, UART7
FILE, @ROMFS/hwdef.dat, 512, 64, T5_TX UART5\nPD2 UART5_RX UART5\nPC8 UART5_RTS UART5 LOW PULLDOWN\n
FILE, @ROMFS/hwdef.dat, 576, 64, PC9 UART5_CTS UART5\nPB6  USART1_TX USART1\nPA10 USART1_RX USART1\n
FILE, @ROMFS/hwdef.dat, 640, 64, PE1 UART8_TX UART8\nPE0 UART8_RX UART8\nPD5 USART2_TX USART2\nPA3 U
POWR, 103445209, 4.970645, 0, 1, 1, 6
MCU, 103445209, 40.99404, 3.349098, 3.341935, 3.356292
BAT, 103445225, 0, 14.52563, 14.8682, 5.114235, 139.5816, 2.041553, 0, 0.06698471, 95, 1, 0
MAG, 103445237, 0, 45, -401, 140, 102, 25, 42, 0, 0, 0, 1, 103445236
MAG, 103445237, 1, 16, -394, 164, 32, 17, -32, 0, 0, 0, 1, 103445234
SURF, 103445255, 0, 2, 0, 0, 0.4246024
SURF, 103445264, 1, 2, 0, 0, 0.4246024
BARO, 103445283, 0, 0.4595337, 639.4895, 93676.88, 41.68, 0.2122307, 103445, 0, 35, 1
CTUN, 103445295, 0, 0, 0, 0.4229944, 0, 0.4545738, 0.45, NaN, 0, 0.03235387, 0, 3
DU32, 103445326, 7, 6349272
TERR, 103445385, 2, 15.3676514, 75.1248783, 100, 639.4476, 0.03235387, 0, 336, 4.462986
ATT, 103445433, -20.70459, 1.237668, 22.20738, -0.9473665, 77.87048, 77.87048, 3
ANG, 103444613, -20.70459, 1.237668, 22.20738, -0.9473665, 77.87048, 77.87048, 0.0025
RATE, 103444625, -100.9371, 0.07345802, -0.238008, 99.81967, 0.05653166, 0.2350164, 17.98766, 0.00277205, 0.056667, 4.438972, 0.09832382, 0, 0
PIDR, 103445449, -1.76163, 0.001282085, -1.762912, -0.2379932, 0, -1.485144E-05, 0, 0, 1, 0.2185688, 9
PIDP, 103445453, 1.742231, 0.0009866636, 1.741244, 0.2350679, 0, -5.150993E-05, 0, 0, 1, 0.2217346, 9
PIDY, 103445457, 0.3139988, 4.838139E-05, 0.3148166, 0.056667, 0, 0, 0, 0, 1, 0.02390991, 9
PIDA, 103445461, 4.438972, 4.438972, 0, 0, -422.9971, 0, 0, 0, 1, 115.2893, 13
XKF4, 103444713, 0, 0.02, 0.06, 0, 0.07, 0, 0.006680965, 3.235183, 0.4386742, 0, 48, 109375, 0, 0
XKY0, 103444713, 0, 180.0193, 15.03876, 215.9947, 287.9947, 359.9947, 71.99473, 143.9947, 0.2, 0.2, 0.2, 0.2, 0.2
XKY1, 103444713, 0, 0, 0, 0, 0, 0, 0, 0, 0, 0, 0
XKF1, 103444713, 0, 1.23, -0.94, 77.87, 0.005031825, -0.02025151, -0.03440217, -0.05121926, 2.350517, 1.307429, -0.4545738, -0.23, -1, 0.05, 639.02
XKF2, 103444713, 0, -0.02, 0, 0.01, 0, 0, 400, -5, 144, 0, 0, 0, 0, 0, 0
XKF3, 103444713, 0, 0.04, -0.02, 0.04, 0.77, 0.26, 0.03, 0, 0, 0, -6.28, 0, 0, 0.00227252
XKF5, 103444713, 0, 0, 0, 0, 0, 1.64, 1.17, 0, 0, 0.5, 0.001021599, 0.01980141, 0.02890325
XKFS, 103444713, 0, 0, 0, 0, 0, 0, 1, 0, 1
XKQ, 103444713, 0, 0.7777287, 0.01359611, 0.0003568858, 0.628453
XKT, 103444713, 0, 408, 0.002500002, 0.002500002, 0.01249194, 0.01250728, 0.01186839, 0.01285754, 0.01186839, 0.01285754
XKF4, 103444713, 1, 0.03, 0.06, 0, 0.06, 0, 0.006696363, 3.441075, 0.3600506, 0, 48, 109375, 0, 0
XKY0, 103444713, 1, 356.3889, 14.23404, 216.0029, 288.0532, 359.8834, 71.72787, 143.8018, 0.1988303, 0.2005546, 0.2015153, 0.2003781, 0.1987218
XKY1, 103444713, 1, 0.07625401, 0.06179853, 0.04773157, 0.05343371, 0.07108212, 0.001513067, 0.01161939, 0.001024551, -0.01564535, -0.01537546
XKF1, 103444713, 1, 1.1, -0.73, 78.12, -0.006550437, -0.06522169, -0.01694607, -0.04987808, 2.351385, 1.260908, -0.3393337, -0.02, -0.09, 0.11, 639.02
XKF2, 103444713, 1, -0.06, 0, 0, 0, 0, 400, -5, 144, 0, 0, 0, 0, 0, 0
XKF3, 103444713, 1, 0.03, -0.07, 0.06, 0.78, 0.22, 0.16, 0, 0, 0, -5.96, 0, 0.2389992, 0.002606028
XKFS, 103444713, 1, 0, 0, 0, 0, 0, 1, 0, 1
XKQ, 103444713, 1, 0.7763932, 0.01150455, 0.001079847, 0.6301429
XKT, 103444713, 1, 408, 0.002500002, 0.002500002, 0.01248537, 0.01250676, 0.01200618, 0.01300683, 0.0112365, 0.01319072
AHR2, 103445627, 1.48, -3.19, 80.49, 639.95, 15.3676445, 75.1248761, 0.7626542, 0.02789511, -0.01295817, 0.6460747
POS, 103445633, 15.3676514, 75.1248783, 639.48, 0.03457385, 0.4545738
MOTB, 103445638, 1, 1, 1, 0.04229945, 0, 2
RCIN, 103445644, 1102, 1927, 1102, 1927, 1403, 2000, 2000, 1000, 2000, 875, 875, 875, 875, 875
RCI2, 103445647, 875, 875, 0, 1
RCOU, 103445654, 1000, 1000, 1000, 1000, 0, 0, 0, 0, 0, 0, 0, 0, 0, 0
RCO2, 103445657, 0, 0, 0, 0
VIBE, 103445661, 0, 0.06384897, 0.07777027, 0.009400711, 0
VIBE, 103445661, 1, 0.0927451, 0.1125057, 0.07561091, 0
CTRL, 103445670, 0.2377271, 0.0002427032, 0.2351983, 0.000140593, 0.05684275
IMU, 103445680, 0, -0.002810304, -0.01655608, 0.0009362977, -0.2184269, -0.1874902, -9.784925, 0, 0, 44.80676, 1, 1, 2022, 2022
IMU, 103445680, 1, -0.000537595, -0.00136168, 0.001640058, -0.2397508, -0.1398873, -9.807956, 0, 0, 45, 1, 1, 1998, 2046
UART, 103445772, 1, 2889, 209
UART, 103445776, 2, 21, 0
UART, 103445782, 3, 0, 654
UART, 103445786, 100, 8388, 5084
DCM, 103447220, 1.481204, -3.198776, 80.4977, 0.0423465, 0.06942122, 0, 0, 0
EAHR, 103447238, 0, 0, 0, 0, 0, 0, 0, 0, 0, 0
FILE, @ROMFS/hwdef.dat, 704, 64, SART2_RX USART2\nPD8 USART3_TX USART3\nPD9 USART3_RX USART3\nPC6 US
FILE, @ROMFS/hwdef.dat, 768, 64, ART6_TX USART6\nPC7 USART6_RX USART6\nIOMCU_UART USART6\nPC5 BATT_V
FILE, @ROMFS/hwdef.dat, 832, 64, OLTAGE_SENS ADC1 SCALE(1)\nPC4 BATT_CURRENT_SENS ADC1 SCALE(1)\nPB
IMU, 103485022, 0, -0.00524272, -0.0174276, -0.00617984, -0.1764663, -0.2821411, -9.792713, 0, 0, 44.80676, 1, 1, 2022, 2022
IMU, 103485022, 1, -0.001322709, -0.001118414, -0.005357314, -0.1559967, -0.280716, -9.828488, 0, 0, 45, 1, 1, 1998, 2046
FILE, @ROMFS/hwdef.dat, 896, 64, 1 BATT2_VOLTAGE_SENS ADC1 SCALE(1)\nPA2 BATT2_CURRENT_SENS ADC1 S
SURF, 103495317, 0, 2, 0, 0, 0.4260659
SURF, 103495334, 1, 2, 0, 0, 0.4260659
FILE, @ROMFS/hwdef.dat, 960, 64, CALE(1)\ndefine HAL_BATT_VOLT_PIN 8\ndefine HAL_BATT_CURR_PIN 4\nde
STAK, 103515145, 11, 60, 752, 280, UART5
FILE, @ROMFS/hwdef.dat, 1024, 64, fine HAL_BATT_VOLT_SCALE 18.18\ndefine HAL_BATT_CURR_SCALE 36.36\n
IMU, 103525271, 0, -0.003755579, -0.01714323, 0.0008348668, -0.1563741, -0.175253, -9.789654, 0, 0, 44.80676, 1, 1, 2022, 2022
IMU, 103525271, 1, -0.00178908, -0.0002387145, 0.004175619, -0.1759651, -0.1475944, -9.801433, 0, 0, 45, 1, 1, 1998, 2046
FILE, @ROMFS/hwdef.dat, 1088, 64, PA4 VDD_5V_SENS  ADC1 SCALE(2)\nPA5 SPI1_SCK SPI1\nPA6 SPI1_MISO S
FILE, @ROMFS/hwdef.dat, 1152, 64, PI1\nPA7 SPI1_MOSI SPI1\nPC13 ICM42688_CS CS\nPC14 BMI055_G_CS CS\nP
POWR, 103545232, 4.968832, 0, 1, 1, 6
MCU, 103545232, 41.01392, 3.348958, 3.341374, 3.354456
BAT, 103545245, 0, 14.52696, 14.86922, 5.109596, 139.7236, 2.043615, 0, 0.06698471, 95, 1, 0
MAG, 103545257, 0, 35, -400, 134, 102, 25, 42, 0, 0, 0, 1, 103545255
MAG, 103545257, 1, 17, -394, 163, 32, 17, -32, 0, 0, 0, 1, 103545254
SURF, 103545277, 0, 2, 0, 0, 0.4275894
SURF, 103545286, 1, 2, 0, 0, 0.4275894
BARO, 103545305, 0, 0.4300537, 639.46, 93677.2, 41.68, -0.09292603, 103545, 0, 35, 1
CTUN, 103545317, 0, 0, 0, 0.4229944, 0, 0.4598875, 0.43, NaN, 0, 0.03302526, 0, 3
ATT, 103545380, -20.70459, 1.238373, 22.20739, -0.9449028, 77.88651, 77.88651, 3
ANG, 103544613, -20.70459, 1.238373, 22.20739, -0.9449028, 77.88651, 77.88651, 0.002495
RATE, 103544627, -100.9397, -0.04637976, -0.2375938, 99.80919, 0.05355626, 0.2350186, 17.99573, 0.221078, 0.05675104, 4.438972, 0.6374359, 0, 0
PIDR, 103545397, -1.76175, -0.0008094795, -1.760941, -0.237727, 0, 0.000133175, 0, 0, 1, 0.1977446, 9
PIDP, 103545401, 1.742017, 0.0009347331, 1.741082, 0.2350461, 0, -2.752425E-05, 0, 0, 1, 0.2006087, 9
PIDY, 103545405, 0.3140315, 0.003858539, 0.3152836, 0.05675104, 0, 0, 0, 0, 1, 0.02163187, 9
PIDA, 103545409, 4.438972, 4.438972, 0, 0, -422.9971, 0, 0, 0, 1, 115.2893, 13
XKF4, 103544722, 0, 0.02, 0.06, 0, 0.06, 0, 0.006760313, 3.235183, 0.4386742, 0, 48, 109375, 0, 0
XKY0, 103544722, 0, 179.9525, 15.03827, 215.9892, 287.9893, 359.9892, 71.98924, 143.9892, 0.2, 0.2, 0.2, 0.2, 0.2
XKY1, 103544722, 0, 0, 0, 0, 0, 0, 0, 0, 0, 0, 0
XKF1, 103544722, 0, 1.23, -0.94, 77.88, -0.0006113944, -0.01702447, -0.03554161, -0.06123421, 2.332556, 1.305711, -0.4598875, -0.23, -1, 0.05, 639.02
