FMT, 128, 89, FMT, BBnNZ, Type,Length,Name,Format,Columns
FMT, 119, 76, UNIT, QbZ, TimeUS,Id,Label
FMT, 118, 44, FMTU, QBNN, TimeUS,FmtType,UnitIds,MultIds
FMT, 120, 20, MULT, Qbd, TimeUS,Id,Mult
FMT, 32, 35, PARM, QNff, TimeUS,Name,Value,Default
FMT, 94, 51, GPS, QBBIHBcLLeffffB, TimeUS,I,Status,GMS,GWk,NSats,HDop,Lat,Lng,Alt,Spd,GCrs,VZ,Yaw,U
FMT, 95, 39, GPA, QBCCCCfBIHeHH, TimeUS,I,VDop,HAcc,VAcc,SAcc,YAcc,VV,SMS,Delta,AEl,RTCMFU,RTCMFD
FMT, 99, 22, UBX1, QBHBBHI, TimeUS,Instance,noisePerMS,jamInd,aPower,agcCnt,config
FMT, 100, 16, UBX2, QBbBbB, TimeUS,Instance,ofsI,magI,ofsQ,magQ
FMT, 96, 42, GRAW, QIHBBddfBbB, TimeUS,WkMS,Week,numSV,sv,cpMes,prMes,doMes,mesQI,cno,lli
FMT, 97, 24, GRXH, QdHbBB, TimeUS,rcvTime,week,leapS,numMeas,recStat
FMT, 98, 41, GRXS, QddfBBBHBBBBB, TimeUS,prMes,cpMes,doMes,gnss,sv,freq,lock,cno,prD,cpD,doD,trk
FMT, 101, 23, SBPH, QIII, TimeUS,CrcError,LastInject,IARhyp
FMT, 102, 67, SBRH, QQQQQQQQ, TimeUS,msg_flag,1,2,3,4,5,6
FMT, 103, 123, SBRM, QQQQQQQQQQQQQQQ, TimeUS,msg_flag,1,2,3,4,5,6,7,8,9,10,11,12,13
FMT, 104, 23, SBRE, QHIiBB, TimeUS,GWk,GMS,ns_residual,level,quality
FMT, 59, 75, MSG, QZ, TimeUS,Message
FMT, 60, 39, RCIN, QHHHHHHHHHHHHHH, TimeUS,C1,C2,C3,C4,C5,C6,C7,C8,C9,C10,C11,C12,C13,C14
FMT, 61, 18, RCI2, QHHHB, TimeUS,C15,C16,OMask,Flags
FMT, 62, 39, RCOU, QHHHHHHHHHHHHHH, TimeUS,C1,C2,C3,C4,C5,C6,C7,C8,C9,C10,C11,C12,C13,C14
FMT, 207, 19, RCO2, QHHHH, TimeUS,C15,C16,C17,C18
FMT, 208, 39, RCO3, QHHHHHHHHHHHHHH, TimeUS,C19,C20,C21,C22,C23,C24,C25,C26,C27,C28,C29,C30,C31,C32
FMT, 63, 19, RSSI, Qff, TimeUS,RXRSSI,RXLQ
FMT, 64, 43, BARO, QBfffcfIffB, TimeUS,I,Alt,AltAMSL,Press,Temp,CRt,SMS,Offset,GndTemp,Health
FMT, 65, 24, BARD, QBfff, TimeUS,I,DynPrX,DynPrY,DynPrZ
FMT, 66, 25, CANF, QBIBBBBBBBBB, TimeUS,Bus,Id,DLC,B0,B1,B2,B3,B4,B5,B6,B7
FMT, 67, 81, CAFD, QBIBQQQQQQQQ, TimeUS,Bus,Id,DLC,D0,D1,D2,D3,D4,D5,D6,D7
FMT, 196, 50, PL, QBBfffffffIIB, TimeUS,Heal,TAcq,pX,pY,vX,vY,mX,mY,mZ,LastMeasMS,EKFOutl,Est
FMT, 68, 24, POWR, QffHHB, TimeUS,Vcc,VServo,Flags,AccFlags,Safety
FMT, 69, 27, MCU, Qffff, TimeUS,MTemp,MVolt,MVmin,MVmax
FMT, 93, 46, CMD, QHHHffffLLfB, TimeUS,CTot,CNum,CId,Prm1,Prm2,Prm3,Prm4,Lat,Lng,Alt,Frame
FMT, 92, 46, MISE, QHHHffffLLfB, TimeUS,CTot,CNum,CId,Prm1,Prm2,Prm3,Prm4,Lat,Lng,Alt,Frame
FMT, 78, 48, MAVC, QBBBBBHffffiifBB, TimeUS,TS,TC,SS,SC,Fr,Cmd,P1,P2,P3,P4,X,Y,Z,Res,WL
FMT, 79, 20, RAD, QBBBBBHH, TimeUS,RSSI,RemRSSI,TxBuf,Noise,RemNoise,RxErrors,Fixed
FMT, 81, 46, CAM, QBHIHLLeeeccC, TimeUS,I,Img,GPSTime,GPSWeek,Lat,Lng,Alt,RelAlt,GPSAlt,R,P,Y
FMT, 82, 46, TRIG, QBHIHLLeeeccC, TimeUS,I,Img,GPSTime,GPSWeek,Lat,Lng,Alt,RelAlt,GPSAlt,R,P,Y
FMT, 83, 48, MNT, QBfffffffff, TimeUS,I,DRoll,Roll,DPitch,Pitch,DYawB,YawB,DYawE,YawE,Dist
FMT, 114, 41, ARSP, QBffcffBBffB, TimeUS,I,Airspeed,DiffPress,Temp,RawPress,Offset,U,H,Hp,TR,Pri
FMT, 88, 41, BAT, QBfffffcfBBB, TimeUS,Inst,Volt,VoltR,Curr,CurrTot,EnrgTot,Temp,Res,RemPct,H,SH
FMT, 89, 40, BCL, QBfHHHHHHHHHHHH, TimeUS,Instance,Volt,V1,V2,V3,V4,V5,V6,V7,V8,V9,V10,V11,V12
FMT, 113, 35, MAG, QBhhhhhhhhhBI, TimeUS,I,MagX,MagY,MagZ,OfsX,OfsY,OfsZ,MOX,MOY,MOZ,Health,S
FMT, 122, 14, MODE, QMBB, TimeUS,Mode,ModeNum,Rsn
FMT, 116, 17, RFND, QBCBBb, TimeUS,Instance,Dist,Stat,Orient,Quality
FMT, 117, 36, DMS, QIIIIBBBBBBBBB, TimeUS,N,Dp,RT,RS,Fa,Fmn,Fmx,Pa,Pmn,Pmx,Sa,Smn,Smx
FMT, 174, 41, BCN, QBBfffffff, TimeUS,Health,Cnt,D0,D1,D2,D3,PosX,PosY,PosZ
FMT, 175, 57, PRX, QBBfffffffffff, TimeUS,Layer,He,D0,D45,D90,D135,D180,D225,D270,D315,DUp,CAn,CDis
FMT, 176, 44, PRXR, QBffffffff, TimeUS,Layer,D0,D45,D90,D135,D180,D225,D270,D315
FMT, 179, 61, PM, QHHHIIHHIIIIIIQ, TimeUS,LR,NLon,NL,MaxT,Mem,Load,ErrL,InE,ErC,SPIC,I2CC,I2CI,Ex,R
FMT, 178, 29, SRTL, QBHHBfff, TimeUS,Active,NumPts,MaxPts,Action,N,E,D
FMT, 170, 48, OABR, QBBHHHBfLLiLLi, TimeUS,Type,Act,DYaw,Yaw,DP,RChg,Mar,DLt,DLg,DAlt,OLt,OLg,OAlt
FMT, 171, 31, OADJ, QBBBBLLLL, TimeUS,State,Err,CurrPoint,TotPoints,DLat,DLng,OALat,OALng
FMT, 172, 37, SA, QBffffffB, TimeUS,State,DVelX,DVelY,DVelZ,MVelX,MVelY,MVelZ,Back
FMT, 173, 21, OAVG, QBBLL, TimeUS,version,point_num,Lat,Lon
FMT, 77, 45, SIM, QccCfLLffff, TimeUS,Roll,Pitch,Yaw,Alt,Lat,Lng,Q1,Q2,Q3,Q4
FMT, 84, 38, TERR, QBLLHffHHf, TimeUS,Status,Lat,Lng,Spacing,TerrH,CHeight,Pending,Loaded,ROfs
FMT, 86, 40, ESC, QBffffcfcf, TimeUS,Instance,RPM,RawRPM,Volt,Curr,Temp,CTot,MotTemp,Err
FMT, 87, 15, EDT2, QBBBB, TimeUS,Instance,Stress,MaxStress,Status
FMT, 85, 46, CSRV, QBfffBfffffB, TimeUS,Id,Pos,Force,Speed,Pow,PosCmd,V,A,MotT,PCBT,Err
FMT, 105, 52, PIDR, QffffffffffB, TimeUS,Tar,Act,Err,P,I,D,FF,DFF,Dmod,SRate,Flags
FMT, 106, 52, PIDP, QffffffffffB, TimeUS,Tar,Act,Err,P,I,D,FF,DFF,Dmod,SRate,Flags
FMT, 107, 52, PIDY, QffffffffffB, TimeUS,Tar,Act,Err,P,I,D,FF,DFF,Dmod,SRate,Flags
FMT, 108, 52, PIDA, QffffffffffB, TimeUS,Tar,Act,Err,P,I,D,FF,DFF,Dmod,SRate,Flags
FMT, 109, 52, PIDS, QffffffffffB, TimeUS,Tar,Act,Err,P,I,D,FF,DFF,Dmod,SRate,Flags
FMT, 110, 52, PIDN, QffffffffffB, TimeUS,Tar,Act,Err,P,I,D,FF,DFF,Dmod,SRate,Flags
FMT, 111, 52, PIDE, QffffffffffB, TimeUS,Tar,Act,Err,P,I,D,FF,DFF,Dmod,SRate,Flags
FMT, 112, 56, DSTL, QBfLLeccfeffff, TimeUS,Stg,THdg,Lat,Lng,Alt,XT,Travel,L1I,Loiter,Des,P,I,D
FMT, 161, 32, ACC, QBQfff, TimeUS,I,SampleUS,AccX,AccY,AccZ
FMT, 162, 32, GYR, QBQfff, TimeUS,I,SampleUS,GyrX,GyrY,GyrZ
FMT, 163, 54, IMU, QBffffffIIfBBHH, TimeUS,I,GyrX,GyrY,GyrZ,AccX,AccY,AccZ,EG,EA,T,GH,AH,GHz,AHz
FMT, 166, 28, VIBE, QBfffI, TimeUS,IMU,VibeX,VibeY,VibeZ,Clip
FMT, 164, 31, ISBH, QHBBHHQf, TimeUS,N,type,instance,mul,smp_cnt,SampleUS,smp_rate
FMT, 165, 207, ISBD, QHHaaa, TimeUS,N,seqno,x,y,z
FMT, 129, 15, RFRH, QI, TimeUS,TF
FMT, 130, 5, RFRF, BB, FTypes,Slow
FMT, 138, 38, RFRN, IIIfIfffBBB, HLat,HLon,HAlt,E2T,AM,TX,TY,TZ,VC,EKT,Flags
FMT, 131, 4, REV2, B, Event
FMT, 132, 15, RSO2, III, Lat,Lon,Alt
FMT, 133, 11, RWA2, ff, Airspeed,uncertainty
FMT, 134, 4, REV3, B, Event
FMT, 135, 15, RSO3, III, Lat,Lon,Alt
FMT, 136, 11, RWA3, ff, Airspeed,Uncertainty
FMT, 137, 16, REY3, ffIB, yawangle,yawangleerr,timestamp_ms,type
FMT, 139, 13, RISH, HBBfBB, LR,PG,PA,LD,AC,GC
FMT, 140, 37, RISI, ffffffffBB, DVX,DVY,DVZ,DAX,DAY,DAZ,DVDT,DADT,Flags,I
FMT, 148, 5, RASH, BB, Primary,NumInst
FMT, 149, 14, RASI, fIBBB, pd,UpdateMS,H,Use,I
FMT, 141, 5, RBRH, BB, Primary,NumInst
FMT, 142, 13, RBRI, IfBB, LastUpdate,Alt,H,I
FMT, 143, 8, RRNH, hhB, GCl,MaxD,NumSensors
FMT, 144, 20, RRNI, fffHBBB, PX,PY,PZ,Dist,Orient,Status,I
FMT, 145, 5, RGPH, BB, NumInst,Primary
FMT, 146, 23, RGPI, ffffBBBB, OX,OY,OZ,Lg,Flags,Stat,NSats,I
FMT, 147, 58, RGPJ, IffffffIiiiffHB, TS,VX,VY,VZ,SA,Y,YA,YT,Lat,Lon,Alt,HA,VA,HD,I
FMT, 153, 14, RMGH, fBBBBBBB, Dec,Avail,NumInst,AutoDec,NumEna,LOE,C,FUsable
FMT, 154, 35, RMGI, IffffffBBBB, LU,OX,OY,OZ,FX,FY,FZ,UFY,H,HSF,I
FMT, 150, 33, RBCH, ffffiiiBB, PX,PY,PZ,AE,OLat,OLng,OAlt,Flags,NumInst
FMT, 151, 25, RBCI, IffffBB, LU,PX,PY,PZ,Dist,H,I
FMT, 152, 21, RVOH, fffIBB, OX,OY,OZ,Del,H,Ena
FMT, 155, 40, ROFH, ffffIffffB, FX,FY,GX,GY,Tms,PX,PY,PZ,HgtOvr,Qual
FMT, 156, 49, REPH, fffffffffIIH, PX,PY,PZ,Q1,Q2,Q3,Q4,PEr,AEr,TS,RT,D
FMT, 157, 19, RSLL, IIfI, Lat,Lng,PosAccSD,TS
FMT, 158, 25, REVH, ffffIH, VX,VY,VZ,Er,TS,D
FMT, 159, 31, RWOH, ffIffff, DA,DT,TS,PX,PY,PZ,R
FMT, 160, 53, RBOH, ffffffffIfffH, Q,DPX,DPY,DPZ,DAX,DAY,DAZ,DT,TS,OX,OY,OZ,D
FMT, 43, 37, XKF0, QBBccCCcccccccc, TimeUS,C,ID,rng,innov,SIV,TR,BPN,BPE,BPD,OFH,OFL,OFN,OFE,OFD
FMT, 44, 56, XKF1, QBccCfffffffccce, TimeUS,C,Roll,Pitch,Yaw,VN,VE,VD,dPD,PN,PE,PD,GX,GY,GZ,OH
FMT, 45, 46, XKF2, QBccccchhhhhhfff, TimeUS,C,AX,AY,AZ,VWN,VWE,MN,ME,MD,MX,MY,MZ,IDX,IDY,IS
FMT, 46, 42, XKF3, QBcccccchhhccff, TimeUS,C,IVN,IVE,IVD,IPN,IPE,IPD,IMX,IMY,IMZ,IYAW,IVT,RErr,ErSc
FMT, 47, 44, XKF4, QBcccccfffHBIHb, TimeUS,C,SV,SP,SH,SM,SVT,errRP,OFN,OFE,FS,TS,SS,GPS,PI
FMT, 48, 41, XKF5, QBBhhhcccCCfff, TimeUS,C,NI,FIX,FIY,AFI,HAGL,offset,RI,rng,Herr,eAng,eVel,ePos
FMT, 49, 36, XKFD, QBffffff, TimeUS,C,IX,IY,IZ,IVX,IVY,IVZ
FMT, 50, 29, XKFM, QBBffff, TimeUS,C,OGNM,GLR,ALR,GDR,ADR
FMT, 51, 20, XKFS, QBBBBBBBBB, TimeUS,C,MI,BI,GI,AI,SS,GPS_GTA,GPS_CHK_WAIT,MAG_FUSION
FMT, 52, 28, XKQ, QBffff, TimeUS,C,Q1,Q2,Q3,Q4
FMT, 53, 48, XKT, QBIffffffff, TimeUS,C,Cnt,IMUMin,IMUMax,EKFMin,EKFMax,AngMin,AngMax,VMin,VMax
FMT, 54, 20, XKTV, QBff, TimeUS,C,TVS,TVD
FMT, 55, 60, XKV1, QBffffffffffff, TimeUS,C,V00,V01,V02,V03,V04,V05,V06,V07,V08,V09,V10,V11
FMT, 56, 60, XKV2, QBffffffffffff, TimeUS,C,V12,V13,V14,V15,V16,V17,V18,V19,V20,V21,V22,V23
FMT, 57, 60, XKY0, QBffffffffffff, TimeUS,C,YC,YCS,Y0,Y1,Y2,Y3,Y4,W0,W1,W2,W3,W4
FMT, 58, 52, XKY1, QBffffffffff, TimeUS,C,IVN0,IVN1,IVN2,IVN3,IVN4,IVE0,IVE1,IVE2,IVE3,IVE4
FMT, 41, 60, NKY0, QBffffffffffff, TimeUS,C,YC,YCS,Y0,Y1,Y2,Y3,Y4,W0,W1,W2,W3,W4
FMT, 42, 52, NKY1, QBffffffffff, TimeUS,C,IVN0,IVN1,IVN2,IVN3,IVN4,IVE0,IVE1,IVE2,IVE3,IVE4
FMT, 70, 45, AHR2, QccCfLLffff, TimeUS,Roll,Pitch,Yaw,Alt,Lat,Lng,Q1,Q2,Q3,Q4
FMT, 71, 19, AOA, Qff, TimeUS,AOA,SSA
FMT, 72, 36, ATT, QffffffB, TimeUS,DesRoll,Roll,DesPitch,Pitch,DesYaw,Yaw,AEKF
FMT, 73, 24, ORGN, QBLLe, TimeUS,Type,Lat,Lng,Alt
FMT, 74, 31, POS, QLLfff, TimeUS,Lat,Lng,Alt,RelHomeAlt,RelOriginAlt
FMT, 76, 35, ATSC, Qffffff, TimeUS,AngPScX,AngPScY,AngPScZ,PDScX,PDScY,PDScZ
FMT, 204, 51, VSTB, Qffffffffff, TimeUS,GyrX,GyrY,GyrZ,AccX,AccY,AccZ,Q1,Q2,Q3,Q4
FMT, 90, 38, MON, QIbIHHHHHII, TimeUS,Dly,Tsk,IErr,IErrCnt,IErrLn,MM,MC,SmLn,SPICnt,I2CCnt
FMT, 91, 47, WDOG, QbIHHHHHHHIBIIn, TimeUS,Tsk,IE,IEC,IEL,MvMsg,MvCmd,SmLn,FL,FT,FA,FP,ICSR,LR,TN
FMT, 210, 20, UART, QBff, TimeUS,I,Tx,Rx
FMT, 115, 21, RPM, QBffB, TimeUS,I,RPM,Qual,H
FMT, 209, 27, FNCE, QBBBLLBf, TimeUS,Tot,Seq,Type,Lat,Lng,Count,Radius
FMT, 177, 33, DSF, QIHIIII, TimeUS,Dp,Blk,Bytes,FMn,FMx,FAv
FMT, 121, 24, RALY, QBBLLhB, TimeUS,Tot,Seq,Lat,Lng,Alt,Flags
FMT, 183, 23, MAV, QBHHHBHH, TimeUS,chan,txp,rxp,rxdp,flags,ss,tf
FMT, 167, 43, VISO, Qffffffff, TimeUS,dt,AngDX,AngDY,AngDZ,PosDX,PosDY,PosDZ,conf
FMT, 168, 58, VISP, QQIffffffffBBb, TimeUS,RTimeUS,CTimeMS,PX,PY,PZ,R,P,Y,PErr,AErr,Rst,Ign,Q
FMT, 169, 42, VISV, QQIffffBBb, TimeUS,RTimeUS,CTimeMS,VX,VY,VZ,VErr,Rst,Ign,Q
FMT, 180, 28, OF, QBffff, TimeUS,Qual,flowX,flowY,bodyX,bodyY
FMT, 182, 21, WENC, Qfbfb, TimeUS,Dist0,Qual0,Dist1,Qual1
FMT, 185, 35, ADSB, QIiiiHHhH, TimeUS,ICAO_address,Lat,Lng,Alt,Heading,Hor_vel,Ver_vel,Squark
FMT, 181, 12, EV, QB, TimeUS,Id
FMT, 186, 18, ARM, QBIBB, TimeUS,ArmState,ArmChecks,Forced,Method
FMT, 184, 13, ERR, QBB, TimeUS,Subsys,ECode
FMT, 187, 35, WINC, QBBBBBfffHfb, TimeUS,Heal,ThEnd,Mov,Clut,Mode,DLen,Len,DRate,Tens,Vcc,Temp
FMT, 188, 47, PSCN, Qfffffffff, TimeUS,DPN,TPN,PN,DVN,TVN,VN,DAN,TAN,AN
FMT, 189, 47, PSCE, Qfffffffff, TimeUS,DPE,TPE,PE,DVE,TVE,VE,DAE,TAE,AE
FMT, 190, 47, PSCD, Qfffffffff, TimeUS,DPD,TPD,PD,DVD,TVD,VD,DAD,TAD,AD
FMT, 191, 35, PSON, Qffffff, TimeUS,TPON,PON,TVON,VON,TAON,AON
FMT, 192, 35, PSOE, Qffffff, TimeUS,TPOE,POE,TVOE,VOE,TAOE,AOE
FMT, 193, 35, PSOD, Qffffff, TimeUS,TPOD,POD,TVOD,VOD,TAOD,AOD
FMT, 194, 35, PSOT, Qffffff, TimeUS,TPOT,POT,TVOT,VOT,TAOT,AOT
FMT, 75, 63, RATE, Qfffffffffffff, TimeUS,RDes,R,ROut,PDes,P,POut,YDes,Y,YOut,ADes,A,AOut,AOutSlew
FMT, 195, 39, ANG, Qfffffff, TimeUS,DesRoll,Roll,DesPitch,Pitch,DesYaw,Yaw,Dt
FMT, 201, 33, STAK, QBBHHN, TimeUS,Id,Pri,Total,Free,Name
FMT, 202, 88, FILE, NIBZ, FileName,Offset,Length,Data
FMT, 197, 78, AISR, QBBBZ, TimeUS,num,total,ID,payload
FMT, 198, 41, AIS1, QBBIBbHbLLHHBBbI, US,typ,rep,mmsi,nav,rot,sog,pos,lon,lat,cog,hed,sec,man,raim,rad
FMT, 199, 38, AIS4, QBIHBBBBBBLLBBI, US,rep,mmsi,year,mth,day,h,m,s,fix,lon,lat,epfd,raim,rad
FMT, 200, 175, AIS5, QBIBINZBHHBBBBZB, US,rep,mmsi,ver,imo,cal,nam,typ,bow,stn,prt,str,fix,dght,dst,dte
FMT, 203, 39, SCR, QNIii, TimeUS,Name,Runtime,Total_mem,Run_mem
FMT, 206, 90, VER, QBHBBBBIZHBB, TimeUS,BT,BST,Maj,Min,Pat,FWT,GH,FWS,APJ,BU,FV
FMT, 205, 32, MOTB, QfffffB, TimeUS,LiftMax,BatVolt,ThLimit,ThrAvMx,ThrOut,FailFlags
FMT, 6, 24, PTUN, QBfff, TimeUS,Param,TunVal,TunMin,TunMax
FMT, 0, 55, CTUN, Qffffffefffhh, TimeUS,ThI,ABst,ThO,ThH,DAlt,Alt,BAlt,DSAlt,SAlt,TAlt,DCRt,CRt
FMT, 1, 14, D16, QBh, TimeUS,Id,Value
FMT, 2, 14, DU16, QBH, TimeUS,Id,Value
FMT, 3, 16, D32, QBi, TimeUS,Id,Value
FMT, 4, 16, DU32, QBI, TimeUS,Id,Value
FMT, 5, 16, DFLT, QBf, TimeUS,Id,Value
FMT, 9, 47, SIDD, Qfffffffff, TimeUS,Time,Targ,F,Gx,Gy,Gz,Ax,Ay,Az
FMT, 10, 40, SIDS, QBfffffff, TimeUS,Ax,Mag,FSt,FSp,TFin,TC,TR,TFout
FMT, 8, 49, GUIP, QBfffbffffff, TimeUS,Type,pX,pY,pZ,Terrain,vX,vY,vZ,aX,aY,aZ
FMT, 11, 44, GUIA, QBffffffff, TimeUS,Type,Roll,Pitch,Yaw,RollRt,PitchRt,YawRt,Thrust,ClimbRt
IMU, 285294372, 0, -0.01342524, -0.01619911, -0.002165466, -0.2643988, 0.2164442, -9.784731, 0, 0, 45.28986, 1, 1, 2022, 2022
IMU, 285294372, 1, 0.0002312499, -0.0002492236, -0.003490302, -0.1633843, 0.1115161, -9.807852, 0, 0, 45, 1, 1, 1999, 2045
FMT, 249, 25, SURF, QBBfff, TimeUS,I,St,D,FD,TO
SURF, 285324622, 0, 2, 0, 0, 1.176385
SURF, 285324650, 1, 2, 0, 0, 1.176385
IMU, 285334361, 0, -0.01310954, -0.01609519, -0.001868903, -0.3123511, 0.2330337, -9.784441, 0, 0, 45.28986, 1, 1, 2022, 2022
IMU, 285334361, 1, -0.0004995185, 0.0001149767, -0.001560348, -0.2391867, 0.08888462, -9.77656, 0, 0, 45, 1, 1, 1999, 2045
MSG, 285369717, ArduCopter V4.6.2 (1ebd4d99)
MSG, 285369724, ChibiOS: 88b84600
VER, 285369729, 10, 5009, 4, 6, 2, 255, 515722649, ArduCopter V4.6.2 (1ebd4d99), 56, 2, 2
MSG, 285369742, Pixhawk6C 003D0048 3133510F 31343630
MSG, 285369750, Param space used: 1099/5376
MSG, 285369757, RC Protocol: SBUS
MSG, 285369767, RCOut: PWM:1-16
MSG, 285369772, New mission
CMD, 285371841, 4, 0, 16, 0, 0, 0, 0, 0, 0, 0, 0
CMD, 285371852, 4, 1, 22, 1, 0, 0, 0, 0, 0, 10, 3
CMD, 285371859, 4, 2, 16, 10, 0, 0, 0, 15.367361, 75.1254623, 10, 3
CMD, 285371866, 4, 3, 20, 0, 0, 0, 0, 0, 0, 0, 0
MSG, 285371872, New rally
MSG, 285371877, New fence
FNCE, 285371885, 9, 0, 98, 15.3690042, 75.1262846, 9, 0
FNCE, 285371892, 9, 1, 98, 15.3692266, 75.1261371, 9, 0
FNCE, 285371897, 9, 2, 98, 15.3694542, 75.1260352, 9, 0
FNCE, 285371902, 9, 3, 98, 15.3695654, 75.1262176, 9, 0
FNCE, 285371907, 9, 4, 98, 15.3696611, 75.1264134, 9, 0
FNCE, 285371937, 9, 5, 98, 15.3695059, 75.1265421, 9, 0
FNCE, 285371969, 9, 6, 98, 15.3693378, 75.1266601, 9, 0
FNCE, 285371975, 9, 7, 98, 15.3692369, 75.1267486, 9, 0
FNCE, 285371980, 9, 8, 98, 15.3690662, 75.1265341, 9, 0
MSG, 285371989, Frame: QUAD/X
MODE, 285371994, Stabilize, 0, 1
MSG, 285372003, GPS 1: probing for u-blox at 230400 baud
MSG, 285372012, u-blox 1 HW: 00190000 SW: EXT CORE 4.04 (7f89f7)
POWR, 285374515, 4.951108, 5.023736, 1, 1, 6
MCU, 285374515, 35.12922, 3.348254, 3.341935, 3.357565
BAT, 285374528, 0, 15.71977, 15.94302, 0.754136, 72.30293, 1.144479, 0, 0.2960314, 97, 1, 0
MAG, 285374540, 0, -463, 52, 165, 31, 0, -44, 0, 0, 0, 1, 285374537
MAG, 285374540, 1, -634, -282, 691, 132, -200, 136, 0, 0, 0, 1, 285374539
SURF, 285374565, 0, 2, 0, 0, 1.115591
SURF, 285374574, 1, 2, 0, 0, 1.115591
BARO, 285374593, 0, 0.1234741, 0.1234741, 94030.76, 34.51, -0.4667855, 285374, 0, 34.49411, 1
CTUN, 285374606, 0, 0, 0, 0.5435489, 0, -0.08932711, 0.12, NaN, 0, 25.80811, 0, -1
ATT, 285374663, -20.70458, 3.403242, 22.20739, -2.300958, 186.1979, 186.2417, 3
ANG, 285373896, -20.70458, 3.404718, 22.20739, -2.299658, 186.1979, 186.1979, 0.0025
RATE, 285373908, -110.3839, 0.0228354, -0.2601125, 106.2212, -0.03000513, 0.2503202, 15.56987, -0.01306486, 0.0489861, -0.4629135, 1.126289, 0, 0
PIDR, 285374680, -1.926528, 0.000398553, -1.926927, -0.2601351, 0, 2.263308E-05, 0, 0, 1, 0.3531415, 9
PIDP, 285374684, 1.853901, -0.0005236883, 1.854425, 0.2503474, 0, -2.721973E-05, 0, 0, 1, 0.3916626, 9
PIDY, 285374688, 0.2717281, -0.0002280248, 0.272145, 0.0489861, 0, 0, 0, 0, 1, 0.02035283, 9
PIDA, 285374705, -0.4629135, -0.4629135, 0, 0, -543.5499, 0, 0, 0, 1, 0, 13
XKF4, 285374071, 0, 0, 0, 0, 0, 0, 0.007748582, 0, 0, 0, 50, 67751, 7, 0
XKF1, 285374071, 0, 3.4, -2.3, 186.24, -0.002652993, -0.01180248, 0.01255271, 0.1389496, 0, 0, 0.08932712, -0.78, -0.88, -0.08, 0
XKF2, 285374071, 0, 0, 0, 0, 0, 0, 482, 0, 91, 0, 0, 0, 0, 0, 0
XKF3, 285374071, 0, 0, 0, 0, 0, -0.01, -0.11, 0, 0, 0, 0.16, 0, 0, 3.084458E-05
XKF5, 285374071, 0, 0, 0, 0, 0, 0.05, 0.06, 0, 0, 0.5, 2.310276E-05, 0.00128365, 0.072526
XKFS, 285374071, 0, 0, 0, 0, 0, 0, 0, 0, 1
XKQ, 285374071, 0, -0.05427802, 0.01424814, -0.01065674, 0.9983673
XKF4, 285374071, 1, 0, 0, 0, 0, 0, 0.007731555, 0, 0, 0, 50, 67751, 7, 0
XKF1, 285374071, 1, 4.08, -1.8, 185.95, -0.01262349, 0.008672748, 0.01795471, 0.1481745, 0, 0, 0.09105442, -0.07, 0.02, -0.08, 0
XKF2, 285374071, 1, 0, 0, 0, 0, 0, 480, 0, 97, 0, 0, 0, 0, 0, 0
XKF3, 285374071, 1, 0, 0, 0, 0, 0.01, -0.1, 0, 0, 0, 0.1, 0, 0.000297312, 2.904978E-05
XKFS, 285374071, 1, 0, 0, 0, 0, 0, 0, 0, 1
XKQ, 285374071, 1, -0.05188601, 0.009561653, -0.004938852, 0.998595
AHR2, 285374807, 3.36, -1.95, 186.31, -0.12, 15.3693427, 75.1235101, -0.05583684, 0.01539423, 0.03028231, 0.9978618
POS, 285374819, 15.3693425, 75.12351, 672.11, 0.1234741, -0.08932712
MOTB, 285374824, 1, 1, 1, 0.05435489, 0, 2
RCIN, 285374830, 1102, 1927, 1102, 1927, 1102, 1000, 1000, 875, 1000, 1495, 1000, 1000, 875, 875
RCI2, 285374833, 875, 875, 0, 1
RCOU, 285374840, 1000, 1000, 1000, 1000, 0, 0, 0, 0, 1495, 0, 0, 0, 0, 0
RCO2, 285374843, 0, 0, 0, 0
VIBE, 285374847, 0, 0.04122022, 0.03015438, 0.024743, 0
VIBE, 285374847, 1, 0.07475092, 0.06926464, 0.07894456, 0
FMT, 246, 31, CTRL, Qfffff, TimeUS,RMSRollP,RMSRollD,RMSPitchP,RMSPitchD,RMSYaw
CTRL, 285374856, 0.2600697, 0.0002974625, 0.250274, 0.0002651496, 0.04895286
IMU, 285374884, 0, -0.01331158, -0.01604218, -0.001702629, -0.2117952, 0.2208595, -9.814453, 0, 0, 44.80676, 1, 1, 2022, 2022
IMU, 285374884, 1, -0.0005459001, -0.0008809914, -0.002518062, -0.1162627, 0.07395193, -9.800704, 0, 0, 45, 1, 1, 1999, 2045
FMT, 252, 43, DCM, Qffffffff, TimeUS,Roll,Pitch,Yaw,ErrRP,ErrYaw,VWN,VWE,VWD
DCM, 285376559, 3.36961, -1.958149, 186.3177, 0.08524626, 0.003464129, 0, 0, 0
FMT, 251, 51, EAHR, QffffffLLfI, TimeUS,Roll,Pitch,Yaw,VN,VE,VD,Lat,Lon,Alt,Flg
EAHR, 285376596, 0, 0, 0, 0, 0, 0, 0, 0, 0, 0
FILE, @SYS/uarts.txt, 0, 64, UARTV1\nSERIAL0 OTG1  TX =       0 RX =       0 TXBD=     0 RXBD=
GPS, 285414445, 0, 3, 100584600, 2381, 6, 1.26, 15.3693425, 75.1235105, 672.04, 0.056, 108.9834, -0.217, 0, 1
GPA, 285414445, 0, 3.75, 12.38, 21.56, 1.33, 0, 1, 285402, 200, 594.03, 0, 0
IMU, 285414565, 0, -0.01286218, -0.01603181, -0.002942445, -0.2737831, 0.230034, -9.806559, 0, 0, 44.80676, 1, 1, 2022, 2022
IMU, 285414565, 1, -0.00094684, 0.0008923744, -0.0028117, -0.2027322, 0.1164004, -9.835009, 0, 0, 45, 1, 1, 1999, 2045
FILE, @SYS/uarts.txt, 64, 64,      0 FE=0 OE=0 NE=0 FlowCtrl=0\nSERIAL1 UART7 TX*=  357560 RX*=
SURF, 285424636, 0, 2, 0, 0, 1.056754
SURF, 285424646, 1, 2, 0, 0, 1.056754
RAD, 285429576, 64, 0, 100, 98, 0, 0, 0
FILE, @SYS/uarts.txt, 128, 64,    63238 TXBD= 12564 RXBD=  2222 FE=0 OE=0 NE=0 FlowCtrl=0\nSERIA
FILE, @SYS/uarts.txt, 192, 64, L2 UART5 TX*=    7006 RX*=       0 TXBD=   246 RXBD=     0 FE=0 
IMU, 285454521, 0, -0.01401369, -0.01555884, -0.0007671908, -0.2798144, 0.2246565, -9.778188, 0, 0, 44.80676, 1, 1, 2022, 2022
IMU, 285454521, 1, -0.0009498575, -0.0002378346, -0.001334256, -0.1950177, 0.09915424, -9.795039, 0, 0, 45, 1, 1, 1999, 2045
STAK, 285455674, 0, 182, 7168, 4176, ArduCopter
FILE, @SYS/uarts.txt, 256, 64, OE=0 NE=0 FlowCtrl=0\nSERIAL3 UART1 TX*=    2510 RX*=  190722 TXB
FMT, 254, 35, IOMC, QHHIIIII, TimeUS,RSErr,Mem,TS,NPkt,Nerr,Nerr2,NDel
IOMC, 285459607, 0, 12896, 285495, 139142, 0, 0, 0
FILE, @SYS/uarts.txt, 320, 64, D=    88 RXBD=  6701 FE=137 OE=0 NE=167 FlowCtrl=0\nSERIAL4 UART8
POWR, 285474534, 4.949396, 5.021318, 1, 1, 6
MCU, 285474534, 35.08946, 3.348676, 3.340954, 3.354738
BAT, 285474550, 0, 15.73771, 15.96552, 0.7695153, 72.32431, 1.144816, 0, 0.2960314, 97, 1, 0
MAG, 285474562, 0, -465, 53, 163, 31, 0, -44, 0, 0, 0, 1, 285474559
MAG, 285474562, 1, -639, -282, 710, 132, -200, 136, 0, 0, 0, 1, 285474560
SURF, 285474579, 0, 2, 0, 0, 0.9999816
SURF, 285474588, 1, 2, 0, 0, 0.9999816
BARO, 285474608, 0, -0.02355957, -0.02355957, 94032.42, 34.51, 0.01110077, 285474, 0, 34.49411, 1
CTUN, 285474620, 0, 0, 0, 0.5435489, 0, -0.1189067, -0.02, NaN, 0, 25.73737, 0, -1
ATT, 285474708, -20.70459, 3.404793, 22.20739, -2.301469, 186.1967, 186.2405, 3
ANG, 285473899, -20.70459, 3.406271, 22.20739, -2.300168, 186.1967, 186.1967, 0.002503
RATE, 285473913, -110.3906, -0.005396276, -0.2600947, 106.2239, -0.002879885, 0.250263, 15.58254, 0.08875161, 0.04892159, -0.4629135, 0.6955147, 0, 0
PIDR, 285474725, -1.926704, -9.418279E-05, -1.92661, -0.2600923, 0, -2.339777E-06, 0, 0, 1, 0.3194948, 9
PIDP, 285474747, 1.853975, -5.026348E-05, 1.854025, 0.2502934, 0, -3.036275E-05, 0, 0, 1, 0.3543456, 9
PIDY, 285474751, 0.2718966, 0.001549008, 0.2717866, 0.04892159, 0, 0, 0, 0, 1, 0.01841365, 9
PIDA, 285474755, -0.4629135, -0.4629135, 0, 0, -543.5499, 0, 0, 0, 1, 0, 13
XKF4, 285474065, 0, 0, 0, 0, 0, 0, 0.007824854, 0, 0, 0, 50, 67751, 7, 0
XKF1, 285474065, 0, 3.4, -2.3, 186.24, -0.002431765, -0.01206833, 0.01291743, 0.06003721, 0, 0, 0.1189067, -0.78, -0.88, -0.08, 0
XKF2, 285474065, 0, 0, 0, 0, 0, 0, 482, 0, 91, 0, 0, 0, 0, 0, 0
XKF3, 285474065, 0, 0, 0, 0, 0, -0.01, 0.13, 0, 0, 0, 0.15, 0, 0, 4.484927E-05
XKF5, 285474065, 0, 0, 0, 0, 0, 0.05, 0.06, 0, 0, 0.5, 2.498287E-05, 0.001484228, 0.1047257
XKFS, 285474065, 0, 0, 0, 0, 0, 0, 0, 0, 1
XKQ, 285474065, 0, -0.05426761, 0.01425175, -0.01064313, 0.998368
XKF4, 285474065, 1, 0, 0, 0, 0, 0, 0.007807779, 0, 0, 0, 50, 67751, 7, 0
XKF1, 285474065, 1, 4.09, -1.8, 185.95, -0.01187633, 0.008599273, 0.01777961, 0.06654222, 0, 0, 0.1208358, -0.07, 0.02, -0.08, 0
XKF2, 285474065, 1, 0, 0, 0, 0, 0, 480, 0, 97, 0, 0, 0, 0, 0, 0
XKF3, 285474065, 1, 0, 0, 0, -0.01, 0.01, 0.13, 0, 0, 0, 0.08, 0, 0.0003902779, 4.734759E-05
XKFS, 285474065, 1, 0, 0, 0, 0, 0, 0, 0, 1
XKQ, 285474065, 1, -0.05185663, 0.009577471, -0.004906025, 0.9985965
AHR2, 285474829, 3.4, -2.05, 186.31, 0.12, 15.3693425, 75.1235105, -0.05583927, 0.01629816, 0.03066467, 0.9978357
POS, 285474834, 15.3693425, 75.1235105, 672.04, -0.02355957, -0.1189067
MOTB, 285474839, 1, 1, 1, 0.05435489, 0, 2
RCIN, 285474845, 1102, 1927, 1102, 1927, 1102, 1000, 1000, 875, 1000, 1495, 1000, 1000, 875, 875
RCI2, 285474849, 875, 875, 0, 1
RCOU, 285474855, 1000, 1000, 1000, 1000, 0, 0, 0, 0, 1495, 0, 0, 0, 0, 0
RCO2, 285474858, 0, 0, 0, 0
VIBE, 285474863, 0, 0.02752975, 0.02186413, 0.0226738, 0
VIBE, 285474863, 1, 0.06396743, 0.06128226, 0.07669961, 0
CTRL, 285474871, 0.2600922, 0.0002543652, 0.2502826, 0.0002224843, 0.04896494
DCM, 285476557, 3.407716, -2.060463, 186.3146, 0.0798583, 0.003402323, 0, 0, 0
EAHR, 285476575, 0, 0, 0, 0, 0, 0, 0, 0, 0, 0
FILE, @SYS/uarts.txt, 384, 64,  TX*=       0 RX*=       0 TXBD=     0 RXBD=     0 FE=0 OE=0 NE=
IMU, 285494367, 0, -0.01464487, -0.01593057, -0.0005068235, -0.2593755, 0.2290373, -9.800674, 0, 0, 44.80676, 1, 1, 2022, 2022
IMU, 285494367, 1, -0.000977119, 0.002170878, -0.001430482, -0.1659837, 0.1202238, -9.805677, 0, 0, 45, 1, 1, 1999, 2045
FILE, @SYS/uarts.txt, 448, 64, 0 FlowCtrl=0\nSERIAL5 UART2 TX =       0 RX =       0 TXBD=     0
FILE, @SYS/uarts.txt, 512, 64,  RXBD=     0 FE=0 OE=0 NE=0 FlowCtrl=0\nSERIAL6 UART3 TX =       
SURF, 285524611, 0, 2, 0, 0, 0.9453463
SURF, 285524620, 1, 2, 0, 0, 0.9453463
FILE, @SYS/uarts.txt, 576, 64, 0 RX =       0 TXBD=     0 RXBD=     0 FE=0 OE=0 NE=0 FlowCtrl=0
IMU, 285534341, 0, -0.01370096, -0.01593338, -0.003479455, -0.2646012, 0.2239405, -9.81587, 0, 0, 45.28986, 1, 1, 2022, 2022
IMU, 285534341, 1, -0.0009173715, 0.0007907449, -0.004286611, -0.1834687, 0.108807, -9.847115, 0, 0, 45, 1, 1, 1999, 2045
FILE, @SYS/uarts.txt, 640, 64, \nSERIAL7 OTG2  TX =       0 RX =       0 TXBD=     0 RXBD=     0
FILE, @SYS/uarts.txt, 704, 64,  FE=0 OE=0 NE=0 FlowCtrl=0\nIOMCU   UART6 TX*= 2342816 RX*= 14432
STAK, 285555903, 1, 1, 496, 288, idle
FILE, @SYS/uarts.txt, 768, 53, 38 TXBD=  6863 RXBD=  5437 FE=0 OE=0 NE=0 FlowCtrl=0\n
POWR, 285574540, 4.944461, 5.021318, 1, 1, 6
MCU, 285574540, 35.08946, 3.348958, 3.339974, 3.356434
BAT, 285574553, 0, 15.74083, 15.96814, 0.7678676, 72.34564, 1.145151, 0, 0.2960314, 97, 1, 0
MAG, 285574564, 0, -463, 53, 165, 31, 0, -44, 0, 0, 0, 1, 285574562
MAG, 285574564, 1, -639, -287, 700, 132, -200, 136, 0, 0, 0, 1, 285574563
SURF, 285574583, 0, 2, 0, 0, 0.8928751
SURF, 285574592, 1, 2, 0, 0, 0.8928751
BARO, 285574612, 0, -0.06762695, -0.06762695, 94032.92, 34.51, 0.4456329, 285574, 0, 34.49411, 1
CTUN, 285574624, 0, 0, 0, 0.5435489, 0, -0.1373598, -0.06, NaN, 0, 25.73737, 0, -1
DU32, 285574640, 7, 6349264
TERR, 285574668, 2, 15.3693425, 75.1235105, 100, 646.3026, 25.73737, 0, 336, 0
ATT, 285574755, -20.70458, 3.40327, 22.20739, -2.303806, 186.1907, 186.2345, 3
ANG, 285573899, -20.70458, 3.404749, 22.20739, -2.302505, 186.1907, 186.1907, 0.002501
RATE, 285573914, -110.3845, -0.03531544, -0.2599658, 106.2336, -0.01267448, 0.2503735, 15.56781, -0.0342366, 0.04907513, -0.4629135, -2.39048, 0, 0
PIDR, 285574772, -1.926591, -0.0006163707, -1.925975, -0.2600066, 0, 4.080321E-05, 0, 0, 1, 0.2890546, 9
PIDP, 285574776, 1.854101, -0.0002212115, 1.854322, 0.2503335, 0, 3.993472E-05, 0, 0, 1, 0.3205849, 9
PIDY, 285574780, 0.2715827, -0.0005975415, 0.2726396, 0.04907513, 0, 0, 0, 0, 1, 0.01665927, 9
PIDA, 285574784, -0.4629135, -0.4629135, 0, 0, -543.5499, 0, 0, 0, 1, 0, 13
XKF4, 285574070, 0, 0, 0, 0, 0, 0, 0.007900605, 0, 0, 0, 50, 67751, 7, 0
XKF1, 285574070, 0, 3.4, -2.3, 186.23, -0.002905028, -0.01154263, 0.01382667, 0.01263025, 0, 0, 0.1373598, -0.78, -0.88, -0.08, 0
XKF2, 285574070, 0, 0, 0, 0, 0, 0, 482, 0, 91, 0, 0, 0, 0, 0, 0
XKF3, 285574070, 0, 0, 0, 0, 0, -0.01, -0.01, 0, 0, 0, 0.07, 0, 0, 4.123227E-07
XKF5, 285574070, 0, 0, 0, 0, 0, 0.05, 0.06, 0, 0, 0.5, 2.081646E-05, 0.001408233, 0.1228624
XKFS, 285574070, 0, 0, 0, 0, 0, 0, 0, 0, 1
XKQ, 285574070, 0, -0.05421475, 0.01427226, -0.01065603, 0.9983704
XKF4, 285574070, 1, 0, 0, 0, 0, 0, 0.007883728, 0, 0, 0, 50, 67751, 7, 0
XKF1, 285574070, 1, 4.09, -1.8, 185.94, -0.0122969, 0.009107484, 0.01808002, 0.01853708, 0, 0, 0.1396557, -0.07, 0.02, -0.08, 0
XKF2, 285574070, 1, 0, 0, 0, 0, 0, 480, 0, 97, 0, 0, 0, 0, 0, 0
XKF3, 285574070, 1, 0, 0, 0, -0.01, 0.01, 0, 0, 0, 0, 0, 0, 0.0004252545, 1.894317E-07
XKFS, 285574070, 1, 0, 0, 0, 0, 0, 0, 0, 1
XKQ, 285574070, 1, -0.05179997, 0.009569864, -0.004907771, 0.9985996
AHR2, 285574912, 3.45, -2.11, 186.3, -0.02, 15.3693426, 75.1235105, -0.0557895, 0.01672584, 0.03107114, 0.9978188
POS, 285574916, 15.3693425, 75.1235105, 672.04, -0.06762695, -0.1373598
MOTB, 285574921, 1, 1, 1, 0.05435489, 0, 2
RCIN, 285574928, 1102, 1927, 1102, 1927, 1102, 1000, 1000, 875, 1000, 1495, 1000, 1000, 875, 875
RCI2, 285574931, 875, 875, 0, 1
RCOU, 285574937, 1000, 1000, 1000, 1000, 0, 0, 0, 0, 1495, 0, 0, 0, 0, 0
RCO2, 285574941, 0, 0, 0, 0
VIBE, 285574945, 0, 0.01935073, 0.01686998, 0.02135828, 0
VIBE, 285574945, 1, 0.06373814, 0.06136331, 0.07761743, 0
CTRL, 285574954, 0.2600773, 0.0002152989, 0.2502996, 0.0001898864, 0.04896512
IMU, 285574964, 0, -0.01433108, -0.0157449, -0.002072366, -0.2534789, 0.2191272, -9.778129, 0, 0, 44.80676, 1, 1, 2022, 2022
IMU, 285574964, 1, -0.002245799, -0.0007649048, -0.002465197, -0.172633, 0.09625474, -9.783191, 0, 0, 45, 1, 1, 1999, 2045
PM, 285575000, 400, 0, 4000, 2539, 589152, 228, 0, 0, 0, 3340089, 162450, 839895, 0, 1756094166772557
UART, 285575137, 1, 1979, 216
UART, 285575141, 2, 21, 0
UART, 285575145, 3, 0, 654
UART, 285575149, 100, 8378, 5090
DCM, 285576501, 3.452249, -2.112097, 186.3067, 0.0798583, 0.003183263, 0, 0, 0
EAHR, 285576528, 0, 0, 0, 0, 0, 0, 0, 0, 0, 0
FILE, @SYS/memory.txt, 0, 64, MemInfoV1\nSTART=0x24000000 LEN=512k FREE=  2648 LRG=  1152 TYPE=
FILE, @SYS/memory.txt, 64, 64, 4\nSTART=0x30000000 LEN=256k FREE=262136 LRG=262136 TYPE=8\nSTART=
FILE, @SYS/memory.txt, 128, 64, 0x20000000 LEN=128k FREE=112544 LRG=112544 TYPE=2\nSTART=0x000004
FILE, @SYS/memory.txt, 192, 64, 00 LEN= 63k FREE= 64504 LRG= 64504 TYPE=2\nSTART=0x30040000 LEN= 
GPS, 285614433, 0, 3, 100584800, 2381, 6, 1.26, 15.3693424, 75.1235107, 672.09, 0.161, 108.9834, -0.421, 0, 1
GPA, 285614433, 0, 3.76, 12.36, 21.49, 1.07, 0, 1, 285602, 200, 594.08, 0, 0
IMU, 285614565, 0, -0.01392285, -0.01508995, 0.0009968324, -0.2938409, 0.2361782, -9.797373, 0, 0, 44.80676, 1, 1, 2022, 2022
IMU, 285614565, 1, -0.000573342, -0.000296089, 0.00106803, -0.21646, 0.1067936, -9.805797, 0, 0, 45, 1, 1, 1999, 2045
SURF, 285624651, 0, 2, 0, 0, 0.8425687
SURF, 285624660, 1, 2, 0, 0, 0.8425687
FILE, @SYS/memory.txt, 256, 64, 32k FREE= 32760 LRG= 32760 TYPE=8\nSTART=0x38000000 LEN= 64k FREE
FILE, @SYS/memory.txt, 320, 26, = 56808 LRG= 56152 TYPE=1\n
IMU, 285654599, 0, -0.01331765, -0.01575373, -0.002155846, -0.234064, 0.2206814, -9.818925, 0, 0, 44.80676, 1, 1, 2022, 2022
IMU, 285654599, 1, 0.0016064, 0.0006514648, -0.004106387, -0.1734232, 0.0953249, -9.824609, 0, 0, 45, 1, 1, 1999, 2045
STAK, 285655907, 2, 60, 1200, 880, UART_RX
FILE, @SYS/threads.txt, 0, 64, ThreadsV2\nISR           PRI=255 sp=0x24000000 STACK=1292/1536\nAr
FILE, @SYS/threads.txt, 64, 64, duCopter    PRI=182 sp=0x24000600 STACK=4176/7168\nidle          
POWR, 285674538, 4.944058, 5.023736, 1, 1, 6
MCU, 285674538, 35.08946, 3.349098, 3.340394, 3.354456
BAT, 285674564, 0, 15.75721, 15.98985, 0.785627, 72.36747, 1.145495, 0, 0.2961168, 97, 1, 0
MAG, 285674576, 0, -462, 51, 164, 31, 0, -44, 0, 0, 0, 1, 285674573
MAG, 285674576, 1, -633, -282, 724, 132, -200, 136, 0, 0, 0, 1, 285674574
SURF, 285674596, 0, 2, 0, 0, 0.7944096
SURF, 285674605, 1, 2, 0, 0, 0.7944096
BARO, 285674625, 0, -0.1147461, -0.1147461, 94033.46, 34.52, 0.2296257, 285674, 0, 34.49411, 1
CTUN, 285674637, 0, 0, 0, 0.5435489, 0, -0.1486061, -0.11, NaN, 0, 25.7878, 0, -1
ATT, 285674706, -20.70459, 3.404793, 22.20739, -2.304605, 186.193, 186.2368, 3
ANG, 285673896, -20.70459, 3.406273, 22.20739, -2.303304, 186.193, 186.193, 0.002489
RATE, 285673908, -110.3912, 0.03807275, -0.2602449, 106.2373, -0.01596375, 0.2503474, 15.55632, -0.0825563, 0.0489288, -0.4629135, -1.006413, 0, 0
PIDR, 285674735, -1.926667, 0.0006644949, -1.927331, -0.2601897, 0, -5.516822E-05, 0, 0, 1, 0.2615156, 9
PIDP, 285674739, 1.8542, -0.00027862, 1.854478, 0.2503546, 0, -7.186575E-06, 0, 0, 1, 0.2900418, 9
PIDY, 285674743, 0.2716389, -0.001440879, 0.2718267, 0.0489288, 0, 0, 0, 0, 1, 0.01507209, 9
PIDA, 285674746, -0.4629135, -0.4629135, 0, 0, -543.5499, 0, 0, 0, 1, 0, 13
XKF4, 285674066, 0, 0, 0, 0, 0, 0, 0.00797633, 0, 0, 0, 50, 67751, 7, 0
XKF1, 285674066, 0, 3.4, -2.3, 186.23, -0.003088591, -0.01174948, 0.0137543, -0.01039166, 0, 0, 0.1486061, -0.78, -0.88, -0.08, 0
XKF2, 285674066, 0, 0, 0, 0, 0, 0, 482, 0, 91, 0, 0, 0, 0, 0, 0
XKF3, 285674066, 0, 0, 0, 0, 0, -0.01, -0.05, 0, 0, 0, 0.01, 0, 0, 7.597303E-06
XKF5, 285674066, 0, 0, 0, 0, 0, 0.05, 0.06, 0, 0, 0.5, 1.577143E-05, 0.001270366, 0.1326527
XKFS, 285674066, 0, 0, 0, 0, 0, 0, 0, 0, 1
XKQ, 285674066, 0, -0.05423519, 0.01427873, -0.01064209, 0.9983694
XKV1, 285674066, 0, 0.0002437251, 7.908476E-06, 7.924465E-06, 8.672394E-07, 0.0910939, 0.09111692, 0.02109995, 0.2304685, 0.2304748, 0.2688042, 4.331641E-11, 4.330609E-11
XKV2, 285674066, 0, 1.082962E-10, 6.187439E-06, 6.187442E-06, 6.191298E-08, 0, 0, 0, 0, 0, 0, 0, 0
XKF4, 285674066, 1, 0, 0, 0, 0, 0, 0.0079597, 0, 0, 0, 50, 67751, 7, 0
XKF1, 285674066, 1, 4.09, -1.8, 185.94, -0.01218647, 0.009608367, 0.01787712, -0.004895675, 0, 0, 0.1513194, -0.07, 0.02, -0.08, 0
XKF2, 285674066, 1, 0, 0, 0, 0, 0, 480, 0, 97, 0, 0, 0, 0, 0, 0
XKF3, 285674066, 1, 0, 0, 0, -0.01, 0.01, -0.05, 0, 0, 0, -0.05, 0, 0.0004371913, 6.380663E-06
XKFS, 285674066, 1, 0, 0, 0, 0, 0, 0, 0, 1
XKQ, 285674066, 1, -0.05181597, 0.009580064, -0.004864022, 0.9985989
AHR2, 285674844, 3.45, -2.19, 186.3, -0.06, 15.3693422, 75.1235107, -0.0558301, 0.01743513, 0.0311874, 0.9978008
POS, 285674848, 15.3693424, 75.1235107, 672.09, -0.1147461, -0.1486061
MOTB, 285674853, 1, 1, 1, 0.05435489, 0, 2
RCIN, 285674859, 1102, 1927, 1102, 1927, 1102, 1000, 1000, 875, 1000, 1495, 1000, 1000, 875, 875
RCI2, 285674865, 875, 875, 0, 1
RCOU, 285674873, 1000, 1000, 1000, 1000, 0, 0, 0, 0, 1495, 0, 0, 0, 0, 0
RCO2, 285674877, 0, 0, 0, 0
VIBE, 285674886, 0, 0.02644384, 0.02760923, 0.0220191, 0
VIBE, 285674886, 1, 0.06830856, 0.06593625, 0.0744342, 0
CTRL, 285674896, 0.2600882, 0.0002025361, 0.2503129, 0.0001656441, 0.04894483
DCM, 285676559, 3.459368, -2.195953, 186.3083, 0.08250038, 0.003783028, 0, 0, 0
EAHR, 285676578, 0, 0, 0, 0, 0, 0, 0, 0, 0, 0
FILE, @SYS/threads.txt, 128, 64, PRI=  1 sp=0x240214B0 STACK=288/496\nUART_RX       PRI= 60 sp=0x2
IMU, 285694313, 0, -0.01343458, -0.0156971, -0.003591776, -0.2866799, 0.2268667, -9.794419, 0, 0, 44.80676, 1, 1, 2022, 2022
IMU, 285694313, 1, -0.0002320438, 0.001649197, -0.00339022, -0.2021473, 0.096209, -9.791522, 0, 0, 45, 1, 1, 1999, 2045
FILE, @SYS/threads.txt, 192, 64, 407B0E8 STACK=880/1200\nOTG1          PRI= 60 sp=0x2407A1A0 STACK
FILE, @SYS/threads.txt, 256, 64, =480/752\nmonitor       PRI=183 sp=0x2401CE20 STACK=1096/1456\ntim
FILE, @SYS/threads.txt, 320, 64, er         PRI=181 sp=0x2401E3E0 STACK=1528/1968\nrcout         P
SURF, 285724610, 0, 2, 0, 0, 0.748362
SURF, 285724619, 1, 2, 0, 0, 0.748362
IMU, 285734331, 0, -0.01379567, -0.0158928, 0.002530096, -0.2453791, 0.2262499, -9.788974, 0, 0, 44.80676, 1, 1, 2022, 2022
IMU, 285734331, 1, -0.001546815, 0.000544995, 0.002028841, -0.1643103, 0.08703835, -9.804014, 0, 0, 45, 1, 1, 1999, 2045
FILE, @SYS/threads.txt, 384, 64, RI=181 sp=0x2401DA00 STACK=656/944\nrcin          PRI=177 sp=0x24
FILE, @SYS/threads.txt, 448, 64, 01D410 STACK=848/1456\nio            PRI= 58 sp=0x2401C430 STACK=
STAK, 285756855, 3, 60, 752, 480, OTG1
FILE, @SYS/threads.txt, 512, 64, 1576/2480\nstorage       PRI= 59 sp=0x2401DDF0 STACK=944/1456\nUAR
FILE, @SYS/threads.txt, 576, 64, T7         PRI= 60 sp=0x24078FF8 STACK=240/752\nUART5         PRI
POWR, 285774548, 4.946979, 5.018901, 1, 1, 6
MCU, 285774548, 35.08946, 3.349098, 3.341094, 3.355444
BAT, 285774561, 0, 15.73643, 15.96397, 0.7684168, 72.38882, 1.145831, 0, 0.2961168, 97, 1, 0
MAG, 285774573, 0, -464, 53, 164, 31, 0, -44, 0, 0, 0, 1, 285774570
MAG, 285774573, 1, -634, -286, 717, 132, -200, 136, 0, 0, 0, 1, 285774571
SURF, 285774591, 0, 2, 0, 0, 0.7043806
SURF, 285774599, 1, 2, 0, 0, 0.7043806
BARO, 285774647, 0, -0.08526611, -0.08526611, 94033.13, 34.52, -0.2748108, 285774, 0, 34.49411, 1
CTUN, 285774660, 0, 0, 0, 0.5435489, 0, -0.1552286, -0.08, NaN, 0, 25.7878, 0, -1
ATT, 285774765, -20.70459, 3.407626, 22.20739, -2.305578, 186.2, 186.2438, 3
ANG, 285773901, -20.70459, 3.409107, 22.20739, -2.304275, 186.2, 186.2, 0.002502
RATE, 285773914, -110.4032, 0.05400294, -0.2601161, 106.2424, 0.01740764, 0.2501672, 15.57021, 0.01955405, 0.04865945, -0.4629135, 1.407814, 0, 0
PIDR, 285774782, -1.926894, 0.0009425292, -1.927837, -0.260258, 0, 0.0001418673, 0, 0, 1, 0.2365983, 9
PIDP, 285774786, 1.854283, 0.0003038207, 1.853979, 0.2502872, 0, -0.0001199871, 0, 0, 1, 0.2624065, 9
PIDY, 285774789, 0.2720644, 0.0003412826, 0.2703303, 0.04865945, 0, 0, 0, 0, 1, 0.01428253, 9
PIDA, 285774793, -0.4629135, -0.4629135, 0, 0, -543.5499, 0, 0, 0, 1, 0, 13
XKF4, 285774069, 0, 0, 0, 0, 0, 0, 0.008051836, 0, 0, 0, 50, 67751, 7, 0
XKF1, 285774069, 0, 3.4, -2.3, 186.24, -0.00267757, -0.01267035, 0.01376466, -0.01957653, 0, 0, 0.1552286, -0.78, -0.88, -0.08, 0
XKF2, 285774069, 0, 0, 0, 0, 0, 0, 482, 0, 91, 0, 0, 0, 0, 0, 0
XKF3, 285774069, 0, 0, 0, 0, 0, -0.02, -0.1, 0, 0, 0, 0.22, 0, 0, 2.483001E-05
XKF5, 285774069, 0, 0, 0, 0, 0, 0.05, 0.06, 0, 0, 0.5, 2.176489E-05, 0.001121123, 0.1367004
XKFS, 285774069, 0, 0, 0, 0, 0, 0, 0, 0, 1
XKQ, 285774069, 0, -0.05429647, 0.01428651, -0.01061608, 0.9983662
XKF4, 285774069, 1, 0, 0, 0, 0, 0, 0.008035518, 0, 0, 0, 50, 67751, 7, 0
XKF1, 285774069, 1, 4.1, -1.8, 185.94, -0.01228179, 0.00929655, 0.01819714, -0.0136485, 0, 0, 0.1584321, -0.07, 0.02, -0.08, 0
XKF2, 285774069, 1, 0, 0, 0, 0, 0, 480, 0, 97, 0, 0, 0, 0, 0, 0
XKF3, 285774069, 1, 0, 0, 0, -0.01, 0.01, -0.09, 0, 0, 0, 0.15, 0, 0.0004668055, 2.240444E-05
XKFS, 285774069, 1, 0, 0, 0, 0, 0, 0, 0, 1
XKQ, 285774069, 1, -0.05184319, 0.009578311, -0.004817135, 0.9985977
AHR2, 285774870, 3.44, -2.29, 186.31, -0.11, 15.3693421, 75.1235107, -0.05590351, 0.01836227, 0.03108536, 0.9977832
POS, 285774875, 15.3693424, 75.1235107, 672.09, -0.08526611, -0.1552286
MOTB, 285774881, 1, 1, 1, 0.05435489, 0, 2
RCIN, 285774887, 1102, 1927, 1102, 1927, 1102, 1000, 1000, 875, 1000, 1495, 1000, 1000, 875, 875
RCI2, 285774891, 875, 875, 0, 1
RCOU, 285774899, 1000, 1000, 1000, 1000, 0, 0, 0, 0, 1495, 0, 0, 0, 0, 0
RCO2, 285774902, 0, 0, 0, 0
VIBE, 285774907, 0, 0.02194141, 0.02448862, 0.01942894, 0
VIBE, 285774907, 1, 0.06393235, 0.06384061, 0.07556447, 0
CTRL, 285774952, 0.2601207, 0.000183816, 0.2503253, 0.0001414033, 0.04891989
IMU, 285775006, 0, -0.01277684, -0.01522518, -0.001133753, -0.2992608, 0.2613266, -9.813971, 0, 0, 45.28986, 1, 1, 2022, 2022
IMU, 285775006, 1, 0.0001293658, 0.001667758, -0.002485094, -0.1935969, 0.1485907, -9.828424, 0, 0, 45, 1, 1, 1999, 2045
DCM, 285776560, 3.441566, -2.301572, 186.3136, 0.08250038, 0.003529012, 0, 0, 0
EAHR, 285776579, 0, 0, 0, 0, 0, 0, 0, 0, 0, 0
FILE, @SYS/threads.txt, 640, 64, = 60 sp=0x240784B0 STACK=344/752\nUART1         PRI= 60 sp=0x2407
FILE, @SYS/threads.txt, 704, 64, 78E8 STACK=312/752\nUART8         PRI= 60 sp=0x24076D20 STACK=408
FMT, 253, 28, HEAT, Qfbfff, TimeUS,Temp,Targ,P,I,Out
HEAT, 285801404, 44.84299, 45, 7.850266, 21.82619, 29.67645
FILE, @SYS/threads.txt, 768, 64, /752\nOTG2          PRI= 60 sp=0x24075DD8 STACK=480/752\nUART6    
UBX1, 285814360, 0, 89, 14, 1, 3510, 0
UBX2, 285814399, 0, 26, 147, 25, 141
IMU, 285814548, 0, -0.01384563, -0.01520513, -0.005054753, -0.2446207, 0.1630942, -9.80612, 0, 0, 44.80676, 1, 1, 2022, 2022
IMU, 285814548, 1, -3.326199E-05, -0.0004819988, -0.003786235, -0.1964908, 0.03736906, -9.840225, 0, 0, 45, 1, 1, 1999, 2045
FILE, @SYS/threads.txt, 832, 64,      PRI=181 sp=0x24074F58 STACK=336/752\nIOMCU         PRI=183 s
SURF, 285824640, 0, 2, 0, 0, 0.6624058
SURF, 285824650, 1, 2, 0, 0, 0.6624058
FILE, @SYS/threads.txt, 896, 64, p=0x2406AB30 STACK=664/1456\nlog_io        PRI= 59 sp=0x2406B2C0 
GPS, 285834531, 0, 3, 100585000, 2381, 6, 1.26, 15.3693415, 75.1235105, 671.71, 0.374, 108.9834, -0.122, 0, 1
GPA, 285834531, 0, 3.76, 12.35, 21.42, 1.06, 0, 1, 285802, 200, 593.7, 0, 0
FILE, @SYS/threads.txt, 960, 64, STACK=712/2016\nI2C1          PRI=176 sp=0x2406BBD0 STACK=984/145
IMU, 285854513, 0, -0.01586797, -0.01497793, 0.0009682696, -0.2608743, 0.2398628, -9.781651, 0, 0, 44.80676, 1, 1, 2022, 2022
IMU, 285854513, 1, -0.003164419, 0.0008570509, 0.000830761, -0.1610479, 0.1103765, -9.803947, 0, 0, 45, 1, 1, 1999, 2045
FILE, @SYS/threads.txt, 1024, 64, 6\nI2C0          PRI=176 sp=0x2406C4A0 STACK=984/1456\nSPI1       
STAK, 285857899, 4, 183, 1456, 1096, monitor
FILE, @SYS/threads.txt, 1088, 64,    PRI=181 sp=0x24070FC0 STACK=832/1456\nFTP           PRI= 58 sp
POWR, 285874539, 4.953323, 5.057582, 1, 1, 6
MCU, 285874539, 35.0497, 3.348958, 3.341094, 3.353609
BAT, 285874552, 0, 15.74275, 15.97381, 0.7803175, 72.41049, 1.146173, 0, 0.2961168, 97, 1, 0
MAG, 285874564, 0, -464, 52, 160, 31, 0, -44, 0, 0, 0, 1, 285874561
MAG, 285874564, 1, -633, -284, 701, 132, -200, 136, 0, 0, 0, 1, 285874563
SURF, 285874582, 0, 2, 0, 0, 0.6223806
SURF, 285874590, 1, 2, 0, 0, 0.6223806
BARO, 285874610, 0, -0.04711914, -0.04711914, 94032.67, 34.52, -0.3804588, 285874, 0, 34.49411, 1
CTUN, 285874623, 0, 0, 0, 0.5435489, 0, -0.158741, -0.04, NaN, 0, 25.41439, 0, -1
ATT, 285874676, -20.70459, 3.403943, 22.20739, -2.305759, 186.1977, 186.2415, 3
ANG, 285873896, -20.70459, 3.405423, 22.20739, -2.304458, 186.1977, 186.1977, 0.002493
RATE, 285873909, -110.3877, -0.0001723022, -0.2604766, 106.2421, 0.002167998, 0.250299, 15.59132, 0.1595647, 0.04881413, -0.4629135, 1.350594, 0, 0
PIDR, 285874692, -1.926611, -3.007241E-06, -1.926608, -0.260092, 0, -0.0003846072, 0, 0, 1, 0.2140572, 9
PIDP, 285874696, 1.854298, 3.78387E-05, 1.85426, 0.2503251, 0, -2.60657E-05, 0, 0, 1, 0.2374067, 9
PIDY, 285874700, 0.2721283, 0.002784929, 0.2711896, 0.04881413, 0, 0, 0, 0, 1, 0.01430839, 9
PIDA, 285874718, -0.4629135, -0.4629135, 0, 0, -543.5499, 0, 0, 0, 1, 0, 13
XKF4, 285874079, 0, 0, 0, 0, 0, 0, 0.00812719, 0, 0, 0, 50, 67751, 7, 0
XKF1, 285874079, 0, 3.4, -2.3, 186.24, -0.004032051, -0.01157055, 0.01418632, -0.02284542, 0, 0, 0.158741, -0.78, -0.88, -0.08, 0
XKF2, 285874079, 0, 0, 0, 0, 0, 0, 482, 0, 91, 0, 0, 0, 0, 0, 0
XKF3, 285874079, 0, 0, 0, 0, 0, -0.02, -0.06, 0, 0, 0, 0, 0, 0, 1.134981E-05
XKF5, 285874079, 0, 0, 0, 0, 0, 0.05, 0.06, 0, 0, 0.5, 1.81206E-05, 0.001053845, 0.1379516
XKFS, 285874079, 0, 0, 0, 0, 0, 0, 0, 0, 1
XKQ, 285874079, 0, -0.05427576, 0.01428962, -0.01064837, 0.998367
XKF4, 285874079, 1, 0, 0, 0, 0, 0, 0.008110992, 0, 0, 0, 50, 67751, 7, 0
XKF1, 285874079, 1, 4.1, -1.8, 185.94, -0.01279251, 0.01113825, 0.01740345, -0.01837458, 0, 0, 0.162358, -0.07, 0.02, -0.08, 0
XKF2, 285874079, 1, 0, 0, 0, 0, 0, 480, 0, 97, 0, 0, 0, 0, 0, 0
XKF3, 285874079, 1, 0, 0, 0, -0.01, 0.01, -0.06, 0, 0, 0, -0.06, 0, 0.0004668055, 9.621126E-06
XKFS, 285874079, 1, 0, 0, 0, 0, 0, 0, 0, 1
XKQ, 285874079, 1, -0.05181017, 0.009614093, -0.004813915, 0.9985991
AHR2, 285874838, 3.48, -2.39, 186.31, -0.08, 15.3693412, 75.1235102, -0.05589959, 0.01921012, 0.03149662, 0.9977545
POS, 285874844, 15.3693415, 75.1235105, 671.71, -0.04711914, -0.158741
MOTB, 285874849, 1, 1, 1, 0.05435489, 0, 2
RCIN, 285874856, 1102, 1927, 1102, 1927, 1102, 1000, 1000, 875, 1000, 1495, 1000, 1000, 875, 875
RCI2, 285874859, 875, 875, 0, 1
RCOU, 285874867, 1000, 1000, 1000, 1000, 0, 0, 0, 0, 1495, 0, 0, 0, 0, 0
RCO2, 285874870, 0, 0, 0, 0
VIBE, 285874877, 0, 0.03289025, 0.03850008, 0.02078526, 0
VIBE, 285874877, 1, 0.07066131, 0.0756087, 0.07601278, 0
CTRL, 285874887, 0.2600807, 0.0002108526, 0.250329, 0.0001365029, 0.04892346
DCM, 285876557, 3.489123, -2.400826, 186.3102, 0.09768593, 0.003960068, 0, 0, 0
EAHR, 285876576, 0, 0, 0, 0, 0, 0, 0, 0, 0, 0
FILE, @SYS/threads.txt, 1152, 28, =0x24032968 STACK=1368/2992\n
IMU, 285894361, 0, -0.01305758, -0.0146498, 0.0001652379, -0.2896318, 0.2581489, -9.797914, 0, 0, 44.80676, 1, 1, 2022, 2022
IMU, 285894361, 1, -0.0001418689, 0.0008106468, -0.0006665665, -0.2134349, 0.1456144, -9.818165, 0, 0, 45, 1, 1, 1999, 2045
FILE, @SYS/timers.txt, 0, 64, TIMERV1\nTIM5  CLK= 200Mhz MODE=  PWM FREQ=       7 TGT=       8\n
FILE, @SYS/timers.txt, 64, 64, TIM4  CLK= 200Mhz MODE=  PWM FREQ=       7 TGT=       8\nTIM1  CL
FILE, @SYS/timers.txt, 128, 48, K= 200Mhz MODE=  PWM FREQ=       7 TGT=       8\n
SURF, 285924688, 0, 2, 0, 0, 0.5842383
SURF, 285924698, 1, 2, 0, 0, 0.5842383
IMU, 285934359, 0, -0.01372178, -0.01563457, -0.005689982, -0.2282281, 0.2272038, -9.809067, 0, 0, 44.80676, 1, 1, 2022, 2022
IMU, 285934359, 1, -0.0007887093, 0.001894258, -0.004644492, -0.1350004, 0.09278427, -9.831034, 0, 0, 45, 1, 1, 1999, 2045
FILE, @ROMFS/hwdef.dat, 0, 64, MCU STM32H7xx STM32H743xx\nOSCILLATOR_HZ 16000000\nSTM32_ST_USE_TI
FILE, @ROMFS/hwdef.dat, 64, 64, MER 2\nUSB_VENDOR 0x3162\nUSB_PRODUCT 0x0053\nUSB_STRING_MANUFACTUR
STAK, 285959352, 5, 181, 1968, 1528, timer
FILE, @ROMFS/hwdef.dat, 128, 64, ER "Holybro"\nAPJ_BOARD_ID 56\nFLASH_RESERVE_START_KB 128\nenv USE_
POWR, 285974507, 4.949597, 5.023736, 1, 1, 6
MCU, 285974507, 35.06958, 3.348817, 3.341655, 3.355444
BAT, 285974531, 0, 15.73532, 15.96345, 0.7703901, 72.43189, 1.146509, 0, 0.2961168, 97, 1, 0
MAG, 285974543, 0, -464, 53, 165, 31, 0, -44, 0, 0, 0, 1, 285974540
MAG, 285974543, 1, -633, -288, 707, 132, -200, 136, 0, 0, 0, 1, 285974542
SURF, 285974564, 0, 2, 0, 0, 0.5479176
SURF, 285974572, 1, 2, 0, 0, 0.5479176
BARO, 285974592, 0, -0.02355957, -0.02355957, 94032.41, 34.53, -0.1029587, 285974, 0, 34.49411, 1
CTUN, 285974605, 0, 0, 0, 0.5435489, 0, -0.1599751, -0.02, NaN, 0, 25.41439, 0, -1
ATT, 285974659, -20.70459, 3.403851, 22.20739, -2.305297, 186.189, 186.2328, 3
ANG, 285973897, -20.70459, 3.405331, 22.20739, -2.303996, 186.189, 186.189, 0.0025
RATE, 285973909, -110.3871, -0.03181961, -0.2599815, 106.2401, 0.006759112, 0.2501613, 15.57332, 0.01197718, 0.0491249, -0.4629135, -1.372051, 0, 0
PIDR, 285974675, -1.926637, -0.000555357, -1.926082, -0.260021, 0, 3.959057E-05, 0, 0, 1, 0.1936626, 9
PIDP, 285974679, 1.854249, 0.0001179688, 1.854131, 0.2503076, 0, -0.0001463208, 0, 0, 1, 0.2147874, 9
PIDY, 285974683, 0.2715571, 0.0002090413, 0.2729161, 0.0491249, 0, 0, 0, 0, 1, 0.01342444, 9
PIDA, 285974687, -0.4629135, -0.4629135, 0, 0, -543.5499, 0, 0, 0, 1, 0, 13
XKF4, 285974065, 0, 0, 0, 0, 0, 0, 0.008202874, 0, 0, 0, 50, 67751, 7, 0
XKF1, 285974065, 0, 3.4, -2.3, 186.23, -0.003547489, -0.01309198, 0.01508841, -0.02569664, 0, 0, 0.1599751, -0.78, -0.88, -0.08, 0
XKF2, 285974065, 0, 0, 0, 0, 0, 0, 482, 0, 91, 0, 0, 0, 0, 0, 0
XKF3, 285974065, 0, 0, 0, 0, 0, -0.02, -0.02, 0, 0, 0, 0.17, 0, 0, 1.823755E-06
XKF5, 285974065, 0, 0, 0, 0, 0, 0.05, 0.07, 0, 0, 0.5, 2.123644E-05, 0.001027416, 0.1374869
XKFS, 285974065, 0, 0, 0, 0, 0, 0, 0, 0, 1
XKQ, 285974065, 0, -0.05419961, 0.01428482, -0.01065048, 0.9983711
XKF4, 285974065, 1, 0, 0, 0, 0, 0, 0.008186611, 0, 0, 0, 50, 67751, 7, 0
XKF1, 285974065, 1, 4.1, -1.8, 185.93, -0.01233724, 0.009862391, 0.01789875, -0.02201145, 0, 0, 0.1638781, -0.07, 0.02, -0.08, 0
XKF2, 285974065, 1, 0, 0, 0, 0, 0, 480, 0, 97, 0, 0, 0, 0, 0, 0
XKF3, 285974065, 1, 0, 0, 0, -0.01, 0.01, -0.02, 0, 0, 0, 0.09, 0, 0.0004668055, 1.133038E-06
XKFS, 285974065, 1, 0, 0, 0, 0, 0, 0, 0, 1
XKQ, 285974065, 1, -0.05174495, 0.009542524, -0.004795412, 0.9986032
AHR2, 285974757, 3.64, -2.48, 186.29, -0.04, 15.3693409, 75.1235099, -0.05579903, 0.01992626, 0.03291378, 0.9977003
POS, 285974761, 15.3693415, 75.1235105, 671.71, -0.02355957, -0.1599751
MOTB, 285974781, 1, 1, 1, 0.05435489, 0, 2
RCIN, 285974787, 1102, 1927, 1102, 1927, 1102, 1000, 1000, 875, 1000, 1495, 1000, 1000, 875, 875
RCI2, 285974804, 875, 875, 0, 1
RCOU, 285974824, 1000, 1000, 1000, 1000, 0, 0, 0, 0, 1495, 0, 0, 0, 0, 0
RCO2, 285974827, 0, 0, 0, 0
VIBE, 285974832, 0, 0.03014535, 0.02981479, 0.01652985, 0
VIBE, 285974832, 1, 0.07010897, 0.06928381, 0.07733283, 0
CTRL, 285974840, 0.260085, 0.0001905252, 0.2503224, 0.0001300695, 0.04893322
IMU, 285974874, 0, -0.01426857, -0.01540409, -0.001265108, -0.2941526, 0.213782, -9.787407, 0, 0, 44.80676, 1, 1, 2022, 2022
IMU, 285974874, 1, -0.001689004, 0.001199773, -0.0002868933, -0.1958642, 0.1000346, -9.788505, 0, 0, 45, 1, 1, 1999, 2045
DCM, 285976504, 3.645628, -2.490055, 186.2928, 0.09768593, 0.00399631, 0, 0, 0
EAHR, 285976527, 0, 0, 0, 0, 0, 0, 0, 0, 0, 0
FILE, @ROMFS/hwdef.dat, 192, 64, ALT_RAM_MAP 1\nFLASH_SIZE_KB 2048\nenv OPTIMIZE -O2\nSERIAL_ORDER O
FILE, @ROMFS/hwdef.dat, 256, 64, TG1 UART7 UART5 USART1 UART8 USART2 USART3 OTG2\nPA11 OTG_FS_DM O
FILE, @ROMFS/hwdef.dat, 320, 64, TG1\nPA12 OTG_FS_DP OTG1\nPA9 VBUS INPUT OPENDRAIN\nPA13 JTMS-SWDIO
GPS, 286014469, 0, 3, 100585200, 2381, 6, 1.26, 15.3693415, 75.123511, 671.82, 0.219, 108.9834, -0.306, 0, 1
GPA, 286014469, 0, 3.76, 12.34, 21.35, 1.36, 0, 1, 286002, 200, 593.81, 0, 0
IMU, 286014593, 0, -0.01440482, -0.0164516, -0.001799017, -0.2530091, 0.2695742, -9.789641, 0, 0, 44.80676, 1, 1, 2022, 2022
IMU, 286014593, 1, -6.018822E-05, -0.002924492, -0.0004954789, -0.1749824, 0.1407708, -9.81127, 0, 0, 45, 1, 1, 1999, 2045
FILE, @ROMFS/hwdef.dat, 384, 64,  SWD\nPA14 JTCK-SWCLK SWD\nPE8  UART7_TX UART7\nPE7  UART7_RX UART7
SURF, 286024671, 0, 2, 0, 0, 0.5133511
SURF, 286024680, 1, 2, 0, 0, 0.5133511
RAD, 286029558, 63, 0, 100, 96, 0, 0, 0
FILE, @ROMFS/hwdef.dat, 448, 64, \nPE9  UART7_RTS UART7 LOW PULLDOWN\nPE10 UART7_CTS UART7\nPC12 UAR
FILE, @ROMFS/hwdef.dat, 512, 64, T5_TX UART5\nPD2 UART5_RX UART5\nPC8 UART5_RTS UART5 LOW PULLDOWN\n
IMU, 286054569, 0, -0.01423906, -0.01463735, -0.004522136, -0.2718204, 0.2356294, -9.808002, 0, 0, 44.80676, 1, 1, 2022, 2022
IMU, 286054569, 1, 0.0005443787, 0.001887391, -0.003596443, -0.1758979, 0.1153217, -9.805043, 0, 0, 45, 1, 1, 1999, 2045
FILE, @ROMFS/hwdef.dat, 576, 64, PC9 UART5_CTS UART5\nPB6  USART1_TX USART1\nPA10 USART1_RX USART1\n
STAK, 286059881, 6, 181, 944, 656, rcout
FILE, @ROMFS/hwdef.dat, 640, 64, PE1 UART8_TX UART8\nPE0 UART8_RX UART8\nPD5 USART2_TX USART2\nPA3 U
POWR, 286074515, 4.943655, 4.970549, 1, 1, 6
MCU, 286074515, 35.10934, 3.349098, 3.343197, 3.356434
BAT, 286074528, 0, 15.74797, 15.97738, 0.775191, 72.45343, 1.146848, 0, 0.2959452, 97, 1, 0
MAG, 286074546, 0, -464, 52, 164, 31, 0, -44, 0, 0, 0, 1, 286074543
MAG, 286074546, 1, -630, -284, 688, 132, -200, 136, 0, 0, 0, 1, 286074545
SURF, 286074564, 0, 2, 0, 0, 0.4804747
SURF, 286074573, 1, 2, 0, 0, 0.4804747
BARO, 286074592, 0, 0.008789063, 0.008789063, 94032.07, 34.53, 0.1708603, 286074, 0, 34.49411, 1
CTUN, 286074605, 0, 0, 0, 0.5435489, 0, -0.1595558, 0, NaN, 0, 25.52366, 0, -1
ATT, 286074751, -20.70459, 3.400599, 22.20739, -2.305039, 186.1811, 186.2248, 3
ANG, 286073897, -20.70459, 3.402077, 22.20739, -2.303741, 186.1811, 186.1811, 0.002501
RATE, 286073909, -110.3734, -0.05322446, -0.2598893, 106.2382, 0.02461008, 0.250308, 15.56605, -0.07439519, 0.04918116, -0.4629135, -1.34716, 0, 0
PIDR, 286074768, -1.926407, -0.0009289421, -1.925478, -0.2599396, 0, 5.023145E-05, 0, 0, 1, 0.1752113, 9
PIDP, 286074772, 1.854211, 0.0004295269, 1.853782, 0.2502606, 0, 4.747936E-05, 0, 0, 1, 0.1943234, 9
PIDY, 286074775, 0.2715357, -0.001298441, 0.2732286, 0.04918116, 0, 0, 0, 0, 1, 0.01250035, 9
PIDA, 286074779, -0.4629135, -0.4629135, 0, 0, -543.5499, 0, 0, 0, 1, 0, 13
XKF4, 286074066, 0, 0, 0, 0, 0, 0, 0.008277902, 0, 0, 0, 50, 67751, 7, 0
XKF1, 286074066, 0, 3.4, -2.3, 186.22, -0.004173656, -0.01470713, 0.01572846, -0.02976329, 0, 0, 0.1595558, -0.78, -0.88, -0.08, 0
XKF2, 286074066, 0, 0, 0, 0, 0, 0, 482, 0, 91, 0, 0, 0, 0, 0, 0
XKF3, 286074066, 0, 0, 0, 0, 0, -0.02, 0, 0, 0, 0, 0.04, 0, 0, 6.32665E-08
XKF5, 286074066, 0, 0, 0, 0, 0, 0.05, 0.07, 0, 0, 0.5, 1.87531E-05, 0.001028841, 0.1357118
XKFS, 286074066, 0, 0, 0, 0, 0, 0, 0, 0, 1
XKQ, 286074066, 0, -0.05413023, 0.01428337, -0.01067993, 0.9983746
XKF4, 286074066, 1, 0, 0, 0, 0, 0, 0.008261827, 0, 0, 0, 50, 67751, 7, 0
XKF1, 286074066, 1, 4.11, -1.8, 185.93, -0.01246598, 0.008309368, 0.01848232, -0.02636855, 0, 0, 0.1636986, -0.07, 0.02, -0.08, 0
XKF2, 286074066, 1, 0, 0, 0, 0, 0, 480, 0, 97, 0, 0, 0, 0, 0, 0
XKF3, 286074066, 1, 0, 0, 0, -0.01, 0.02, 0, 0, 0, 0, -0.02, 0, 0.0004670507, 7.347694E-08
XKFS, 286074066, 1, 0, 0, 0, 0, 0, 0, 0, 1
XKQ, 286074066, 1, -0.05168961, 0.00956283, -0.004754351, 0.9986061
AHR2, 286074849, 3.65, -2.36, 186.28, -0.02, 15.3693418, 75.123511, -0.0556834, 0.01881808, 0.03297407, 0.9977263
POS, 286074854, 15.3693415, 75.123511, 671.82, 0.008789063, -0.1595558
MOTB, 286074859, 1, 1, 1, 0.05435489, 0, 2
RCIN, 286074866, 1102, 1927, 1102, 1927, 1102, 1000, 1000, 875, 1000, 1495, 1000, 1000, 875, 875
RCI2, 286074873, 875, 875, 0, 1
RCOU, 286074879, 1000, 1000, 1000, 1000, 0, 0, 0, 0, 1495, 0, 0, 0, 0, 0
RCO2, 286074885, 0, 0, 0, 0
VIBE, 286074889, 0, 0.02043208, 0.02383734, 0.0171752, 0
VIBE, 286074889, 1, 0.06680562, 0.06676707, 0.07299329, 0
CTRL, 286074899, 0.2600545, 0.0001718028, 0.2503171, 0.0001274864, 0.04897774
FILE, @ROMFS/hwdef.dat, 704, 64, SART2_RX USART2\nPD8 USART3_TX USART3\nPD9 USART3_RX USART3\nPC6 US
DCM, 286076571, 3.654207, -2.35435, 186.2829, 0.1299783, 0.004165817, 0, 0, 0
EAHR, 286076590, 0, 0, 0, 0, 0, 0, 0, 0, 0, 0
FILE, @ROMFS/hwdef.dat, 768, 64, ART6_TX USART6\nPC7 USART6_RX USART6\nIOMCU_UART USART6\nPC5 BATT_V
IMU, 286094328, 0, -0.01490321, -0.01587499, -0.001472611, -0.2530645, 0.2160999, -9.799803, 0, 0, 44.80676, 1, 1, 2022, 2022
IMU, 286094328, 1, -0.00311115, -0.0008053405, -0.0006013352, -0.1773643, 0.08344012, -9.816757, 0, 0, 45, 1, 1, 1999, 2045
FILE, @ROMFS/hwdef.dat, 832, 64, OLTAGE_SENS ADC1 SCALE(1)\nPC4 BATT_CURRENT_SENS ADC1 SCALE(1)\nPB
FILE, @ROMFS/hwdef.dat, 896, 64, 1 BATT2_VOLTAGE_SENS ADC1 SCALE(1)\nPA2 BATT2_CURRENT_SENS ADC1 S
SURF, 286124657, 0, 2, 0, 0, 0.4492219
SURF, 286124667, 1, 2, 0, 0, 0.4492219
FILE, @ROMFS/hwdef.dat, 960, 64, CALE(1)\ndefine HAL_BATT_VOLT_PIN 8\ndefine HAL_BATT_CURR_PIN 4\nde
IMU, 286134375, 0, -0.01297262, -0.01595178, 0.001914532, -0.272362, 0.1965991, -9.782028, 0, 0, 45.28986, 1, 1, 2022, 2022
IMU, 286134375, 1, -0.001734527, 0.001827694, 0.003342379, -0.1786506, 0.07391096, -9.805585, 0, 0, 45, 1, 1, 1999, 2045
FILE, @ROMFS/hwdef.dat, 1024, 64, fine HAL_BATT_VOLT_SCALE 18.18\ndefine HAL_BATT_CURR_SCALE 36.36\n
FILE, @ROMFS/hwdef.dat, 1088, 64, PA4 VDD_5V_SENS  ADC1 SCALE(2)\nPA5 SPI1_SCK SPI1\nPA6 SPI1_MISO S
STAK, 286159930, 7, 177, 1456, 848, rcin
FILE, @ROMFS/hwdef.dat, 1152, 64, PI1\nPA7 SPI1_MOSI SPI1\nPC13 ICM42688_CS CS\nPC14 BMI055_G_CS CS\nP
POWR, 286174477, 4.950604, 5.021318, 1, 1, 6
MCU, 286174477, 35.08946, 3.349098, 3.341374, 3.354456
BAT, 286174490, 0, 15.74513, 15.97416, 0.7739094, 72.47492, 1.147187, 0, 0.2959452, 97, 1, 0
MAG, 286174502, 0, -464, 52, 164, 31, 0, -44, 0, 0, 0, 1, 286174499
MAG, 286174502, 1, -638, -284, 719, 132, -200, 136, 0, 0, 0, 1, 286174501
SURF, 286174520, 0, 2, 0, 0, 0.4195286
SURF, 286174529, 1, 2, 0, 0, 0.4195286
BARO, 286174548, 0, -0.02355957, -0.02355957, 94032.42, 34.53, 0.2646065, 286174, 0, 34.49411, 1
CTUN, 286174615, 0, 0, 0, 0.5435489, 0, -0.1578798, -0.02, NaN, 0, 25.52366, 0, -1
ATT, 286174680, -20.70459, 3.39906, 22.20739, -2.307378, 186.1896, 186.2333, 3
ANG, 286173896, -20.70459, 3.400539, 22.20739, -2.306081, 186.1896, 186.1896, 0.0025
RATE, 286173911, -110.3672, -0.01357009, -0.2600519, 106.2478, -0.04099106, 0.2503568, 15.57734, -0.006446571, 0.04877081, -0.4629135, -1.13802, 0, 0
PIDR, 286174697, -1.926259, -0.0002368428, -1.926022, -0.2600129, 0, -3.898673E-05, 0, 0, 1, 0.1585181, 9
PIDP, 286174701, 1.854363, -0.000715429, 1.855079, 0.2504357, 0, -7.890022E-05, 0, 0, 1, 0.1758092, 9
PIDY, 286174704, 0.2720627, -0.0001125139, 0.2709489, 0.04877081, 0, 0, 0, 0, 1, 0.01130938, 9
PIDA, 286174708, -0.4629135, -0.4629135, 0, 0, -543.5499, 0, 0, 0, 1, 0, 13
XKF4, 286174023, 0, 0, 0, 0, 0, 0, 0.008352871, 0, 0, 0, 50, 67751, 7, 0
XKF1, 286174023, 0, 3.39, -2.3, 186.23, -0.005217204, -0.01350224, 0.01613701, -0.03443244, 0, 0, 0.1578798, -0.78, -0.88, -0.08, 0
XKF2, 286174023, 0, 0, 0, 0, 0, 0, 482, 0, 91, 0, 0, 0, 0, 0, 0
XKF3, 286174023, 0, 0, 0, 0, 0, -0.02, 0.03, 0, 0, 0, 0.09, 0, 0, 2.520718E-06
XKF5, 286174023, 0, 0, 0, 0, 0, 0.05, 0.07, 0, 0, 0.5, 1.80509E-05, 0.001084804, 0.1332505
XKFS, 286174023, 0, 0, 0, 0, 0, 0, 0, 0, 1
XKQ, 286174023, 0, -0.05420376, 0.01430527, -0.01069116, 0.9983702
XKV1, 286174023, 0, 0.0002437271, 8.677331E-06, 8.693039E-06, 8.652778E-07, 0.1551674, 0.1552169, 0.02259794, 0.3810904, 0.3811206, 0.3083007, 4.428051E-11, 4.427038E-11
XKV2, 286174023, 0, 1.082956E-10, 6.187789E-06, 6.187805E-06, 6.191814E-08, 0, 0, 0, 0, 0, 0, 0, 0
XKF4, 286174023, 1, 0, 0, 0, 0, 0, 0.008336885, 0, 0, 0, 50, 67751, 7, 0
XKF1, 286174023, 1, 4.1, -1.8, 185.94, -0.01323029, 0.009958967, 0.01799773, -0.03242319, 0, 0, 0.1621955, -0.07, 0.02, -0.08, 0
XKF2, 286174023, 1, 0, 0, 0, 0, 0, 480, 0, 97, 0, 0, 0, 0, 0, 0
XKF3, 286174023, 1, 0, 0, 0, -0.01, 0.02, 0.03, 0, 0, 0, 0.02, 0, 0.0004999253, 3.590592E-06
XKFS, 286174023, 1, 0, 0, 0, 0, 0, 0, 0, 1
XKQ, 286174023, 1, -0.05177774, 0.009575834, -0.004780061, 0.9986013
AHR2, 286174793, 3.57, -2.07, 186.29, 0, 15.369342, 75.1235109, -0.05568573, 0.01640283, 0.03209239, 0.9977976
POS, 286174798, 15.3693415, 75.123511, 671.82, -0.02355957, -0.1578798
MOTB, 286174802, 1, 1, 1, 0.05435489, 0, 2
RCIN, 286174808, 1102, 1927, 1102, 1927, 1102, 1000, 1000, 875, 1000, 1495, 1000, 1000, 875, 875
RCI2, 286174812, 875, 875, 0, 1
RCOU, 286174818, 1000, 1000, 1000, 1000, 0, 0, 0, 0, 1495, 0, 0, 0, 0, 0
RCO2, 286174822, 0, 0, 0, 0
VIBE, 286174826, 0, 0.02732236, 0.02131596, 0.01934217, 0
VIBE, 286174826, 1, 0.07047996, 0.06276287, 0.07800901, 0
CTRL, 286174834, 0.2600364, 0.0001577579, 0.2503398, 0.0001247647, 0.04896196
IMU, 286174844, 0, -0.01395505, -0.01624316, -0.001587028, -0.267666, 0.2318908, -9.790051, 0, 0, 44.80676, 1, 1, 2022, 2022
IMU, 286174844, 1, -0.001639991, -0.00131562, -0.001947796, -0.1878472, 0.1125385, -9.806137, 0, 0, 45, 1, 1, 1999, 2045
FILE, @ROMFS/hwdef.dat, 1216, 64, C15 BMI055_A_CS CS\nPE4  BMI055_DRDY_A INPUT\nPE5  BMI055_DRDY_G I
DCM, 286176555, 3.56803, -2.073181, 186.2932, 0.1299783, 0.00415955, 0, 0, 0
EAHR, 286176574, 0, 0, 0, 0, 0, 0, 0, 0, 0, 0
FILE, @ROMFS/hwdef.dat, 1280, 64, NPUT\nPE6  ICM42688_DRDY INPUT\nPD3 SPI2_SCK SPI2\nPC2 SPI2_MISO SP
FILE, @ROMFS/hwdef.dat, 1344, 64, I2\nPC3 SPI2_MOSI SPI2\nPD4 FRAM_CS CS\nPA8  TIM1_CH1 TIM1 PWM(1) G
FILE, @ROMFS/hwdef.dat, 1408, 64, PIO(50)\nPE11 TIM1_CH2 TIM1 PWM(2) GPIO(51)\nPE13 TIM1_CH3 TIM1 PW
GPS, 286214495, 0, 3, 100585400, 2381, 6, 1.26, 15.3693411, 75.1235111, 671.38, 0.025, 108.9834, -0.212, 0, 1
GPA, 286214495, 0, 3.76, 12.34, 21.31, 1.21, 0, 1, 286202, 200, 593.37, 0, 0
IMU, 286214573, 0, -0.01374542, -0.01578652, -0.0007745667, -0.2341111, 0.2306434, -9.807381, 0, 0, 44.80676, 1, 1, 2022, 2022
IMU, 286214573, 1, -6.406059E-05, 0.002297422, -0.000828916, -0.150594, 0.09453185, -9.83239, 0, 0, 45, 1, 1, 1999, 2045
FILE, @ROMFS/hwdef.dat, 1472, 64, M(3) GPIO(52)\nPE14 TIM1_CH4 TIM1 PWM(4) GPIO(53)\nPD14 TIM4_CH3 T
SURF, 286224617, 0, 2, 0, 0, 0.3913338
SURF, 286224629, 1, 2, 0, 0, 0.3913338
FILE, @ROMFS/hwdef.dat, 1536, 64, IM4 PWM(5) GPIO(54)\nPD15 TIM4_CH4 TIM4 PWM(6) GPIO(55)\nPA0  TIM5
FILE, @ROMFS/hwdef.dat, 1600, 64, _CH1 TIM5 PWM(7) GPIO(56)\nPA1  TIM5_CH2 TIM5 PWM(8) GPIO(57)\nPD0
FILE, @ROMFS/hwdef.dat, 1664, 64,   CAN1_RX CAN1\nPD1  CAN1_TX CAN1\nPB5  CAN2_RX CAN2\nPB13 CAN2_TX 
IMU, 286254739, 0, -0.01295539, -0.01529386, 0.0005741811, -0.3101226, 0.2518455, -9.768861, 0, 0, 45.28986, 1, 1, 2022, 2022
IMU, 286254739, 1, 0.0004923384, 6.087543E-05, 0.001138913, -0.2133098, 0.138567, -9.791195, 0, 0, 45, 1, 1, 1999, 2045
STAK, 286260901, 8, 58, 2480, 1576, io
MAV, 286262061, 1, 10068, 2766, 0, 6, 0, 0
FILE, @ROMFS/hwdef.dat, 1728, 64, CAN2\nPB7 I2C1_SDA I2C1\nPB8 I2C1_SCL I2C1\nPB10 I2C2_SCL I2C2\nPB11
DSF, 286269354, 0, 2033, 90099, 152978, 204710, 179260
POWR, 286274508, 4.960776, 5.018901, 1, 1, 6
MCU, 286274508, 35.08946, 3.349098, 3.341655, 3.354879
BAT, 286274521, 0, 15.75025, 15.98324, 0.7872748, 72.4968, 1.147531, 0, 0.2959452, 97, 1, 0
MAG, 286274536, 0, -463, 53, 164, 31, 0, -44, 0, 0, 0, 1, 286274533
MAG, 286274536, 1, -632, -284, 712, 132, -200, 136, 0, 0, 0, 1, 286274535
SURF, 286274554, 0, 2, 0, 0, 0.3645703
SURF, 286274563, 1, 2, 0, 0, 0.3645703
BARO, 286274582, 0, 0.09405518, 0.09405518, 94031.07, 34.53, 0.2297401, 286274, 0, 34.49411, 1
CTUN, 286274595, 0, 0, 0, 0.5435489, 0, -0.1555008, 0.09, NaN, 0, 25.08616, 0, -1
ATT, 286274651, -20.70459, 3.399759, 22.20739, -2.308711, 186.1912, 186.235, 3
ANG, 286273899, -20.70459, 3.40124, 22.20739, -2.307414, 186.1912, 186.1912, 0.002494
RATE, 286273913, -110.3704, -0.03587621, -0.2597406, 106.2537, 0.03640886, 0.2502041, 15.56116, -0.1100992, 0.04881597, -0.4629135, -0.3763199, 0, 0
PIDR, 286274668, -1.92636, -0.000626158, -1.925734, -0.2599741, 0, 0.0002335107, 0, 0, 1, 0.1434147, 9
PIDP, 286274672, 1.854502, 0.0006354544, 1.853866, 0.2502719, 0, -6.780413E-05, 0, 0, 1, 0.1590585, 9
