FMT, 128, 89, FMT, BBnNZ, Type,Length,Name,Format,Columns
FMT, 119, 76, UNIT, QbZ, TimeUS,Id,Label
FMT, 118, 44, FMTU, QBNN, TimeUS,FmtType,UnitIds,MultIds
FMT, 120, 20, MULT, Qbd, TimeUS,Id,Mult
FMT, 32, 35, PARM, QNff, TimeUS,Name,Value,Default
FMT, 94, 51, GPS, QBBIHBcLLeffffB, TimeUS,I,Status,GMS,GWk,NSats,HDop,Lat,Lng,Alt,Spd,GCrs,VZ,Yaw,U
FMT, 95, 39, GPA, QBCCCCfBIHeHH, TimeUS,I,VDop,HAcc,VAcc,SAcc,YAcc,VV,SMS,Delta,AEl,RTCMFU,RTCMFD
FMT, 99, 22, UBX1, QBHBBHI, TimeUS,Instance,noisePerMS,jamInd,aPower,agcCnt,config
FMT, 100, 16, UBX2, QBbBbB, TimeUS,Instance,ofsI,magI,ofsQ,magQ
FMT, 96, 42, GRAW, QIHBBddfBbB, TimeUS,WkMS,Week,numSV,sv,cpMes,prMes,doMes,mesQI,cno,lli
FMT, 97, 24, GRXH, QdHbBB, TimeUS,rcvTime,week,leapS,numMeas,recStat
FMT, 98, 41, GRXS, QddfBBBHBBBBB, TimeUS,prMes,cpMes,doMes,gnss,sv,freq,lock,cno,prD,cpD,doD,trk
FMT, 101, 23, SBPH, QIII, TimeUS,CrcError,LastInject,IARhyp
FMT, 102, 67, SBRH, QQQQQQQQ, TimeUS,msg_flag,1,2,3,4,5,6
FMT, 103, 123, SBRM, QQQQQQQQQQQQQQQ, TimeUS,msg_flag,1,2,3,4,5,6,7,8,9,10,11,12,13
FMT, 104, 23, SBRE, QHIiBB, TimeUS,GWk,GMS,ns_residual,level,quality
FMT, 59, 75, MSG, QZ, TimeUS,Message
FMT, 60, 39, RCIN, QHHHHHHHHHHHHHH, TimeUS,C1,C2,C3,C4,C5,C6,C7,C8,C9,C10,C11,C12,C13,C14
FMT, 61, 18, RCI2, QHHHB, TimeUS,C15,C16,OMask,Flags
FMT, 62, 39, RCOU, QHHHHHHHHHHHHHH, TimeUS,C1,C2,C3,C4,C5,C6,C7,C8,C9,C10,C11,C12,C13,C14
FMT, 207, 19, RCO2, QHHHH, TimeUS,C15,C16,C17,C18
FMT, 208, 39, RCO3, QHHHHHHHHHHHHHH, TimeUS,C19,C20,C21,C22,C23,C24,C25,C26,C27,C28,C29,C30,C31,C32
FMT, 63, 19, RSSI, Qff, TimeUS,RXRSSI,RXLQ
FMT, 64, 43, BARO, QBfffcfIffB, TimeUS,I,Alt,AltAMSL,Press,Temp,CRt,SMS,Offset,GndTemp,Health
FMT, 65, 24, BARD, QBfff, TimeUS,I,DynPrX,DynPrY,DynPrZ
FMT, 66, 25, CANF, QBIBBBBBBBBB, TimeUS,Bus,Id,DLC,B0,B1,B2,B3,B4,B5,B6,B7
FMT, 67, 81, CAFD, QBIBQQQQQQQQ, TimeUS,Bus,Id,DLC,D0,D1,D2,D3,D4,D5,D6,D7
FMT, 196, 50, PL, QBBfffffffIIB, TimeUS,Heal,TAcq,pX,pY,vX,vY,mX,mY,mZ,LastMeasMS,EKFOutl,Est
FMT, 68, 24, POWR, QffHHB, TimeUS,Vcc,VServo,Flags,AccFlags,Safety
FMT, 69, 27, MCU, Qffff, TimeUS,MTemp,MVolt,MVmin,MVmax
FMT, 93, 46, CMD, QHHHffffLLfB, TimeUS,CTot,CNum,CId,Prm1,Prm2,Prm3,Prm4,Lat,Lng,Alt,Frame
FMT, 92, 46, MISE, QHHHffffLLfB, TimeUS,CTot,CNum,CId,Prm1,Prm2,Prm3,Prm4,Lat,Lng,Alt,Frame
FMT, 78, 48, MAVC, QBBBBBHffffiifBB, TimeUS,TS,TC,SS,SC,Fr,Cmd,P1,P2,P3,P4,X,Y,Z,Res,WL
FMT, 79, 20, RAD, QBBBBBHH, TimeUS,RSSI,RemRSSI,TxBuf,Noise,RemNoise,RxErrors,Fixed
FMT, 81, 46, CAM, QBHIHLLeeeccC, TimeUS,I,Img,GPSTime,GPSWeek,Lat,Lng,Alt,RelAlt,GPSAlt,R,P,Y
FMT, 82, 46, TRIG, QBHIHLLeeeccC, TimeUS,I,Img,GPSTime,GPSWeek,Lat,Lng,Alt,RelAlt,GPSAlt,R,P,Y
FMT, 83, 48, MNT, QBfffffffff, TimeUS,I,DRoll,Roll,DPitch,Pitch,DYawB,YawB,DYawE,YawE,Dist
FMT, 114, 41, ARSP, QBffcffBBffB, TimeUS,I,Airspeed,DiffPress,Temp,RawPress,Offset,U,H,Hp,TR,Pri
FMT, 88, 41, BAT, QBfffffcfBBB, TimeUS,Inst,Volt,VoltR,Curr,CurrTot,EnrgTot,Temp,Res,RemPct,H,SH
FMT, 89, 40, BCL, QBfHHHHHHHHHHHH, TimeUS,Instance,Volt,V1,V2,V3,V4,V5,V6,V7,V8,V9,V10,V11,V12
FMT, 113, 35, MAG, QBhhhhhhhhhBI, TimeUS,I,MagX,MagY,MagZ,OfsX,OfsY,OfsZ,MOX,MOY,MOZ,Health,S
FMT, 122, 14, MODE, QMBB, TimeUS,Mode,ModeNum,Rsn
FMT, 116, 17, RFND, QBCBBb, TimeUS,Instance,Dist,Stat,Orient,Quality
FMT, 117, 36, DMS, QIIIIBBBBBBBBB, TimeUS,N,Dp,RT,RS,Fa,Fmn,Fmx,Pa,Pmn,Pmx,Sa,Smn,Smx
FMT, 174, 41, BCN, QBBfffffff, TimeUS,Health,Cnt,D0,D1,D2,D3,PosX,PosY,PosZ
FMT, 175, 57, PRX, QBBfffffffffff, TimeUS,Layer,He,D0,D45,D90,D135,D180,D225,D270,D315,DUp,CAn,CDis
FMT, 176, 44, PRXR, QBffffffff, TimeUS,Layer,D0,D45,D90,D135,D180,D225,D270,D315
FMT, 179, 61, PM, QHHHIIHHIIIIIIQ, TimeUS,LR,NLon,NL,MaxT,Mem,Load,ErrL,InE,ErC,SPIC,I2CC,I2CI,Ex,R
FMT, 178, 29, SRTL, QBHHBfff, TimeUS,Active,NumPts,MaxPts,Action,N,E,D
FMT, 170, 48, OABR, QBBHHHBfLLiLLi, TimeUS,Type,Act,DYaw,Yaw,DP,RChg,Mar,DLt,DLg,DAlt,OLt,OLg,OAlt
FMT, 171, 31, OADJ, QBBBBLLLL, TimeUS,State,Err,CurrPoint,TotPoints,DLat,DLng,OALat,OALng
FMT, 172, 37, SA, QBffffffB, TimeUS,State,DVelX,DVelY,DVelZ,MVelX,MVelY,MVelZ,Back
FMT, 173, 21, OAVG, QBBLL, TimeUS,version,point_num,Lat,Lon
FMT, 77, 45, SIM, QccCfLLffff, TimeUS,Roll,Pitch,Yaw,Alt,Lat,Lng,Q1,Q2,Q3,Q4
FMT, 84, 38, TERR, QBLLHffHHf, TimeUS,Status,Lat,Lng,Spacing,TerrH,CHeight,Pending,Loaded,ROfs
FMT, 86, 40, ESC, QBffffcfcf, TimeUS,Instance,RPM,RawRPM,Volt,Curr,Temp,CTot,MotTemp,Err
FMT, 87, 15, EDT2, QBBBB, TimeUS,Instance,Stress,MaxStress,Status
FMT, 85, 46, CSRV, QBfffBfffffB, TimeUS,Id,Pos,Force,Speed,Pow,PosCmd,V,A,MotT,PCBT,Err
FMT, 105, 52, PIDR, QffffffffffB, TimeUS,Tar,Act,Err,P,I,D,FF,DFF,Dmod,SRate,Flags
FMT, 106, 52, PIDP, QffffffffffB, TimeUS,Tar,Act,Err,P,I,D,FF,DFF,Dmod,SRate,Flags
FMT, 107, 52, PIDY, QffffffffffB, TimeUS,Tar,Act,Err,P,I,D,FF,DFF,Dmod,SRate,Flags
FMT, 108, 52, PIDA, QffffffffffB, TimeUS,Tar,Act,Err,P,I,D,FF,DFF,Dmod,SRate,Flags
FMT, 109, 52, PIDS, QffffffffffB, TimeUS,Tar,Act,Err,P,I,D,FF,DFF,Dmod,SRate,Flags
FMT, 110, 52, PIDN, QffffffffffB, TimeUS,Tar,Act,Err,P,I,D,FF,DFF,Dmod,SRate,Flags
FMT, 111, 52, PIDE, QffffffffffB, TimeUS,Tar,Act,Err,P,I,D,FF,DFF,Dmod,SRate,Flags
FMT, 112, 56, DSTL, QBfLLeccfeffff, TimeUS,Stg,THdg,Lat,Lng,Alt,XT,Travel,L1I,Loiter,Des,P,I,D
FMT, 161, 32, ACC, QBQfff, TimeUS,I,SampleUS,AccX,AccY,AccZ
FMT, 162, 32, GYR, QBQfff, TimeUS,I,SampleUS,GyrX,GyrY,GyrZ
FMT, 163, 54, IMU, QBffffffIIfBBHH, TimeUS,I,GyrX,GyrY,GyrZ,AccX,AccY,AccZ,EG,EA,T,GH,AH,GHz,AHz
FMT, 166, 28, VIBE, QBfffI, TimeUS,IMU,VibeX,VibeY,VibeZ,Clip
FMT, 164, 31, ISBH, QHBBHHQf, TimeUS,N,type,instance,mul,smp_cnt,SampleUS,smp_rate
FMT, 165, 207, ISBD, QHHaaa, TimeUS,N,seqno,x,y,z
FMT, 129, 15, RFRH, QI, TimeUS,TF
FMT, 130, 5, RFRF, BB, FTypes,Slow
FMT, 138, 38, RFRN, IIIfIfffBBB, HLat,HLon,HAlt,E2T,AM,TX,TY,TZ,VC,EKT,Flags
FMT, 131, 4, REV2, B, Event
FMT, 132, 15, RSO2, III, Lat,Lon,Alt
FMT, 133, 11, RWA2, ff, Airspeed,uncertainty
FMT, 134, 4, REV3, B, Event
FMT, 135, 15, RSO3, III, Lat,Lon,Alt
FMT, 136, 11, RWA3, ff, Airspeed,Uncertainty
FMT, 137, 16, REY3, ffIB, yawangle,yawangleerr,timestamp_ms,type
FMT, 139, 13, RISH, HBBfBB, LR,PG,PA,LD,AC,GC
FMT, 140, 37, RISI, ffffffffBB, DVX,DVY,DVZ,DAX,DAY,DAZ,DVDT,DADT,Flags,I
FMT, 148, 5, RASH, BB, Primary,NumInst
FMT, 149, 14, RASI, fIBBB, pd,UpdateMS,H,Use,I
FMT, 141, 5, RBRH, BB, Primary,NumInst
FMT, 142, 13, RBRI, IfBB, LastUpdate,Alt,H,I
FMT, 143, 8, RRNH, hhB, GCl,MaxD,NumSensors
FMT, 144, 20, RRNI, fffHBBB, PX,PY,PZ,Dist,Orient,Status,I
FMT, 145, 5, RGPH, BB, NumInst,Primary
FMT, 146, 23, RGPI, ffffBBBB, OX,OY,OZ,Lg,Flags,Stat,NSats,I
FMT, 147, 58, RGPJ, IffffffIiiiffHB, TS,VX,VY,VZ,SA,Y,YA,YT,Lat,Lon,Alt,HA,VA,HD,I
FMT, 153, 14, RMGH, fBBBBBBB, Dec,Avail,NumInst,AutoDec,NumEna,LOE,C,FUsable
FMT, 154, 35, RMGI, IffffffBBBB, LU,OX,OY,OZ,FX,FY,FZ,UFY,H,HSF,I
FMT, 150, 33, RBCH, ffffiiiBB, PX,PY,PZ,AE,OLat,OLng,OAlt,Flags,NumInst
FMT, 151, 25, RBCI, IffffBB, LU,PX,PY,PZ,Dist,H,I
FMT, 152, 21, RVOH, fffIBB, OX,OY,OZ,Del,H,Ena
FMT, 155, 40, ROFH, ffffIffffB, FX,FY,GX,GY,Tms,PX,PY,PZ,HgtOvr,Qual
FMT, 156, 49, REPH, fffffffffIIH, PX,PY,PZ,Q1,Q2,Q3,Q4,PEr,AEr,TS,RT,D
FMT, 157, 19, RSLL, IIfI, Lat,Lng,PosAccSD,TS
FMT, 158, 25, REVH, ffffIH, VX,VY,VZ,Er,TS,D
FMT, 159, 31, RWOH, ffIffff, DA,DT,TS,PX,PY,PZ,R
FMT, 160, 53, RBOH, ffffffffIfffH, Q,DPX,DPY,DPZ,DAX,DAY,DAZ,DT,TS,OX,OY,OZ,D
FMT, 43, 37, XKF0, QBBccCCcccccccc, TimeUS,C,ID,rng,innov,SIV,TR,BPN,BPE,BPD,OFH,OFL,OFN,OFE,OFD
FMT, 44, 56, XKF1, QBccCfffffffccce, TimeUS,C,Roll,Pitch,Yaw,VN,VE,VD,dPD,PN,PE,PD,GX,GY,GZ,OH
FMT, 45, 46, XKF2, QBccccchhhhhhfff, TimeUS,C,AX,AY,AZ,VWN,VWE,MN,ME,MD,MX,MY,MZ,IDX,IDY,IS
FMT, 46, 42, XKF3, QBcccccchhhccff, TimeUS,C,IVN,IVE,IVD,IPN,IPE,IPD,IMX,IMY,IMZ,IYAW,IVT,RErr,ErSc
FMT, 47, 44, XKF4, QBcccccfffHBIHb, TimeUS,C,SV,SP,SH,SM,SVT,errRP,OFN,OFE,FS,TS,SS,GPS,PI
FMT, 48, 41, XKF5, QBBhhhcccCCfff, TimeUS,C,NI,FIX,FIY,AFI,HAGL,offset,RI,rng,Herr,eAng,eVel,ePos
FMT, 49, 36, XKFD, QBffffff, TimeUS,C,IX,IY,IZ,IVX,IVY,IVZ
FMT, 50, 29, XKFM, QBBffff, TimeUS,C,OGNM,GLR,ALR,GDR,ADR
FMT, 51, 20, XKFS, QBBBBBBBBB, TimeUS,C,MI,BI,GI,AI,SS,GPS_GTA,GPS_CHK_WAIT,MAG_FUSION
FMT, 52, 28, XKQ, QBffff, TimeUS,C,Q1,Q2,Q3,Q4
FMT, 53, 48, XKT, QBIffffffff, TimeUS,C,Cnt,IMUMin,IMUMax,EKFMin,EKFMax,AngMin,AngMax,VMin,VMax
FMT, 54, 20, XKTV, QBff, TimeUS,C,TVS,TVD
FMT, 55, 60, XKV1, QBffffffffffff, TimeUS,C,V00,V01,V02,V03,V04,V05,V06,V07,V08,V09,V10,V11
FMT, 56, 60, XKV2, QBffffffffffff, TimeUS,C,V12,V13,V14,V15,V16,V17,V18,V19,V20,V21,V22,V23
FMT, 57, 60, XKY0, QBffffffffffff, TimeUS,C,YC,YCS,Y0,Y1,Y2,Y3,Y4,W0,W1,W2,W3,W4
FMT, 58, 52, XKY1, QBffffffffff, TimeUS,C,IVN0,IVN1,IVN2,IVN3,IVN4,IVE0,IVE1,IVE2,IVE3,IVE4
FMT, 41, 60, NKY0, QBffffffffffff, TimeUS,C,YC,YCS,Y0,Y1,Y2,Y3,Y4,W0,W1,W2,W3,W4
FMT, 42, 52, NKY1, QBffffffffff, TimeUS,C,IVN0,IVN1,IVN2,IVN3,IVN4,IVE0,IVE1,IVE2,IVE3,IVE4
FMT, 70, 45, AHR2, QccCfLLffff, TimeUS,Roll,Pitch,Yaw,Alt,Lat,Lng,Q1,Q2,Q3,Q4
FMT, 181, 12, EV, QB, TimeUS,Id
EV, 102917515, 56
FMT, 71, 19, AOA, Qff, TimeUS,AOA,SSA
FMT, 72, 36, ATT, QffffffB, TimeUS,DesRoll,Roll,DesPitch,Pitch,DesYaw,Yaw,AEKF
FMT, 73, 24, ORGN, QBLLe, TimeUS,Type,Lat,Lng,Alt
FMT, 74, 31, POS, QLLfff, TimeUS,Lat,Lng,Alt,RelHomeAlt,RelOriginAlt
FMT, 76, 35, ATSC, Qffffff, TimeUS,AngPScX,AngPScY,AngPScZ,PDScX,PDScY,PDScZ
FMT, 204, 51, VSTB, Qffffffffff, TimeUS,GyrX,GyrY,GyrZ,AccX,AccY,AccZ,Q1,Q2,Q3,Q4
FMT, 90, 38, MON, QIbIHHHHHII, TimeUS,Dly,Tsk,IErr,IErrCnt,IErrLn,MM,MC,SmLn,SPICnt,I2CCnt
FMT, 91, 47, WDOG, QbIHHHHHHHIBIIn, TimeUS,Tsk,IE,IEC,IEL,MvMsg,MvCmd,SmLn,FL,FT,FA,FP,ICSR,LR,TN
FMT, 210, 20, UART, QBff, TimeUS,I,Tx,Rx
FMT, 115, 21, RPM, QBffB, TimeUS,I,RPM,Qual,H
FMT, 209, 27, FNCE, QBBBLLBf, TimeUS,Tot,Seq,Type,Lat,Lng,Count,Radius
FMT, 177, 33, DSF, QIHIIII, TimeUS,Dp,Blk,Bytes,FMn,FMx,FAv
FMT, 121, 24, RALY, QBBLLhB, TimeUS,Tot,Seq,Lat,Lng,Alt,Flags
FMT, 183, 23, MAV, QBHHHBHH, TimeUS,chan,txp,rxp,rxdp,flags,ss,tf
FMT, 167, 43, VISO, Qffffffff, TimeUS,dt,AngDX,AngDY,AngDZ,PosDX,PosDY,PosDZ,conf
FMT, 168, 58, VISP, QQIffffffffBBb, TimeUS,RTimeUS,CTimeMS,PX,PY,PZ,R,P,Y,PErr,AErr,Rst,Ign,Q
FMT, 169, 42, VISV, QQIffffBBb, TimeUS,RTimeUS,CTimeMS,VX,VY,VZ,VErr,Rst,Ign,Q
FMT, 180, 28, OF, QBffff, TimeUS,Qual,flowX,flowY,bodyX,bodyY
FMT, 182, 21, WENC, Qfbfb, TimeUS,Dist0,Qual0,Dist1,Qual1
FMT, 185, 35, ADSB, QIiiiHHhH, TimeUS,ICAO_address,Lat,Lng,Alt,Heading,Hor_vel,Ver_vel,Squark
FMT, 186, 18, ARM, QBIBB, TimeUS,ArmState,ArmChecks,Forced,Method
FMT, 184, 13, ERR, QBB, TimeUS,Subsys,ECode
FMT, 187, 35, WINC, QBBBBBfffHfb, TimeUS,Heal,ThEnd,Mov,Clut,Mode,DLen,Len,DRate,Tens,Vcc,Temp
FMT, 188, 47, PSCN, Qfffffffff, TimeUS,DPN,TPN,PN,DVN,TVN,VN,DAN,TAN,AN
FMT, 189, 47, PSCE, Qfffffffff, TimeUS,DPE,TPE,PE,DVE,TVE,VE,DAE,TAE,AE
FMT, 190, 47, PSCD, Qfffffffff, TimeUS,DPD,TPD,PD,DVD,TVD,VD,DAD,TAD,AD
FMT, 191, 35, PSON, Qffffff, TimeUS,TPON,PON,TVON,VON,TAON,AON
FMT, 192, 35, PSOE, Qffffff, TimeUS,TPOE,POE,TVOE,VOE,TAOE,AOE
FMT, 193, 35, PSOD, Qffffff, TimeUS,TPOD,POD,TVOD,VOD,TAOD,AOD
FMT, 194, 35, PSOT, Qffffff, TimeUS,TPOT,POT,TVOT,VOT,TAOT,AOT
FMT, 75, 63, RATE, Qfffffffffffff, TimeUS,RDes,R,ROut,PDes,P,POut,YDes,Y,YOut,ADes,A,AOut,AOutSlew
FMT, 195, 39, ANG, Qfffffff, TimeUS,DesRoll,Roll,DesPitch,Pitch,DesYaw,Yaw,Dt
FMT, 201, 33, STAK, QBBHHN, TimeUS,Id,Pri,Total,Free,Name
FMT, 202, 88, FILE, NIBZ, FileName,Offset,Length,Data
FMT, 197, 78, AISR, QBBBZ, TimeUS,num,total,ID,payload
FMT, 198, 41, AIS1, QBBIBbHbLLHHBBbI, US,typ,rep,mmsi,nav,rot,sog,pos,lon,lat,cog,hed,sec,man,raim,rad
FMT, 199, 38, AIS4, QBIHBBBBBBLLBBI, US,rep,mmsi,year,mth,day,h,m,s,fix,lon,lat,epfd,raim,rad
FMT, 200, 175, AIS5, QBIBINZBHHBBBBZB, US,rep,mmsi,ver,imo,cal,nam,typ,bow,stn,prt,str,fix,dght,dst,dte
FMT, 203, 39, SCR, QNIii, TimeUS,Name,Runtime,Total_mem,Run_mem
FMT, 206, 90, VER, QBHBBBBIZHBB, TimeUS,BT,BST,Maj,Min,Pat,FWT,GH,FWS,APJ,BU,FV
FMT, 205, 32, MOTB, QfffffB, TimeUS,LiftMax,BatVolt,ThLimit,ThrAvMx,ThrOut,FailFlags
FMT, 6, 24, PTUN, QBfff, TimeUS,Param,TunVal,TunMin,TunMax
FMT, 0, 55, CTUN, Qffffffefffhh, TimeUS,ThI,ABst,ThO,ThH,DAlt,Alt,BAlt,DSAlt,SAlt,TAlt,DCRt,CRt
FMT, 1, 14, D16, QBh, TimeUS,Id,Value
FMT, 2, 14, DU16, QBH, TimeUS,Id,Value
FMT, 3, 16, D32, QBi, TimeUS,Id,Value
FMT, 4, 16, DU32, QBI, TimeUS,Id,Value
FMT, 5, 16, DFLT, QBf, TimeUS,Id,Value
FMT, 9, 47, SIDD, Qfffffffff, TimeUS,Time,Targ,F,Gx,Gy,Gz,Ax,Ay,Az
FMT, 10, 40, SIDS, QBfffffff, TimeUS,Ax,Mag,FSt,FSp,TFin,TC,TR,TFout
FMT, 8, 49, GUIP, QBfffbffffff, TimeUS,Type,pX,pY,pZ,Terrain,vX,vY,vZ,aX,aY,aZ
FMT, 11, 44, GUIA, QBffffffff, TimeUS,Type,Roll,Pitch,Yaw,RollRt,PitchRt,YawRt,Thrust,ClimbRt
FMT, 249, 25, SURF, QBBfff, TimeUS,I,St,D,FD,TO
SURF, 102920622, 0, 2, 0, 0, 0.5696958
SURF, 102920659, 1, 2, 0, 0, 0.5696958
IMU, 102930393, 0, -0.003036012, -0.01828803, -0.003108357, 0.3229207, 0.8034354, -9.844261, 0, 0, 44.80676, 1, 1, 2022, 2022
IMU, 102930393, 1, -0.001315547, -0.001375956, -0.002381721, 0.3380729, 0.775812, -9.781009, 0, 0, 45, 1, 1, 1999, 2045
POWR, 102970558, 4.945871, 0, 1, 1, 2
MCU, 102970558, 40.25845, 3.347973, 3.339834, 3.354173
BAT, 102970590, 0, 14.81541, 15.08111, 1.260921, 36.38245, 0.5429646, 0, 0.2107141, 98, 1, 0
MAG, 102970615, 0, -60, -113, 311, -382, 367, 647, 0, 0, 0, 1, 102970614
MAG, 102970615, 1, 256, -391, 144, 59, 22, -40, 0, 0, 0, 1, 102970612
SURF, 102970666, 0, 2, 0, 0, 0.5691561
SURF, 102970676, 1, 2, 0, 0, 0.5691561
BARO, 102970697, 0, 0.576355, 0.576355, 93308.91, 41.12, 0.02101898, 102970, 0, 35, 1
CTUN, 102970711, 0, 0, 0, 0.431117, 0, 0.5588072, 0.57, NaN, 0, 13.18734, 0, 0
ATT, 102970832, -8.181163E-05, -4.567446, 0.0003235507, 1.845161, 106.5921, 106.5921, 3
ANG, 102969977, -8.181163E-05, -4.567445, 0.0003235507, 1.845161, 106.5921, 106.5921, 0.002492
RATE, 102969993, 20.54662, 0.036952, 0.04843768, -8.313031, -0.001622597, -0.01949026, -0.3313018, -0.1004749, 3.738792E-05, 0, 0.6455421, 0, 0
PIDR, 102970852, 0.3586403, 0.0006449341, 0.3579954, 0.04832938, 0, 0.0001083069, 0, 0, 1, 0.02501788, 9
PIDP, 102970857, -0.1450933, -2.831966E-05, -0.145065, -0.01958377, 0, 9.351871E-05, 0, 0, 1, 0.03179549, 9
PIDY, 102970861, -0.005783333, -0.001753618, 0.0002077107, 3.738792E-05, 0, 0, 0, 0, 1, 0.01347537, 9
PIDA, 102970865, 0, 0, 0, 0, 0, 0, 0, 0, 0, 0, 0
XKF4, 102970139, 0, 0, 0, 0, 0.08, 0, 0.008849054, 0, 0, 0, 50, 65703, 7, 0
XKF1, 102970139, 0, -4.56, 1.84, 106.59, -0.1196383, -0.02170208, 0.004188985, -0.001444537, 0, 0, -0.5588072, -0.18, -1.1, 0.32, 0
XKF2, 102970139, 0, 0, 0, -0.07, 0, 0, 149, 0, 282, 0, 0, 0, 0, 0, 0
XKF3, 102970139, 0, 0, 0, 0, -0.24, -0.02, 0.05, 0, 0, 0, -7.31, 0, 0, 2.521531E-05
XKF5, 102970139, 0, 0, 0, 0, 0, 0.75, 0.19, 0, 0, 0.5, 0.001325683, 0.003289839, 0.008699876
XKFS, 102970139, 0, 0, 0, 0, 0, 0, 0, 0, 1
XKQ, 102970139, 0, 0.5966141, -0.03671202, -0.02232748, 0.8013772
XKF4, 102970139, 1, 0, 0, 0, 0.08, 0, 0.008832947, 0, 0, 0, 50, 65703, 7, 0
XKF1, 102970139, 1, -4.55, 1.97, 106.44, -0.05813935, -0.07224631, 0.008817125, -0.001468341, 0, 0, -0.5488065, -0.07, -0.08, 0.39, 0
XKF2, 102970139, 1, 0, 0, -0.01, 0, 0, 148, 0, 282, 0, 0, 0, 0, 0, 0
XKF3, 102970139, 1, 0, 0, 0, -0.11, -0.12, 0.06, 0, 0, 0, -7, 0, 0.002542027, 3.508235E-05
XKFS, 102970139, 1, 0, 0, 0, 0, 0, 0, 0, 1
XKQ, 102970139, 1, 0.5975899, -0.03757486, -0.02149375, 0.8006325
AHR2, 102970957, -4.54, -1.13, 114.21, 0.61, 15.3693354, 75.1236852, 0.5429335, -0.0132095, -0.03862613, 0.8387829
POS, 102970965, 15.3693354, 75.1236845, 659.71, 0.576355, 0.5588072
MOTB, 102970971, 1, 1, 1, 0.0431117, 0, 2
RCIN, 102970979, 1515, 1515, 1515, 1515, 1206, 2000, 1000, 1000, 1000, 1000, 1000, 875, 875, 875
RCI2, 102970984, 875, 875, 0, 1
RCOU, 102970991, 1000, 1000, 1000, 1000, 0, 0, 0, 0, 1000, 0, 0, 0, 0, 0
RCO2, 102970995, 0, 0, 0, 0
VIBE, 102971001, 0, 0.02091405, 0.01454988, 0.009584421, 0
VIBE, 102971001, 1, 0.06785141, 0.06322984, 0.07557174, 0
FMT, 246, 31, CTRL, Qfffff, TimeUS,RMSRollP,RMSRollD,RMSPitchP,RMSPitchD,RMSYaw
CTRL, 102971013, 0.04839729, 0.0001157784, 0.01964119, 0.0001380037, 0.0001661669
IMU, 102971064, 0, -0.00255189, -0.01938197, 0.003999749, 0.3415131, 0.8148379, -9.849473, 0, 0, 44.80676, 1, 1, 2022, 2022
IMU, 102971064, 1, -0.0009226474, -0.001165066, 0.005572723, 0.3372619, 0.7960274, -9.79077, 0, 0, 45, 1, 1, 1999, 2045
FMT, 252, 43, DCM, Qffffffff, TimeUS,Roll,Pitch,Yaw,ErrRP,ErrYaw,VWN,VWE,VWD
DCM, 102972567, -4.550627, -1.134911, 114.2167, 0.2439687, 0.1622908, 0, 0, 0
FMT, 251, 51, EAHR, QffffffLLfI, TimeUS,Roll,Pitch,Yaw,VN,VE,VD,Lat,Lon,Alt,Flg
EAHR, 102972611, 0, 0, 0, 0, 0, 0, 0, 0, 0, 0
MSG, 103006289, ArduCopter V4.6.2 (1ebd4d99)
MSG, 103006297, ChibiOS: 88b84600
VER, 103006303, 10, 5009, 4, 6, 2, 255, 515722649, ArduCopter V4.6.2 (1ebd4d99), 56, 2, 2
MSG, 103006316, Pixhawk6C 003D0048 3133510F 31343630
MSG, 103006325, Param space used: 938/5376
MSG, 103006333, RC Protocol: SBUS
MSG, 103006350, RCOut: PWM:1-16
MSG, 103006356, New mission
CMD, 103008256, 4, 0, 16, 0, 0, 0, 0, 0, 0, 0, 0
CMD, 103008309, 4, 1, 22, 1, 0, 0, 0, 0, 0, 10, 3
CMD, 103008328, 4, 2, 16, 10, 0, 0, 0, 15.367361, 75.1254623, 10, 3
CMD, 103008336, 4, 3, 20, 0, 0, 0, 0, 0, 0, 0, 0
MSG, 103008341, New rally
MSG, 103008347, New fence
FNCE, 103008360, 10, 0, 98, 15.3694775, 75.1243937, 10, 0
FNCE, 103008367, 10, 1, 98, 15.3694025, 75.1246646, 10, 0
FNCE, 103008373, 10, 2, 98, 15.3694775, 75.1248684, 10, 0
FNCE, 103008378, 10, 3, 98, 15.3696456, 75.1249086, 10, 0
FNCE, 103008384, 10, 4, 98, 15.3699042, 75.1248443, 10, 0
FNCE, 103008391, 10, 5, 98, 15.3702533, 75.1247826, 10, 0
FNCE, 103008397, 10, 6, 98, 15.3703154, 75.1244822, 10, 0
FNCE, 103008405, 10, 7, 98, 15.3700982, 75.124281, 10, 0
FNCE, 103008413, 10, 8, 98, 15.3698292, 75.1241469, 10, 0
FNCE, 103008421, 10, 9, 98, 15.3695111, 75.1241147, 10, 0
MSG, 103008432, Frame: QUAD/X
MODE, 103008438, Stabilize, 0, 1
MSG, 103008447, GPS 1: probing for u-blox at 230400 baud
MSG, 103008457, u-blox 1 HW: 00190000 SW: EXT CORE 4.04 (7f89f7)
STAK, 103009385, 3, 60, 752, 480, OTG1
IMU, 103010950, 0, -0.002323143, -0.01843948, -0.0006199177, 0.2800612, 0.833073, -9.840405, 0, 0, 45.28986, 1, 1, 2022, 2022
IMU, 103010950, 1, -0.00119523, -0.001878971, 0.0007072839, 0.2943592, 0.8192034, -9.789912, 0, 0, 45, 1, 1, 1999, 2045
SURF, 103020645, 0, 2, 0, 0, 0.5686507
SURF, 103020655, 1, 2, 0, 0, 0.5686507
IMU, 103050422, 0, -0.002872186, -0.01879745, -0.004143938, 0.3397641, 0.7786513, -9.847798, 0, 0, 44.80676, 1, 1, 2022, 2022
IMU, 103050422, 1, -0.0004271921, -0.001547261, -0.001325271, 0.3341941, 0.7745971, -9.788615, 0, 0, 45, 1, 1, 1999, 2045
POWR, 103070550, 4.958459, 0, 1, 1, 2
MCU, 103070550, 40.25845, 3.348395, 3.338854, 3.354032
BAT, 103070565, 0, 14.81063, 15.07837, 1.270625, 36.41774, 0.5434874, 0, 0.2107141, 98, 1, 0
MAG, 103070576, 0, -53, -118, 342, -382, 367, 647, 0, 0, 0, 1, 103070574
MAG, 103070576, 1, 255, -391, 146, 59, 22, -40, 0, 0, 0, 1, 103070573
SURF, 103070595, 0, 2, 0, 0, 0.5681702
SURF, 103070604, 1, 2, 0, 0, 0.5681702
BARO, 103070625, 0, 0.4616699, 0.4616699, 93310.21, 41.12, 0.005435945, 103070, 0, 35, 1
CTUN, 103070638, 0, 0, 0, 0.431117, 0, 0.5586686, 0.46, NaN, 0, 13.18734, 0, 0
ATT, 103070723, -8.18117E-05, -4.574142, 0.0003235508, 1.846285, 106.5949, 106.5949, 3
ANG, 103069977, -8.18117E-05, -4.574142, 0.0003235508, 1.846285, 106.5949, 106.5949, 0.0025
RATE, 103069989, 20.57678, 0.04855422, 0.04839219, -8.318144, 0.03613405, -0.01961581, -0.3320389, -0.4190815, 0.000282509, 0, 0.8991241, 0, 0
PIDR, 103070761, 0.3590284, 0.0008474311, 0.358181, 0.04835444, 0, 3.775757E-05, 0, 0, 1, 0.02609629, 9
PIDP, 103070766, -0.1451536, 0.0006306581, -0.1457843, -0.01968088, 0, 6.506686E-05, 0, 0, 1, 0.03289035, 9
PIDY, 103070770, -0.005791983, -0.007314353, 0.001569495, 0.000282509, 0, 0, 0, 0, 1, 0.01309273, 9
PIDA, 103070775, 0, 0, 0, 0, 0, 0, 0, 0, 0, 0, 0
XKF4, 103070085, 0, 0, 0.03, 0, 0.14, 0, 0.008368805, 0, 0, 0, 50, 65703, 7, 0
XKF1, 103070085, 0, -4.57, 1.84, 106.59, -0.1083698, -0.02118077, 0.004550257, -0.001958566, 0, 0, -0.5586686, -0.18, -1.1, 0.32, 0
XKF2, 103070085, 0, 0, 0, -0.07, 0, 0, 149, 0, 282, 0, 0, 0, 0, 0, 0
XKF3, 103070085, 0, 0, 0, 0, -0.26, -0.02, 0.01, 0, 0, 0, -12.31, 0, 0, 2.521531E-05
XKF5, 103070085, 0, 0, 0, 0, 0, 0.75, 0.19, 0, 0, 0.5, 0.001747849, 0.03858513, 0.07436794
XKFS, 103070085, 0, 0, 0, 0, 0, 0, 0, 0, 1
XKQ, 103070085, 0, 0.5965916, -0.03675418, -0.02236936, 0.8013908
XKF4, 103070085, 1, 0, 0.02, 0, 0.13, 0, 0.008352091, 0, 0, 0, 50, 65703, 7, 0
XKF1, 103070085, 1, -4.55, 1.96, 106.45, -0.05440941, -0.06874838, 0.007567488, -0.005527993, 0, 0, -0.5490596, -0.07, -0.08, 0.39, 0
XKF2, 103070085, 1, 0, 0, -0.01, 0, 0, 148, 0, 282, 0, 0, 0, 0, 0, 0
XKF3, 103070085, 1, 0, 0, 0, -0.11, -0.13, 0.02, 0, 0, 0, -12.05, 0, 0.002542027, 3.508235E-05
XKFS, 103070085, 1, 0, 0, 0, 0, 0, 0, 0, 1
XKQ, 103070085, 1, 0.5975576, -0.03754279, -0.02155257, 0.8006566
AHR2, 103070934, -4.89, -1.16, 114.28, 0.57, 15.3693354, 75.1236856, 0.5423599, -0.01465556, -0.04135378, 0.8389999
POS, 103070940, 15.3693354, 75.1236845, 659.71, 0.4616699, 0.5586686
MOTB, 103070946, 1, 1, 1, 0.0431117, 0, 2
RCIN, 103070953, 1515, 1515, 1515, 1515, 1206, 2000, 1000, 1000, 1000, 1000, 1000, 875, 875, 875
RCI2, 103070957, 875, 875, 0, 1
RCOU, 103070967, 1000, 1000, 1000, 1000, 0, 0, 0, 0, 1000, 0, 0, 0, 0, 0
RCO2, 103070972, 0, 0, 0, 0
VIBE, 103070978, 0, 0.0243304, 0.01961715, 0.01015945, 0
VIBE, 103070978, 1, 0.06679718, 0.06432161, 0.07941767, 0
CTRL, 103070988, 0.0483868, 0.000122569, 0.01964036, 0.0001386423, 0.0001662548
DCM, 103072567, -4.902426, -1.161881, 114.2902, 0.2439687, 0.1618956, 0, 0, 0
EAHR, 103072591, 0, 0, 0, 0, 0, 0, 0, 0, 0, 0
GPS, 103090489, 0, 3, 38806600, 2380, 7, 1.17, 15.3693358, 75.1236849, 659.42, 0.194, 303.1955, -0.165, 0, 1
GPA, 103090489, 0, 2.73, 5.72, 9.22, 1.18, 0, 1, 103069, 200, 581.41, 0, 0
IMU, 103090550, 0, -0.002814683, -0.01884082, 0.0007122777, 0.3010484, 0.8115314, -9.840014, 0, 0, 44.80676, 1, 1, 2022, 2022
IMU, 103090550, 1, -0.001735311, 0.001317471, 0.001849951, 0.2884801, 0.814456, -9.785302, 0, 0, 45, 1, 1, 1999, 2045
STAK, 103100486, 4, 183, 1456, 1096, monitor
RAD, 103117857, 69, 0, 100, 95, 0, 0, 0
SURF, 103120673, 0, 2, 0, 0, 0.5677063
SURF, 103120683, 1, 2, 0, 0, 0.5677063
IMU, 103130460, 0, -0.002558369, -0.0185688, 0.001302264, 0.3196342, 0.8357128, -9.829929, 0, 0, 44.80676, 1, 1, 2022, 2022
IMU, 103130460, 1, -0.0009717662, 0.001763434, 0.002083796, 0.3296143, 0.8064315, -9.758787, 0, 0, 45, 1, 1, 1999, 2045
POWR, 103170542, 4.953021, 0, 1, 1, 2
MCU, 103170542, 40.21869, 3.348958, 3.342355, 3.354597
BAT, 103170557, 0, 14.82255, 15.09032, 1.268611, 36.45298, 0.5440097, 0, 0.2110679, 98, 1, 0
MAG, 103170568, 0, -52, -117, 338, -382, 367, 647, 0, 0, 0, 1, 103170566
MAG, 103170568, 1, 255, -391, 145, 59, 22, -40, 0, 0, 0, 1, 103170565
SURF, 103170587, 0, 2, 0, 0, 0.5672303
SURF, 103170596, 1, 2, 0, 0, 0.5672303
BARO, 103170617, 0, 0.5557861, 0.5557861, 93309.14, 41.13, -0.1166916, 103170, 0, 35, 1
CTUN, 103170631, 0, 0, 0, 0.431117, 0, 0.5567822, 0.55, NaN, 0, 12.89435, 0, 0
ATT, 103170692, -8.181173E-05, -4.587826, 0.0003235507, 1.849988, 106.6091, 106.6091, 3
ANG, 103169979, -8.181173E-05, -4.587826, 0.0003235507, 1.849988, 106.6091, 106.6091, 0.002498
RATE, 103169994, 20.63835, -0.009351715, 0.04889171, -8.334888, 0.0178809, -0.01949673, -0.3336578, -0.5014731, 0.0001166371, 0, 0.8444786, 0, 0
PIDR, 103170711, 0.3600531, -0.0001632182, 0.3602163, 0.0486292, 0, 0.0002625083, 0, 0, 1, 0.02704675, 9
PIDP, 103170739, -0.145486, 0.0003120806, -0.1457981, -0.01968274, 0, 0.0001860127, 0, 0, 1, 0.0338304, 9
PIDY, 103170765, -0.005821636, -0.008752358, 0.0006479836, 0.0001166371, 0, 0, 0, 0, 1, 0.01235527, 9
PIDA, 103170780, 0, 0, 0, 0, 0, 0, 0, 0, 0, 0, 0
XKF4, 103170087, 0, 0, 0.02, 0, 0.08, 0, 0.00816946, 0, 0, 0, 50, 65703, 7, 0
XKF1, 103170087, 0, -4.58, 1.84, 106.6, -0.08985513, -0.02024802, 0.005392392, 0.01335833, 0, 0, -0.5567822, -0.18, -1.1, 0.32, 0
XKF2, 103170087, 0, 0, 0, -0.07, 0, 0, 149, 0, 282, 0, 0, 0, 0, 0, 0
XKF3, 103170087, 0, 0, 0, 0, -0.16, -0.01, -0.09, 0, 0, 0, -7.42, 0, 0, 2.521531E-05
XKF5, 103170087, 0, 0, 0, 0, 0, 0.75, 0.19, 0, 0, 0.5, 0.001632141, 0.04465252, 0.0904054
XKFS, 103170087, 0, 0, 0, 0, 0, 0, 0, 0, 1
XKQ, 103170087, 0, 0.5964867, -0.03684851, -0.0224503, 0.8014622
XKV1, 103170087, 0, 0.0002052167, 7.990927E-06, 8.166086E-06, 9.277029E-05, 0.1260008, 0.1265746, 0.01812668, 0.3191025, 0.3195294, 0.1898687, 4.317839E-11, 4.364575E-11
XKV2, 103170087, 0, 1.2917E-10, 6.185721E-06, 6.182302E-06, 6.190711E-08, 0, 0, 0, 0, 0, 0, 0, 0
XKF4, 103170087, 1, 0, 0.01, 0, 0.08, 0, 0.008151788, 0, 0, 0, 50, 65703, 7, 0
XKF1, 103170087, 1, -4.56, 1.97, 106.46, -0.04636103, -0.06023395, 0.007703971, 0.005981552, 0, 0, -0.5480399, -0.07, -0.08, 0.39, 0
XKF2, 103170087, 1, 0, 0, -0.01, 0, 0, 148, 0, 282, 0, 0, 0, 0, 0, 0
XKF3, 103170087, 1, 0, 0, 0, -0.07, -0.08, -0.09, 0, 0, 0, -7.15, 0, 0.002542027, 3.508235E-05
XKFS, 103170087, 1, 0, 0, 0, 0, 0, 0, 0, 1
XKQ, 103170087, 1, 0.5974512, -0.03759699, -0.02159809, 0.8007323
AHR2, 103170878, -4.97, -1.14, 114.33, 0.46, 15.369336, 75.1236847, 0.5419765, -0.01511634, -0.04188889, 0.8392129
POS, 103170884, 15.3693358, 75.1236849, 659.42, 0.5557861, 0.5567822
MOTB, 103170890, 1, 1, 1, 0.0431117, 0, 2
RCIN, 103170897, 1515, 1515, 1515, 1515, 1206, 2000, 1000, 1000, 1000, 1000, 1000, 875, 875, 875
RCI2, 103170901, 875, 875, 0, 1
RCOU, 103170908, 1000, 1000, 1000, 1000, 0, 0, 0, 0, 1000, 0, 0, 0, 0, 0
RCO2, 103170912, 0, 0, 0, 0
VIBE, 103170918, 0, 0.02069377, 0.02048164, 0.01442137, 0
VIBE, 103170918, 1, 0.06955597, 0.06857628, 0.07643624, 0
CTRL, 103170928, 0.04841253, 0.0001192358, 0.01966031, 0.0001360682, 0.0001541418
IMU, 103170954, 0, -0.003330587, -0.01905317, -0.003028334, 0.3212648, 0.7849842, -9.854546, 0, 0, 44.80676, 1, 1, 2022, 2022
IMU, 103170954, 1, -0.0006734915, 7.774838E-05, -0.00126414, 0.3477803, 0.7843845, -9.801359, 0, 0, 45, 1, 1, 1999, 2045
DCM, 103172602, -4.974581, -1.147392, 114.3398, 0.2056085, 0.1605656, 0, 0, 0
EAHR, 103172640, 0, 0, 0, 0, 0, 0, 0, 0, 0, 0
STAK, 103201662, 5, 181, 1968, 1520, timer
IMU, 103210914, 0, -0.003427433, -0.01882144, 0.002320311, 0.3362238, 0.825958, -9.848098, 0, 0, 44.80676, 1, 1, 2022, 2022
IMU, 103210914, 1, -0.001107919, -0.0004326897, 0.003532968, 0.3521716, 0.8177612, -9.775461, 0, 0, 45, 1, 1, 1999, 2045
SURF, 103220658, 0, 2, 0, 0, 0.5667202
SURF, 103220681, 1, 2, 0, 0, 0.5667202
IMU, 103250444, 0, -0.003098163, -0.01808271, -0.0004363177, 0.2814463, 0.8346393, -9.841374, 0, 0, 44.80676, 1, 1, 2022, 2022
IMU, 103250444, 1, -0.001744475, -0.0004995099, 0.0008586689, 0.2906226, 0.8283484, -9.767779, 0, 0, 45, 1, 1, 1999, 2045
POWR, 103270538, 4.99129, 0, 1, 1, 2
MCU, 103270538, 40.21869, 3.348817, 3.341374, 3.354597
BAT, 103270556, 0, 14.86173, 15.14001, 1.318411, 36.48961, 0.544554, 0, 0.2110679, 98, 1, 0
MAG, 103270581, 0, -29, -113, 349, -382, 367, 647, 0, 0, 0, 1, 103270566
MAG, 103270581, 1, 256, -391, 136, 59, 22, -40, 0, 0, 0, 1, 103270564
SURF, 103270614, 0, 2, 0, 0, 0.5661806
SURF, 103270623, 1, 2, 0, 0, 0.5661806
BARO, 103270663, 0, 0.6028442, 0.6028442, 93308.62, 41.13, -0.2076721, 103270, 0, 35, 1
CTUN, 103270676, 0, 0, 0, 0.431117, 0, 0.554601, 0.6, NaN, 0, 12.89435, 0, 0
ATT, 103270730, -8.181175E-05, -4.600922, 0.0003235507, 1.854438, 106.6187, 106.6187, 3
ANG, 103269977, -8.181175E-05, -4.600922, 0.0003235507, 1.854438, 106.6187, 106.6187, 0.002493
RATE, 103269993, 20.69724, 0.04815594, 0.0485835, -8.354993, 0.03347721, -0.0196503, -0.3353745, -0.4811385, 8.113977E-06, 0, -0.3905296, 0, 0
PIDR, 103270819, 0.3611528, 0.0008404797, 0.3603123, 0.04864216, 0, -5.865894E-05, 0, 0, 1, 0.0282784, 9
PIDP, 103270824, -0.1458079, 0.0005842876, -0.1463922, -0.01976294, 0, 0.000112638, 0, 0, 1, 0.03463181, 9
PIDY, 103270828, -0.005852109, -0.008397451, 4.507765E-05, 8.113977E-06, 0, 0, 0, 0, 1, 0.0116881, 9
PIDA, 103270832, 0, 0, 0, 0, 0, 0, 0, 0, 0, 0, 0
XKF4, 103270124, 0, 0, 0.02, 0, 0.08, 0, 0.008083027, 0, 0, 0, 50, 65703, 7, 0
XKF1, 103270124, 0, -4.6, 1.85, 106.61, -0.07252847, -0.01890649, 0.006362477, 0.02593505, 0, 0, -0.554601, -0.18, -1.1, 0.32, 0
XKF2, 103270124, 0, 0, 0, -0.07, 0, 0, 149, 0, 282, 0, 0, 0, 0, 0, 0
XKF3, 103270124, 0, 0, 0, 0, -0.12, -0.01, 0, 0, 0, 0, -7.07, 0, 0, 2.521531E-05
XKF5, 103270124, 0, 0, 0, 0, 0, 0.74, 0.19, 0, 0, 0.5, 0.001345786, 0.03970269, 0.08427051
XKFS, 103270124, 0, 0, 0, 0, 0, 0, 0, 0, 1
XKQ, 103270124, 0, 0.596414, -0.0369459, -0.02252178, 0.8015099
XKF4, 103270124, 1, 0, 0.01, 0, 0.07, 0, 0.008065438, 0, 0, 0, 50, 65703, 7, 0
XKF1, 103270124, 1, -4.57, 1.96, 106.46, -0.03932476, -0.05147954, 0.009225014, 0.01859555, 0, 0, -0.5464792, -0.07, -0.08, 0.39, 0
XKF2, 103270124, 1, 0, 0, -0.01, 0, 0, 148, 0, 282, 0, 0, 0, 0, 0, 0
XKF3, 103270124, 1, 0, 0, 0, -0.05, -0.06, 0, 0, 0, 0, -6.83, 0, 0.002542027, 3.508235E-05
XKFS, 103270124, 1, 0, 0, 0, 0, 0, 0, 0, 1
XKQ, 103270124, 1, 0.5974221, -0.03761608, -0.02166161, 0.8007513
AHR2, 103270919, -4.97, -1.12, 114.38, 0.55, 15.3693362, 75.1236846, 0.5416148, -0.01531091, -0.04180421, 0.8394471
POS, 103270924, 15.3693358, 75.1236849, 659.42, 0.6028442, 0.554601
MOTB, 103270931, 1, 1, 1, 0.0431117, 0, 2
RCIN, 103270940, 1515, 1515, 1515, 1515, 1206, 2000, 1000, 1000, 1000, 1000, 1000, 875, 875, 875
RCI2, 103270944, 875, 875, 0, 1
RCOU, 103270952, 1000, 1000, 1000, 1000, 0, 0, 0, 0, 1000, 0, 0, 0, 0, 0
RCO2, 103270956, 0, 0, 0, 0
VIBE, 103270961, 0, 0.03526665, 0.0242705, 0.01487112, 0
VIBE, 103270961, 1, 0.07480161, 0.06900285, 0.07394924, 0
CTRL, 103270971, 0.04849868, 0.00013243, 0.01968905, 0.0001308132, 0.0001388728
DCM, 103272566, -4.978872, -1.121438, 114.388, 0.2056085, 0.1329908, 0, 0, 0
EAHR, 103272591, 0, 0, 0, 0, 0, 0, 0, 0, 0, 0
GPS, 103290480, 0, 3, 38806800, 2380, 7, 1.17, 15.3693355, 75.1236853, 659.23, 0.127, 303.1955, 0.394, 0, 1
GPA, 103290480, 0, 2.73, 5.73, 9.22, 1.36, 0, 1, 103269, 200, 581.22, 0, 0
IMU, 103290558, 0, -0.002722744, -0.01910667, -0.00337969, 0.3557068, 0.7440834, -9.847739, 0, 0, 44.80676, 1, 1, 2022, 2022
IMU, 103290558, 1, -0.0008279079, -0.005280301, -0.0003165498, 0.3594373, 0.7156017, -9.771609, 0, 0, 45, 1, 1, 1999, 2045
STAK, 103302952, 6, 181, 944, 656, rcout
SURF, 103320620, 0, 2, 0, 0, 0.5656151
SURF, 103320631, 1, 2, 0, 0, 0.5656151
IMU, 103330433, 0, -0.002791693, -0.02066514, 0.001701258, 0.3305975, 0.839781, -9.841452, 0, 0, 44.80676, 1, 1, 2022, 2022
IMU, 103330433, 1, -0.00135312, 0.001031688, 0.002353841, 0.3301989, 0.8317748, -9.784581, 0, 0, 45, 1, 1, 1999, 2045
POWR, 103370552, 4.990887, 0, 1, 1, 2
MCU, 103370552, 40.23857, 3.348958, 3.341094, 3.356858
BAT, 103370566, 0, 14.88599, 15.17254, 1.357591, 36.52732, 0.5451155, 0, 0.2110679, 98, 1, 0
MAG, 103370578, 0, -24, -107, 343, -382, 367, 647, 0, 0, 0, 1, 103370576
MAG, 103370578, 1, 258, -390, 133, 59, 22, -40, 0, 0, 0, 1, 103370575
SURF, 103370597, 0, 2, 0, 0, 0.5650382
SURF, 103370606, 1, 2, 0, 0, 0.5650382
BARO, 103370627, 0, 0.546875, 0.546875, 93309.23, 41.13, -0.03768921, 103370, 0, 35, 1
CTUN, 103370644, 0, 0, 0, 0.431117, 0, 0.5532224, 0.54, NaN, 0, 12.70569, 0, 0
ATT, 103370726, -8.181178E-05, -4.608604, 0.0003235508, 1.852587, 106.6057, 106.6057, 3
ANG, 103369977, -8.181178E-05, -4.608604, 0.0003235508, 1.852587, 106.6057, 106.6057, 0.0025
RATE, 103369993, 20.73181, 0.02597888, 0.04878213, -8.346681, 0.007274898, -0.01975422, -0.3356469, -0.3843351, -2.58504E-05, 0, 0.598526, 0, 0
PIDR, 103370764, 0.3618149, 0.000453417, 0.3613615, 0.0487838, 0, -1.669193E-06, 0, 0, 1, 0.02948561, 9
PIDP, 103370769, -0.1456477, 0.0001269709, -0.1457747, -0.01967958, 0, -7.463741E-05, 0, 0, 1, 0.03501657, 9
PIDY, 103370773, -0.005856318, -0.006707914, -0.0001436133, -2.58504E-05, 0, 0, 0, 0, 1, 0.01061101, 9
PIDA, 103370777, 0, 0, 0, 0, 0, 0, 0, 0, 0, 0, 0
XKF4, 103370087, 0, 0, 0.01, 0, 0.06, 0, 0.008053346, 0, 0, 0, 50, 65703, 7, 0
XKF1, 103370087, 0, -4.6, 1.85, 106.6, -0.05703827, -0.0175954, 0.006936696, 0.02062221, 0, 0, -0.5532224, -0.18, -1.1, 0.32, 0
XKF2, 103370087, 0, 0, 0, -0.07, 0, 0, 149, 0, 282, 0, 0, 0, 0, 0, 0
XKF3, 103370087, 0, 0, 0, 0, -0.09, -0.01, 0.05, 0, 0, 0, 5.51, 0, 0, 2.521531E-05
XKF5, 103370087, 0, 0, 0, 0, 0, 0.75, 0.19, 0, 0, 0.5, 0.0002294188, 0.03166783, 0.07051862
XKFS, 103370087, 0, 0, 0, 0, 0, 0, 0, 0, 1
XKQ, 103370087, 0, 0.5965026, -0.0369755, -0.02258099, 0.801441
XKF4, 103370087, 1, 0, 0.01, 0, 0.06, 0, 0.008036049, 0, 0, 0, 50, 65703, 7, 0
XKF1, 103370087, 1, -4.57, 1.96, 106.45, -0.03192842, -0.04459223, 0.009037187, 0.01312677, 0, 0, -0.5456007, -0.07, -0.08, 0.39, 0
XKF2, 103370087, 1, 0, 0, -0.01, 0, 0, 148, 0, 282, 0, 0, 0, 0, 0, 0
XKF3, 103370087, 1, 0, 0, 0, -0.04, -0.05, 0.05, 0, 0, 0, 5.84, 0, 0.002542027, 3.508235E-05
XKFS, 103370087, 1, 0, 0, 0, 0, 0, 0, 0, 1
XKQ, 103370087, 1, 0.5975235, -0.03758643, -0.02168508, 0.8006763
AHR2, 103370897, -4.97, -1.1, 114.34, 0.6, 15.3693354, 75.1236854, 0.5419524, -0.01540434, -0.04170933, 0.8392323
POS, 103370914, 15.3693355, 75.1236853, 659.23, 0.546875, 0.5532224
MOTB, 103370930, 1, 1, 1, 0.0431117, 0, 2
RCIN, 103370940, 1515, 1515, 1515, 1515, 1206, 2000, 1000, 1000, 1000, 1000, 1000, 875, 875, 875
RCI2, 103370944, 875, 875, 0, 1
RCOU, 103370951, 1000, 1000, 1000, 1000, 0, 0, 0, 0, 1000, 0, 0, 0, 0, 0
RCO2, 103370955, 0, 0, 0, 0
VIBE, 103370961, 0, 0.03911487, 0.02799456, 0.01190339, 0
VIBE, 103370961, 1, 0.07746362, 0.07007734, 0.0790486, 0
CTRL, 103370974, 0.04858677, 0.0001145811, 0.0196718, 0.0001327744, 0.0001332635
IMU, 103370986, 0, -0.002701101, -0.0192165, -0.0009933389, 0.2674056, 0.8524243, -9.848372, 0, 0, 44.80676, 1, 1, 2022, 2022
IMU, 103370986, 1, 0.0001917763, -0.0008398024, 0.0006442846, 0.2664665, 0.8449386, -9.791005, 0, 0, 45, 1, 1, 1999, 2045
DCM, 103372564, -4.974952, -1.108303, 114.3401, 0.1749856, 0.1176782, 0, 0, 0
EAHR, 103372588, 0, 0, 0, 0, 0, 0, 0, 0, 0, 0
STAK, 103402950, 7, 177, 1456, 984, rcin
IMU, 103410905, 0, -0.002587799, -0.01865804, -0.00201006, 0.3380217, 0.7769163, -9.850748, 0, 0, 44.80676, 1, 1, 2022, 2022
IMU, 103410905, 1, -0.001695661, 0.0006852772, -0.001120857, 0.3436496, 0.7626435, -9.764595, 0, 0, 45, 1, 1, 1999, 2045
SURF, 103420681, 0, 2, 0, 0, 0.5644613
SURF, 103420691, 1, 2, 0, 0, 0.5644613
IMU, 103450435, 0, -0.0007983281, -0.01736262, -0.002138669, 0.2864376, 0.8343763, -9.82994, 0, 0, 44.80676, 1, 1, 2022, 2022
IMU, 103450435, 1, -0.0005479652, -0.001143753, -0.001212662, 0.3097844, 0.8122327, -9.741488, 0, 0, 45, 1, 1, 1999, 2045
POWR, 103470537, 4.988471, 0, 1, 1, 2
MCU, 103470537, 40.23857, 3.348676, 3.341514, 3.353891
BAT, 103470552, 0, 14.89487, 15.17755, 1.339283, 36.56453, 0.5456696, 0, 0.2110679, 98, 1, 0
MAG, 103470563, 0, -23, -108, 344, -382, 367, 647, 0, 0, 0, 1, 103470562
MAG, 103470563, 1, 258, -390, 133, 59, 22, -40, 0, 0, 0, 1, 103470560
SURF, 103470582, 0, 2, 0, 0, 0.563882
SURF, 103470591, 1, 2, 0, 0, 0.563882
BARO, 103470612, 0, 0.6087646, 0.6087646, 93308.55, 41.13, 0.1828194, 103470, 0, 35, 1
CTUN, 103470626, 0, 0, 0, 0.431117, 0, 0.5519233, 0.6, NaN, 0, 12.70569, 0, 0
ATT, 103470680, -8.181172E-05, -4.604998, 0.0003235508, 1.858246, 106.5422, 106.5422, 3
ANG, 103469977, -8.181172E-05, -4.604998, 0.0003235508, 1.858246, 106.5422, 106.5422, 0.0025
RATE, 103469991, 20.71542, 0.2087772, 0.04803187, -8.372113, 0.1984947, -0.02035721, -0.3364109, -0.6859086, 0.000361733, 0, -0.5162239, 0, 0
PIDR, 103470699, 0.3616947, 0.003643849, 0.3580509, 0.04833687, 0, -0.0003049982, 0, 0, 1, 0.0304735, 9
PIDP, 103470704, -0.1460346, 0.003464386, -0.149499, -0.02018237, 0, -0.0001748392, 0, 0, 1, 0.03579319, 9
PIDY, 103470708, -0.005869713, -0.01197136, 0.002009628, 0.000361733, 0, 0, 0, 0, 1, 0.009600038, 9
PIDA, 103470729, 0, 0, 0, 0, 0, 0, 0, 0, 0, 0, 0
XKF4, 103470090, 0, 0, 0.01, 0, 0.09, 0, 0.008055616, 0, 0, 0, 50, 65703, 7, 0
XKF1, 103470090, 0, -4.6, 1.85, 106.54, -0.04343092, -0.01714487, 0.007890105, 0.01418041, 0, 0, -0.5519233, -0.18, -1.1, 0.32, 0
XKF2, 103470090, 0, 0, 0, -0.07, 0, 0, 149, 0, 282, 0, 0, 0, 0, 0, 0
XKF3, 103470090, 0, 0, 0, 0, -0.07, -0.01, 0, 0, 0, 0, 8.17, 0, 0, 2.521531E-05
XKF5, 103470090, 0, 0, 0, 0, 0, 0.74, 0.19, 0, 0, 0.5, 0.0009491705, 0.02363643, 0.05518537
XKFS, 103470090, 0, 0, 0, 0, 0, 0, 0, 0, 1
XKQ, 103470090, 0, 0.5969458, -0.03700874, -0.02250575, 0.8011115
XKF4, 103470090, 1, 0, 0.01, 0, 0.09, 0, 0.008037823, 0, 0, 0, 50, 65703, 7, 0
XKF1, 103470090, 1, -4.56, 1.96, 106.38, -0.02478004, -0.03789742, 0.01101471, 0.008514759, 0, 0, -0.5448928, -0.07, -0.08, 0.39, 0
XKF2, 103470090, 1, 0, 0, -0.01, 0, 0, 148, 0, 282, 0, 0, 0, 0, 0, 0
XKF3, 103470090, 1, 0, 0, 0, -0.03, -0.04, 0, 0, 0, 0, 8.5, 0, 0.002542027, 3.508235E-05
XKFS, 103470090, 1, 0, 0, 0, 0, 0, 0, 0, 1
XKQ, 103470090, 1, 0.5980065, -0.03760004, -0.02161684, 0.8003169
AHR2, 103470860, -4.96, -1.08, 114.25, 0.54, 15.3693354, 75.1236855, 0.5425496, -0.0155114, -0.04150323, 0.8388546
POS, 103470866, 15.3693355, 75.1236853, 659.23, 0.6087646, 0.5519233
MOTB, 103470871, 1, 1, 1, 0.0431117, 0, 2
RCIN, 103470879, 1515, 1515, 1515, 1515, 1206, 2000, 1000, 1000, 1000, 1000, 1000, 875, 875, 875
RCI2, 103470883, 875, 875, 0, 1
RCOU, 103470890, 1000, 1000, 1000, 1000, 0, 0, 0, 0, 1000, 0, 0, 0, 0, 0
RCO2, 103470894, 0, 0, 0, 0
VIBE, 103470900, 0, 0.03592707, 0.03262245, 0.01286836, 0
VIBE, 103470900, 1, 0.07385434, 0.07071437, 0.07768355, 0
CTRL, 103470909, 0.0486088, 0.0001281477, 0.01973616, 0.0001906257, 0.000150871
DCM, 103472595, -4.960326, -1.088691, 114.2577, 0.1749856, 0.106483, 0, 0, 0
EAHR, 103472632, 0, 0, 0, 0, 0, 0, 0, 0, 0, 0
GPS, 103490536, 0, 3, 38807000, 2380, 7, 1.17, 15.3693346, 75.1236858, 659.1, 0.241, 303.1955, 0.305, 0, 1
GPA, 103490536, 0, 2.73, 5.74, 9.22, 1.4, 0, 1, 103469, 200, 581.09, 0, 0
IMU, 103490597, 0, 0.001029182, -0.01669831, -0.008847621, 0.3184232, 0.7958822, -9.856748, 0, 0, 44.80676, 1, 1, 2022, 2022
IMU, 103490597, 1, 0.002864993, 0.004231319, -0.007343639, 0.3372384, 0.7817576, -9.788691, 0, 0, 45, 1, 1, 1999, 2045
MAV, 103492856, 1, 3019, 874, 0, 6, 0, 0
STAK, 103503950, 8, 58, 2480, 1576, io
SURF, 103520634, 0, 2, 0, 0, 0.563298
SURF, 103520644, 1, 2, 0, 0, 0.563298
IMU, 103530376, 0, -0.002452394, -0.01948552, -0.0005951665, 0.3667023, 0.8191224, -9.853104, 0, 0, 44.80676, 1, 1, 2022, 2022
IMU, 103530376, 1, -0.0006577403, -0.001757255, 0.001317312, 0.3876936, 0.8046483, -9.769168, 0, 0, 45, 1, 1, 1999, 2045
POWR, 103570537, 4.97417, 0, 1, 1, 2
MCU, 103570537, 40.21869, 3.348676, 3.341094, 3.354597
BAT, 103570552, 0, 14.89304, 15.177, 1.345324, 36.6019, 0.5462261, 0, 0.2110679, 98, 1, 0
MAG, 103570564, 0, -22, -106, 346, -382, 367, 647, 0, 0, 0, 1, 103570562
MAG, 103570564, 1, 258, -390, 131, 59, 22, -40, 0, 0, 0, 1, 103570560
SURF, 103570610, 0, 2, 0, 0, 0.5627229
SURF, 103570619, 1, 2, 0, 0, 0.5627229
BARO, 103570661, 0, 0.4969482, 0.4969482, 93309.8, 41.14, 0.1451302, 103570, 0, 35, 1
CTUN, 103570676, 0, 0, 0, 0.431117, 0, 0.5513443, 0.49, NaN, 0, 12.58021, 0, 0
DU32, 103570695, 7, 4219352
TERR, 103570728, 2, 15.3693346, 75.1236858, 100, 646.5198, 12.58021, 0, 336, 0
ATT, 103570846, -8.181174E-05, -4.599877, 0.0003235508, 1.859708, 106.4721, 106.4721, 3
ANG, 103569977, -8.181174E-05, -4.599877, 0.0003235508, 1.859708, 106.4721, 106.4721, 0.0025
RATE, 103569989, 20.69244, -0.01832039, 0.04886181, -8.378707, -0.08986565, -0.01938641, -0.336325, 0.1555015, -7.892079E-05, 0, -0.2586365, 0, 0
PIDR, 103570866, 0.3611376, -0.0003197512, 0.3614573, 0.04879674, 0, 6.50752E-05, 0, 0, 1, 0.03111188, 9
PIDP, 103570870, -0.1462863, -0.001568452, -0.1447179, -0.01953691, 0, 0.0001505047, 0, 0, 1, 0.03885327, 9
PIDY, 103570874, -0.005871366, 0.002714014, -0.0004384488, -7.892079E-05, 0, 0, 0, 0, 1, 0.01020189, 9
PIDA, 103570879, 0, 0, 0, 0, 0, 0, 0, 0, 0, 0, 0
XKF4, 103570107, 0, 0, 0.01, 0, 0.09, 0, 0.008077585, 0, 0, 0, 50, 65703, 7, 0
XKF1, 103570107, 0, -4.59, 1.85, 106.47, -0.03354572, -0.01418421, 0.007444837, 0.007119381, 0, 0, -0.5513444, -0.18, -1.1, 0.32, 0
XKF2, 103570107, 0, 0, 0, -0.07, 0, 0, 149, 0, 282, 0, 0, 0, 0, 0, 0
XKF3, 103570107, 0, 0, 0, 0, -0.06, 0, 0.05, 0, 0, 0, 8.39, 0, 0, 2.521531E-05
XKF5, 103570107, 0, 0, 0, 0, 0, 0.75, 0.19, 0, 0, 0.5, 0.001409942, 0.01644966, 0.04064393
XKFS, 103570107, 0, 0, 0, 0, 0, 0, 0, 0, 1
XKQ, 103570107, 0, 0.5974368, -0.03700601, -0.0224397, 0.8007473
XKT, 103570107, 0, 408, 0.002500002, 0.002500002, 0.01248837, 0.01251045, 0.01186839, 0.01335205, 0.01186839, 0.01335205
XKF4, 103570107, 1, 0, 0, 0, 0.1, 0, 0.008059883, 0, 0, 0, 50, 65703, 7, 0
XKF1, 103570107, 1, -4.55, 1.96, 106.31, -0.01941192, -0.02994113, 0.01078312, 0.002837687, 0, 0, -0.5446271, -0.07, -0.08, 0.39, 0
XKF2, 103570107, 1, 0, 0, -0.01, 0, 0, 148, 0, 282, 0, 0, 0, 0, 0, 0
XKF3, 103570107, 1, 0, 0, 0, -0.03, -0.03, 0.06, 0, 0, 0, 8.74, 0, 0.002542027, 3.508235E-05
XKFS, 103570107, 1, 0, 0, 0, 0, 0, 0, 0, 1
XKQ, 103570107, 1, 0.5985218, -0.03757604, -0.02152855, 0.7999351
XKT, 103570107, 1, 408, 0.002500002, 0.002500002, 0.01249253, 0.012507, 0.01200556, 0.01300613, 0.01173258, 0.01271039
AHR2, 103570968, -4.94, -1.07, 114.19, 0.6, 15.3693345, 75.1236861, 0.5430529, -0.01558435, -0.04134243, 0.8385353
POS, 103570973, 15.3693346, 75.1236858, 659.1, 0.4969482, 0.5513444
MOTB, 103570979, 1, 1, 1, 0.0431117, 0, 2
RCIN, 103570986, 1515, 1515, 1515, 1515, 1206, 2000, 1000, 1000, 1000, 1000, 1000, 875, 875, 875
RCI2, 103570990, 875, 875, 0, 1
RCOU, 103570997, 1000, 1000, 1000, 1000, 0, 0, 0, 0, 1000, 0, 0, 0, 0, 0
RCO2, 103571001, 0, 0, 0, 0
VIBE, 103571007, 0, 0.03663868, 0.02921707, 0.01313144, 0
VIBE, 103571007, 1, 0.07324775, 0.06873068, 0.07524214, 0
CTRL, 103571017, 0.04858173, 0.0001622582, 0.01978063, 0.0002048342, 0.0003811282
IMU, 103571028, 0, -0.003474552, -0.02093695, 0.008461363, 0.2887919, 0.7720822, -9.845534, 0, 0, 44.80676, 1, 1, 2022, 2022
IMU, 103571028, 1, -0.001923197, -0.002776169, 0.008266528, 0.2943422, 0.7382543, -9.787035, 0, 0, 45, 1, 1, 1999, 2045
UART, 103571156, 1, 1812, 162
UART, 103571179, 2, 20, 0
UART, 103571184, 3, 0, 653
UART, 103571189, 100, 8389, 5088
DCM, 103572564, -4.949261, -1.074691, 114.19, 0.1501295, 0.100077, 0, 0, 0
EAHR, 103572588, 0, 0, 0, 0, 0, 0, 0, 0, 0, 0
STAK, 103603985, 9, 59, 1456, 904, storage
IMU, 103610920, 0, -0.002359462, -0.02023645, -0.00126613, 0.3410164, 0.8155314, -9.845644, 0, 0, 44.80676, 1, 1, 2022, 2022
IMU, 103610920, 1, -0.0002465413, 0.001167737, -0.00068409, 0.3546576, 0.8232939, -9.774234, 0, 0, 45, 1, 1, 1999, 2045
SURF, 103620605, 0, 2, 0, 0, 0.5621673
SURF, 103620615, 1, 2, 0, 0, 0.5621673
IMU, 103650395, 0, -0.003459562, -0.02048479, -0.002731859, 0.3089792, 0.8215367, -9.846989, 0, 0, 45.28986, 1, 1, 2022, 2022
IMU, 103650395, 1, -0.002299859, 0.001159771, -0.002257561, 0.3148605, 0.8157197, -9.801517, 0, 0, 45, 1, 1, 1999, 2045
POWR, 103670573, 4.994513, 0, 1, 1, 2
MCU, 103670573, 40.19881, 3.348817, 3.341795, 3.356434
BAT, 103670588, 0, 14.89441, 15.18181, 1.361619, 36.63974, 0.5467898, 0, 0.2110679, 98, 1, 0
MAG, 103670599, 0, -21, -107, 343, -382, 367, 647, 0, 0, 0, 1, 103670598
MAG, 103670599, 1, 259, -389, 133, 59, 22, -40, 0, 0, 0, 1, 103670596
SURF, 103670622, 0, 2, 0, 0, 0.5616143
SURF, 103670631, 1, 2, 0, 0, 0.5616143
BARO, 103670652, 0, 0.6528931, 0.6528931, 93308.05, 41.14, -0.004539495, 103670, 0, 35, 1
CTUN, 103670697, 0, 0, 0, 0.431117, 0, 0.5501122, 0.65, NaN, 0, 12.58021, 0, 0
ATT, 103670770, -8.181176E-05, -4.601079, 0.0003235508, 1.85395, 106.3898, 106.3898, 3
ANG, 103669977, -8.181176E-05, -4.601078, 0.0003235508, 1.85395, 106.3898, 106.3898, 0.002498
RATE, 103669989, 20.69794, 0.001122579, 0.04878294, -8.352785, -0.03645154, -0.01973619, -0.3352804, -0.3291997, 0.0001373443, 0, 0.8211136, 0, 0
PIDR, 103670790, 0.3612081, 1.95927E-05, 0.3611885, 0.04876046, 0, 2.248705E-05, 0, 0, 1, 0.02945378, 9
PIDP, 103670795, -0.145817, -0.0006361995, -0.1451808, -0.01959941, 0, -0.0001367776, 0, 0, 1, 0.04230729, 9
PIDY, 103670799, -0.005853351, -0.005745619, 0.0007630238, 0.0001373443, 0, 0, 0, 0, 1, 0.01186725, 9
PIDA, 103670803, 0, 0, 0, 0, 0, 0, 0, 0, 0, 0, 0
XKF4, 103670083, 0, 0, 0.01, 0, 0.1, 0, 0.008111654, 0, 0, 0, 50, 65703, 7, 0
XKF1, 103670083, 0, -4.6, 1.85, 106.38, -0.02743689, -0.01349162, 0.007385249, 0.007647038, 0, 0, -0.5501122, -0.18, -1.1, 0.33, 0
XKF2, 103670083, 0, 0, 0, -0.07, 0, 0, 149, 0, 282, 0, 0, 0, 0, 0, 0
XKF3, 103670083, 0, 0, 0, 0, -0.05, 0, -0.05, 0, 0, 0, 9.41, 0, 0, 2.521531E-05
XKF5, 103670083, 0, 0, 0, 0, 0, 0.74, 0.19, 0, 0, 0.5, 0.001561676, 0.01067948, 0.02784768
XKFS, 103670083, 0, 0, 0, 0, 0, 0, 0, 0, 1
XKQ, 103670083, 0, 0.5980136, -0.03698821, -0.02245159, 0.8003171
XKV1, 103670083, 0, 0.0002038922, 7.874253E-06, 8.048571E-06, 9.305445E-05, 0.06654018, 0.06678049, 0.01790679, 0.1718645, 0.1720457, 0.1900504, 4.300775E-11, 4.348491E-11
XKV2, 103670083, 0, 1.28531E-10, 6.185721E-06, 6.182302E-06, 6.190398E-08, 0, 0, 0, 0, 0, 0, 0, 0
XKF4, 103670083, 1, 0, 0, 0, 0.11, 0, 0.008094353, 0, 0, 0, 50, 65703, 7, 0
XKF1, 103670083, 1, -4.55, 1.96, 106.22, -0.0182023, -0.02618438, 0.01041386, 0.003745834, 0, 0, -0.5438707, -0.07, -0.08, 0.39, 0
XKF2, 103670083, 1, 0, 0, -0.01, 0, 0, 148, 0, 282, 0, 0, 0, 0, 0, 0
XKF3, 103670083, 1, 0, 0, 0, -0.02, -0.03, -0.05, 0, 0, 0, 9.76, 0, 0.002542027, 3.508235E-05
XKFS, 103670083, 1, 0, 0, 0, 0, 0, 0, 0, 1
XKQ, 103670083, 1, 0.599154, -0.03760576, -0.02150627, 0.7994609
AHR2, 103670978, -4.94, -1.06, 114.11, 0.49, 15.3693344, 75.1236863, 0.5436289, -0.015637, -0.04127036, 0.8381647
POS, 103670983, 15.3693346, 75.1236858, 659.1, 0.6528931, 0.5501122
MOTB, 103670989, 1, 1, 1, 0.0431117, 0, 2
RCIN, 103670996, 1515, 1515, 1515, 1515, 1198, 2000, 1000, 1000, 1000, 1000, 1000, 875, 875, 875
RCI2, 103671001, 875, 875, 0, 1
RCOU, 103671008, 1000, 1000, 1000, 1000, 0, 0, 0, 0, 1000, 0, 0, 0, 0, 0
RCO2, 103671012, 0, 0, 0, 0
VIBE, 103671017, 0, 0.02371151, 0.03805551, 0.010878, 0
VIBE, 103671017, 1, 0.06476992, 0.07591493, 0.07226434, 0
CTRL, 103671027, 0.04862578, 0.0001445311, 0.01972905, 0.0001887882, 0.0003363674
DCM, 103672581, -4.945161, -1.069035, 114.1111, 0.1501295, 0.09619501, 0, 0, 0
EAHR, 103672605, 0, 0, 0, 0, 0, 0, 0, 0, 0, 0
GPS, 103690502, 0, 3, 38807200, 2380, 7, 1.17, 15.3693354, 75.1236862, 658.6, 0.305, 303.1955, -0.186, 0, 1
GPA, 103690502, 0, 2.73, 5.76, 9.22, 1.72, 0, 1, 103669, 200, 580.59, 0, 0
IMU, 103690595, 0, -0.003424972, -0.01877371, 0.001094831, 0.2823318, 0.8644983, -9.834805, 0, 0, 44.80676, 1, 1, 2022, 2022
IMU, 103690595, 1, -0.002953741, -0.004680326, 0.001296306, 0.2650124, 0.8396114, -9.77394, 0, 0, 45, 1, 1, 1999, 2045
STAK, 103704098, 10, 60, 752, 224, UART7
SURF, 103720651, 0, 2, 0, 0, 0.5610527
SURF, 103720661, 1, 2, 0, 0, 0.5610527
RAD, 103723054, 67, 0, 100, 95, 0, 0, 0
IMU, 103730437, 0, -0.003447442, -0.01972154, -0.003106809, 0.3179979, 0.7888209, -9.862282, 0, 0, 44.80676, 1, 1, 2022, 2022
IMU, 103730437, 1, -0.001467625, -0.001577467, -0.00192543, 0.3407938, 0.7590334, -9.783246, 0, 0, 45, 1, 1, 1999, 2045
POWR, 103770556, 4.992599, 0, 1, 1, 2
MCU, 103770556, 40.21869, 3.348676, 3.341374, 3.356151
BAT, 103770571, 0, 14.89231, 15.17727, 1.350085, 36.67723, 0.5473482, 0, 0.2110679, 98, 1, 0
MAG, 103770582, 0, -21, -106, 343, -382, 367, 647, 0, 0, 0, 1, 103770580
MAG, 103770582, 1, 259, -389, 131, 59, 22, -40, 0, 0, 0, 1, 103770579
SURF, 103770601, 0, 2, 0, 0, 0.5605071
SURF, 103770611, 1, 2, 0, 0, 0.5605071
BARO, 103770631, 0, 0.614624, 0.614624, 93308.48, 41.14, 0.002937313, 103770, 0, 35, 1
CTUN, 103770645, 0, 0, 0, 0.431117, 0, 0.5500506, 0.61, NaN, 0, 12.07472, 0, 0
ATT, 103770702, -8.181168E-05, -4.6011, 0.0003235507, 1.852731, 106.3012, 106.3012, 3
ANG, 103769978, -8.181168E-05, -4.6011, 0.0003235507, 1.852731, 106.3012, 106.3012, 0.002501
RATE, 103769994, 20.69804, 0.06775942, 0.04848521, -8.347305, -0.002353213, -0.01969305, -0.3351483, -0.3836712, 0.0002413708, 0, -0.2337456, 0, 0
PIDR, 103770775, 0.3612771, 0.001182625, 0.3600945, 0.04861276, 0, -0.0001275505, 0, 0, 1, 0.02984808, 9
PIDP, 103770791, -0.1456995, -4.107133E-05, -0.1456585, -0.01966389, 0, -2.915875E-05, 0, 0, 1, 0.04512448, 9
PIDY, 103770795, -0.005850078, -0.006696326, 0.001340949, 0.0002413708, 0, 0, 0, 0, 1, 0.01323005, 9
PIDA, 103770800, 0, 0, 0, 0, 0, 0, 0, 0, 0, 0, 0
XKF4, 103770104, 0, 0, 0.01, 0.01, 0.11, 0, 0.008155554, 0, 0, 0, 50, 65703, 7, 0
XKF1, 103770104, 0, -4.6, 1.85, 106.3, -0.02114581, -0.01338461, 0.007226281, 0.003758619, 0, 0, -0.5500506, -0.18, -1.11, 0.33, 0
XKF2, 103770104, 0, 0, 0, -0.07, 0, 0, 149, 0, 282, 0, 0, 0, 0, 0, 0
XKF3, 103770104, 0, 0, 0, 0, -0.04, 0, 0.1, 0, 0, 0, 9.58, 0, 0, 2.521531E-05
XKF5, 103770104, 0, 0, 0, 0, 0, 0.75, 0.19, 0, 0, 0.5, 0.001573752, 0.005987506, 0.01749568
XKFS, 103770104, 0, 0, 0, 0, 0, 0, 0, 0, 1
XKQ, 103770104, 0, 0.5986324, -0.03699717, -0.02242953, 0.7998546
XKF4, 103770104, 1, 0, 0, 0.01, 0.11, 0, 0.008137982, 0, 0, 0, 50, 65703, 7, 0
XKF1, 103770104, 1, -4.56, 1.96, 106.13, -0.0145373, -0.02350223, 0.0101981, 0.0010616, 0, 0, -0.5439, -0.07, -0.08, 0.39, 0
XKF2, 103770104, 1, 0, 0, -0.01, 0, 0, 148, 0, 282, 0, 0, 0, 0, 0, 0
XKF3, 103770104, 1, 0, 0, 0, -0.02, -0.02, 0.1, 0, 0, 0, 9.94, 0, 0.002542027, 3.508235E-05
XKFS, 103770104, 1, 0, 0, 0, 0, 0, 0, 0, 1
XKQ, 103770104, 1, 0.5997862, -0.03761673, -0.02151161, 0.7989861
AHR2, 103770879, -4.94, -1.05, 114.02, 0.65, 15.3693349, 75.1236861, 0.5442543, -0.01572647, -0.0411706, 0.8377619
POS, 103770884, 15.3693354, 75.1236862, 658.6, 0.614624, 0.5500506
MOTB, 103770890, 1, 1, 1, 0.0431117, 0, 2
RCIN, 103770897, 1515, 1515, 1515, 1515, 1206, 2000, 1000, 1000, 1000, 1000, 1000, 875, 875, 875
RCI2, 103770901, 875, 875, 0, 1
RCOU, 103770909, 1000, 1000, 1000, 1000, 0, 0, 0, 0, 1000, 0, 0, 0, 0, 0
RCO2, 103770912, 0, 0, 0, 0
VIBE, 103770918, 0, 0.03267484, 0.0308213, 0.01199996, 0
VIBE, 103770918, 1, 0.07424093, 0.0712811, 0.07165421, 0
CTRL, 103770943, 0.04865988, 0.000151303, 0.01972331, 0.000186654, 0.0002939465
IMU, 103770969, 0, -0.001969363, -0.01940377, -0.0009215213, 0.3353799, 0.8027954, -9.841757, 0, 0, 44.80676, 1, 1, 2022, 2022
IMU, 103770969, 1, -0.0002345476, 0.0001702251, -0.0001880816, 0.3379464, 0.8024598, -9.787306, 0, 0, 45, 1, 1, 1999, 2045
DCM, 103772595, -4.939985, -1.057641, 114.0237, 0.1304079, 0.09185924, 0, 0, 0
EAHR, 103772631, 0, 0, 0, 0, 0, 0, 0, 0, 0, 0
FMT, 253, 28, HEAT, Qfbfff, TimeUS,Temp,Targ,P,I,Out
HEAT, 103797483, 44.8913, 45, 5.434799, 6.535587, 11.97039
STAK, 103804487, 11, 60, 752, 280, UART5
FMT, 254, 35, IOMC, QHHIIIII, TimeUS,RSErr,Mem,TS,NPkt,Nerr,Nerr2,NDel
IOMC, 103808200, 0, 12896, 103815, 48908, 0, 0, 0
IMU, 103810926, 0, -0.002292684, -0.01787077, -0.006070327, 0.2446192, 0.8295804, -9.853039, 0, 0, 44.80676, 1, 1, 2022, 2022
IMU, 103810926, 1, -0.0009794021, -0.001287172, -0.004794666, 0.2539657, 0.8015158, -9.786658, 0, 0, 45, 1, 1, 1999, 2045
DSF, 103817899, 0, 1958, 83751, 164814, 204710, 183852
SURF, 103820621, 0, 2, 0, 0, 0.5599965
SURF, 103820631, 1, 2, 0, 0, 0.5599965
IMU, 103850465, 0, -0.003518756, -0.01789925, -0.004274915, 0.3702977, 0.8270966, -9.854299, 0, 0, 44.80676, 1, 1, 2022, 2022
IMU, 103850465, 1, -0.0001748824, -0.0009335558, -0.003180369, 0.3785025, 0.7977465, -9.785236, 0, 0, 45, 1, 1, 1999, 2045
POWR, 103870554, 4.993002, 0, 1, 1, 2
MCU, 103870554, 40.21869, 3.348817, 3.339554, 3.354879
BAT, 103870569, 0, 14.89478, 15.17943, 1.34862, 36.7147, 0.5479062, 0, 0.2110679, 98, 1, 0
MAG, 103870606, 0, -23, -107, 343, -382, 367, 647, 0, 0, 0, 1, 103870605
MAG, 103870606, 1, 259, -390, 133, 59, 22, -40, 0, 0, 0, 1, 103870603
SURF, 103870626, 0, 2, 0, 0, 0.5595283
SURF, 103870666, 1, 2, 0, 0, 0.5595283
BARO, 103870688, 0, 0.5734253, 0.5734253, 93308.95, 41.14, 0.1444435, 103870, 0, 35, 1
CTUN, 103870701, 0, 0, 0, 0.431117, 0, 0.5509172, 0.57, NaN, 0, 12.07472, 0, 0
ATT, 103870808, -8.181169E-05, -4.601161, 0.0003235508, 1.857382, 106.1976, 106.1976, 3
ANG, 103869979, -8.181169E-05, -4.601161, 0.0003235508, 1.857382, 106.1976, 106.1976, 0.002499
RATE, 103869993, 20.69822, 0.006986963, 0.0485725, -8.368228, 0.009959056, -0.01962935, -0.3359402, -0.28661, 0.0006448706, 0, -0.025177, 0, 0
PIDR, 103870828, 0.3612725, 0.0001219455, 0.3611506, 0.04875533, 0, -0.0001828285, 0, 0, 1, 0.03135294, 9
PIDP, 103870832, -0.1460252, 0.0001738183, -0.146199, -0.01973687, 0, 0.0001075253, 0, 0, 1, 0.04704311, 9
PIDY, 103870837, -0.0058628, -0.005002289, 0.003582614, 0.0006448706, 0, 0, 0, 0, 1, 0.01430696, 9
PIDA, 103870841, 0, 0, 0, 0, 0, 0, 0, 0, 0, 0, 0
XKF4, 103870128, 0, 0, 0, 0, 0.1, 0, 0.008205106, 0, 0, 0, 50, 65703, 7, 0
XKF1, 103870128, 0, -4.6, 1.85, 106.19, -0.01778553, -0.01417981, 0.006451695, -0.009520665, 0, 0, -0.5509172, -0.18, -1.1, 0.33, 0
XKF2, 103870128, 0, 0, 0, -0.07, 0, 0, 149, 0, 282, 0, 0, 0, 0, 0, 0
XKF3, 103870128, 0, 0, 0, 0, -0.04, 0, 0.06, 0, 0, 0, 9.31, 0, 0, 2.521531E-05
XKF5, 103870128, 0, 0, 0, 0, 0, 0.75, 0.19, 0, 0, 0.5, 0.001523871, 0.00288964, 0.01004979
XKFS, 103870128, 0, 0, 0, 0, 0, 0, 0, 0, 1
XKQ, 103870128, 0, 0.5993541, -0.03705017, -0.0223721, 0.7993131
XKF4, 103870128, 1, 0, 0, 0, 0.11, 0, 0.008188433, 0, 0, 0, 50, 65703, 7, 0
XKF1, 103870128, 1, -4.56, 1.96, 106.03, -0.01265887, -0.02225649, 0.01026077, -0.01083276, 0, 0, -0.5449032, -0.07, -0.08, 0.39, 0
XKF2, 103870128, 1, 0, 0, -0.01, 0, 0, 148, 0, 282, 0, 0, 0, 0, 0, 0
XKF3, 103870128, 1, 0, 0, 0, -0.02, -0.02, 0.06, 0, 0, 0, 9.66, 0, 0.002542027, 3.508235E-05
XKFS, 103870128, 1, 0, 0, 0, 0, 0, 0, 0, 1
XKQ, 103870128, 1, 0.6004837, -0.03763939, -0.02144953, 0.7984626
AHR2, 103870926, -4.93, -1.04, 113.92, 0.61, 15.3693347, 75.123686, 0.5449687, -0.01586562, -0.04103612, 0.8373013
POS, 103870932, 15.3693354, 75.1236862, 658.6, 0.5734253, 0.5509172
MOTB, 103870938, 1, 1, 1, 0.0431117, 0, 2
RCIN, 103870945, 1515, 1515, 1515, 1515, 1206, 2000, 1000, 1000, 1000, 1000, 1000, 875, 875, 875
RCI2, 103870949, 875, 875, 0, 1
RCOU, 103870956, 1000, 1000, 1000, 1000, 0, 0, 0, 0, 1000, 0, 0, 0, 0, 0
RCO2, 103870960, 0, 0, 0, 0
VIBE, 103870966, 0, 0.03726933, 0.02435843, 0.011659, 0
VIBE, 103870966, 1, 0.07462671, 0.07052601, 0.07262658, 0
CTRL, 103870977, 0.04867324, 0.0001445366, 0.01978031, 0.0001991102, 0.0004170906
DCM, 103872577, -4.935012, -1.040121, 113.927, 0.1304079, 0.08741192, 0, 0, 0
EAHR, 103872595, 0, 0, 0, 0, 0, 0, 0, 0, 0, 0
GPS, 103890517, 0, 3, 38807400, 2380, 7, 1.17, 15.3693367, 75.123687, 658.2, 0.761, 303.1955, 0.141, 0, 1
GPA, 103890517, 0, 2.73, 5.77, 9.22, 1.85, 0, 1, 103869, 200, 580.19, 0, 0
IMU, 103890583, 0, -0.001968404, -0.01921928, 0.005296781, 0.3298945, 0.7860906, -9.849179, 0, 0, 44.80676, 1, 1, 2022, 2022
IMU, 103890583, 1, -0.0002494011, -0.001638918, 0.006057988, 0.3374205, 0.7631919, -9.788114, 0, 0, 45, 1, 1, 1999, 2045
STAK, 103905413, 12, 60, 752, 312, UART1
SURF, 103920601, 0, 2, 0, 0, 0.5591078
SURF, 103920612, 1, 2, 0, 0, 0.5591078
IMU, 103930431, 0, -0.00366401, -0.01872004, 0.0002473293, 0.3124604, 0.7652251, -9.847296, 0, 0, 44.80676, 1, 1, 2022, 2022
IMU, 103930431, 1, -0.001175188, -0.002120886, 0.00100835, 0.3229656, 0.7456399, -9.775829, 0, 0, 45, 1, 1, 1999, 2045
POWR, 103970552, 4.993707, 0, 1, 1, 2
MCU, 103970552, 40.23857, 3.349098, 3.341514, 3.354456
BAT, 103970567, 0, 14.89085, 15.17816, 1.361253, 36.75251, 0.5484693, 0, 0.2110679, 98, 1, 0
MAG, 103970582, 0, -20, -108, 346, -382, 367, 647, 0, 0, 0, 1, 103970580
MAG, 103970582, 1, 258, -390, 134, 59, 22, -40, 0, 0, 0, 1, 103970579
SURF, 103970601, 0, 2, 0, 0, 0.5587304
SURF, 103970610, 1, 2, 0, 0, 0.5587304
BARO, 103970631, 0, 0.5498657, 0.5498657, 93309.2, 41.15, 0.1406288, 103970, 0, 35, 1
CTUN, 103970645, 0, 0, 0, 0.431117, 0, 0.5518072, 0.54, NaN, 0, 11.6655, 0, 0
ATT, 103970725, -8.181169E-05, -4.603799, 0.0003235507, 1.855972, 106.1334, 106.1334, 3
ANG, 103969977, -8.181169E-05, -4.6038, 0.0003235507, 1.855972, 106.1334, 106.1334, 0.0025
RATE, 103969992, 20.71016, -0.06367973, 0.04916315, -8.361905, -0.05357749, -0.01941363, -0.3359121, -0.1397593, -8.309497E-05, 0, 1.308441, 0, 0
PIDR, 103970763, 0.3613821, -0.001111421, 0.3624935, 0.04893663, 0, 0.0002265235, 0, 0, 1, 0.03282956, 9
PIDP, 103970768, -0.1459981, -0.0009351037, -0.145063, -0.0195835, 0, 0.0001698681, 0, 0, 1, 0.047719, 9
PIDY, 103970776, -0.005863922, -0.002439259, -0.0004616387, -8.309497E-05, 0, 0, 0, 0, 1, 0.01495301, 9
PIDA, 103970780, 0, 0, 0, 0, 0, 0, 0, 0, 0, 0, 0
XKF4, 103970082, 0, 0, 0, 0, 0.09, 0, 0.008259529, 0, 0, 0, 50, 65703, 7, 0
XKF1, 103970082, 0, -4.6, 1.85, 106.13, -0.01343467, -0.01185737, 0.005403899, -0.01414978, 0, 0, -0.5518072, -0.18, -1.1, 0.33, 0
XKF2, 103970082, 0, 0, 0, -0.07, 0, 0, 149, 0, 282, 0, 0, 0, 0, 0, 0
XKF3, 103970082, 0, 0, 0, 0, -0.03, 0, 0.01, 0, 0, 0, 8.61, 0, 0, 2.521531E-05
XKF5, 103970082, 0, 0, 0, 0, 0, 0.75, 0.19, 0, 0, 0.5, 0.001425741, 0.00230748, 0.005943317
XKFS, 103970082, 0, 0, 0, 0, 0, 0, 0, 0, 1
XKQ, 103970082, 0, 0.5998012, -0.03706668, -0.02237715, 0.7989768
XKF4, 103970082, 1, 0, 0, 0, 0.1, 0, 0.008242252, 0, 0, 0, 50, 65703, 7, 0
XKF1, 103970082, 1, -4.56, 1.96, 105.96, -0.009442373, -0.01889398, 0.009471945, -0.01496749, 0, 0, -0.5459434, -0.07, -0.08, 0.4, 0
XKF2, 103970082, 1, 0, 0, -0.01, 0, 0, 148, 0, 282, 0, 0, 0, 0, 0, 0
XKF3, 103970082, 1, 0, 0, 0, -0.01, -0.02, 0.02, 0, 0, 0, 8.93, 0, 0.002542027, 3.508235E-05
XKFS, 103970082, 1, 0, 0, 0, 0, 0, 0, 0, 1
XKQ, 103970082, 1, 0.600972, -0.03760667, -0.02148202, 0.7980958
AHR2, 103970917, -4.93, -1.02, 113.87, 0.57, 15.3693379, 75.1236876, 0.5453686, -0.0159893, -0.04095431, 0.8370426
POS, 103970933, 15.3693367, 75.123687, 658.2, 0.5498657, 0.5518072
MOTB, 103970940, 1, 1, 1, 0.0431117, 0, 2
RCIN, 103970947, 1515, 1515, 1515, 1515, 1206, 2000, 1000, 1000, 1000, 1000, 1000, 875, 875, 875
RCI2, 103970951, 875, 875, 0, 1
RCOU, 103970959, 1000, 1000, 1000, 1000, 0, 0, 0, 0, 1000, 0, 0, 0, 0, 0
RCO2, 103970963, 0, 0, 0, 0
VIBE, 103970968, 0, 0.02506655, 0.02330988, 0.0101323, 0
VIBE, 103970968, 1, 0.07006553, 0.06754981, 0.07277158, 0
CTRL, 103970978, 0.04870416, 0.0001584298, 0.01976567, 0.0001799037, 0.0003607153
IMU, 103970990, 0, -0.004261261, -0.02029115, 0.00336107, 0.3588944, 0.8198678, -9.854964, 0, 0, 45.28986, 1, 1, 2022, 2022
IMU, 103970990, 1, -0.002826866, -0.005039367, 0.002440668, 0.3638143, 0.7914083, -9.783638, 0, 0, 45, 1, 1, 1999, 2045
DCM, 103972565, -4.934632, -1.025353, 113.8719, 0.1144192, 0.0893843, 0, 0, 0
EAHR, 103972590, 0, 0, 0, 0, 0, 0, 0, 0, 0, 0
STAK, 104005959, 13, 60, 752, 408, UART8
IMU, 104010894, 0, -0.004682871, -0.02108672, 0.01011265, 0.2707386, 0.8712947, -9.84305, 0, 0, 44.80676, 1, 1, 2022, 2022
IMU, 104010894, 1, -0.004669174, -0.005136478, 0.01234804, 0.2832161, 0.8592805, -9.779917, 0, 0, 45, 1, 1, 1999, 2045
SURF, 104020671, 0, 2, 0, 0, 0.5583923
SURF, 104020681, 1, 2, 0, 0, 0.5583923
IMU, 104050439, 0, -0.003304266, -0.0191136, 0.003827258, 0.3256284, 0.7958722, -9.854704, 0, 0, 44.80676, 1, 1, 2022, 2022
IMU, 104050439, 1, -0.002262738, -0.0007247077, 0.005939941, 0.3395391, 0.7850528, -9.797949, 0, 0, 45, 1, 1, 1999, 2045
POWR, 104070540, 4.979709, 0, 1, 1, 2
MCU, 104070540, 40.21869, 3.348958, 3.342215, 3.354456
BAT, 104070555, 0, 14.88737, 15.16966, 1.337452, 36.78967, 0.5490224, 0, 0.2110679, 98, 1, 0
MAG, 104070566, 0, -22, -108, 343, -382, 367, 647, 0, 0, 0, 1, 104070564
MAG, 104070566, 1, 259, -391, 133, 59, 22, -40, 0, 0, 0, 1, 104070563
SURF, 104070586, 0, 2, 0, 0, 0.558086
