FMT, 128, 89, FMT, BBnNZ, Type,Length,Name,Format,Columns
FMT, 119, 76, UNIT, QbZ, TimeUS,Id,Label
FMT, 118, 44, FMTU, QBNN, TimeUS,FmtType,UnitIds,MultIds
FMT, 120, 20, MULT, Qbd, TimeUS,Id,Mult
FMT, 32, 35, PARM, QNff, TimeUS,Name,Value,Default
FMT, 94, 51, GPS, QBBIHBcLLeffffB, TimeUS,I,Status,GMS,GWk,NSats,HDop,Lat,Lng,Alt,Spd,GCrs,VZ,Yaw,U
FMT, 95, 39, GPA, QBCCCCfBIHeHH, TimeUS,I,VDop,HAcc,VAcc,SAcc,YAcc,VV,SMS,Delta,AEl,RTCMFU,RTCMFD
FMT, 99, 22, UBX1, QBHBBHI, TimeUS,Instance,noisePerMS,jamInd,aPower,agcCnt,config
FMT, 100, 16, UBX2, QBbBbB, TimeUS,Instance,ofsI,magI,ofsQ,magQ
FMT, 96, 42, GRAW, QIHBBddfBbB, TimeUS,WkMS,Week,numSV,sv,cpMes,prMes,doMes,mesQI,cno,lli
FMT, 97, 24, GRXH, QdHbBB, TimeUS,rcvTime,week,leapS,numMeas,recStat
FMT, 98, 41, GRXS, QddfBBBHBBBBB, TimeUS,prMes,cpMes,doMes,gnss,sv,freq,lock,cno,prD,cpD,doD,trk
FMT, 101, 23, SBPH, QIII, TimeUS,CrcError,LastInject,IARhyp
FMT, 102, 67, SBRH, QQQQQQQQ, TimeUS,msg_flag,1,2,3,4,5,6
FMT, 103, 123, SBRM, QQQQQQQQQQQQQQQ, TimeUS,msg_flag,1,2,3,4,5,6,7,8,9,10,11,12,13
FMT, 104, 23, SBRE, QHIiBB, TimeUS,GWk,GMS,ns_residual,level,quality
FMT, 59, 75, MSG, QZ, TimeUS,Message
FMT, 60, 39, RCIN, QHHHHHHHHHHHHHH, TimeUS,C1,C2,C3,C4,C5,C6,C7,C8,C9,C10,C11,C12,C13,C14
FMT, 61, 18, RCI2, QHHHB, TimeUS,C15,C16,OMask,Flags
FMT, 62, 39, RCOU, QHHHHHHHHHHHHHH, TimeUS,C1,C2,C3,C4,C5,C6,C7,C8,C9,C10,C11,C12,C13,C14
FMT, 207, 19, RCO2, QHHHH, TimeUS,C15,C16,C17,C18
FMT, 208, 39, RCO3, QHHHHHHHHHHHHHH, TimeUS,C19,C20,C21,C22,C23,C24,C25,C26,C27,C28,C29,C30,C31,C32
FMT, 63, 19, RSSI, Qff, TimeUS,RXRSSI,RXLQ
FMT, 64, 43, BARO, QBfffcfIffB, TimeUS,I,Alt,AltAMSL,Press,Temp,CRt,SMS,Offset,GndTemp,Health
FMT, 65, 24, BARD, QBfff, TimeUS,I,DynPrX,DynPrY,DynPrZ
FMT, 66, 25, CANF, QBIBBBBBBBBB, TimeUS,Bus,Id,DLC,B0,B1,B2,B3,B4,B5,B6,B7
FMT, 67, 81, CAFD, QBIBQQQQQQQQ, TimeUS,Bus,Id,DLC,D0,D1,D2,D3,D4,D5,D6,D7
FMT, 196, 50, PL, QBBfffffffIIB, TimeUS,Heal,TAcq,pX,pY,vX,vY,mX,mY,mZ,LastMeasMS,EKFOutl,Est
FMT, 68, 24, POWR, QffHHB, TimeUS,Vcc,VServo,Flags,AccFlags,Safety
FMT, 69, 27, MCU, Qffff, TimeUS,MTemp,MVolt,MVmin,MVmax
FMT, 93, 46, CMD, QHHHffffLLfB, TimeUS,CTot,CNum,CId,Prm1,Prm2,Prm3,Prm4,Lat,Lng,Alt,Frame
FMT, 92, 46, MISE, QHHHffffLLfB, TimeUS,CTot,CNum,CId,Prm1,Prm2,Prm3,Prm4,Lat,Lng,Alt,Frame
FMT, 78, 48, MAVC, QBBBBBHffffiifBB, TimeUS,TS,TC,SS,SC,Fr,Cmd,P1,P2,P3,P4,X,Y,Z,Res,WL
FMT, 79, 20, RAD, QBBBBBHH, TimeUS,RSSI,RemRSSI,TxBuf,Noise,RemNoise,RxErrors,Fixed
FMT, 81, 46, CAM, QBHIHLLeeeccC, TimeUS,I,Img,GPSTime,GPSWeek,Lat,Lng,Alt,RelAlt,GPSAlt,R,P,Y
FMT, 82, 46, TRIG, QBHIHLLeeeccC, TimeUS,I,Img,GPSTime,GPSWeek,Lat,Lng,Alt,RelAlt,GPSAlt,R,P,Y
FMT, 83, 48, MNT, QBfffffffff, TimeUS,I,DRoll,Roll,DPitch,Pitch,DYawB,YawB,DYawE,YawE,Dist
FMT, 114, 41, ARSP, QBffcffBBffB, TimeUS,I,Airspeed,DiffPress,Temp,RawPress,Offset,U,H,Hp,TR,Pri
FMT, 88, 41, BAT, QBfffffcfBBB, TimeUS,Inst,Volt,VoltR,Curr,CurrTot,EnrgTot,Temp,Res,RemPct,H,SH
FMT, 89, 40, BCL, QBfHHHHHHHHHHHH, TimeUS,Instance,Volt,V1,V2,V3,V4,V5,V6,V7,V8,V9,V10,V11,V12
FMT, 113, 35, MAG, QBhhhhhhhhhBI, TimeUS,I,MagX,MagY,MagZ,OfsX,OfsY,OfsZ,MOX,MOY,MOZ,Health,S
FMT, 122, 14, MODE, QMBB, TimeUS,Mode,ModeNum,Rsn
FMT, 116, 17, RFND, QBCBBb, TimeUS,Instance,Dist,Stat,Orient,Quality
FMT, 117, 36, DMS, QIIIIBBBBBBBBB, TimeUS,N,Dp,RT,RS,Fa,Fmn,Fmx,Pa,Pmn,Pmx,Sa,Smn,Smx
FMT, 174, 41, BCN, QBBfffffff, TimeUS,Health,Cnt,D0,D1,D2,D3,PosX,PosY,PosZ
FMT, 175, 57, PRX, QBBfffffffffff, TimeUS,Layer,He,D0,D45,D90,D135,D180,D225,D270,D315,DUp,CAn,CDis
FMT, 176, 44, PRXR, QBffffffff, TimeUS,Layer,D0,D45,D90,D135,D180,D225,D270,D315
FMT, 179, 61, PM, QHHHIIHHIIIIIIQ, TimeUS,LR,NLon,NL,MaxT,Mem,Load,ErrL,InE,ErC,SPIC,I2CC,I2CI,Ex,R
FMT, 178, 29, SRTL, QBHHBfff, TimeUS,Active,NumPts,MaxPts,Action,N,E,D
FMT, 170, 48, OABR, QBBHHHBfLLiLLi, TimeUS,Type,Act,DYaw,Yaw,DP,RChg,Mar,DLt,DLg,DAlt,OLt,OLg,OAlt
FMT, 171, 31, OADJ, QBBBBLLLL, TimeUS,State,Err,CurrPoint,TotPoints,DLat,DLng,OALat,OALng
FMT, 172, 37, SA, QBffffffB, TimeUS,State,DVelX,DVelY,DVelZ,MVelX,MVelY,MVelZ,Back
FMT, 173, 21, OAVG, QBBLL, TimeUS,version,point_num,Lat,Lon
FMT, 77, 45, SIM, QccCfLLffff, TimeUS,Roll,Pitch,Yaw,Alt,Lat,Lng,Q1,Q2,Q3,Q4
FMT, 84, 38, TERR, QBLLHffHHf, TimeUS,Status,Lat,Lng,Spacing,TerrH,CHeight,Pending,Loaded,ROfs
FMT, 86, 40, ESC, QBffffcfcf, TimeUS,Instance,RPM,RawRPM,Volt,Curr,Temp,CTot,MotTemp,Err
FMT, 87, 15, EDT2, QBBBB, TimeUS,Instance,Stress,MaxStress,Status
FMT, 85, 46, CSRV, QBfffBfffffB, TimeUS,Id,Pos,Force,Speed,Pow,PosCmd,V,A,MotT,PCBT,Err
FMT, 105, 52, PIDR, QffffffffffB, TimeUS,Tar,Act,Err,P,I,D,FF,DFF,Dmod,SRate,Flags
FMT, 106, 52, PIDP, QffffffffffB, TimeUS,Tar,Act,Err,P,I,D,FF,DFF,Dmod,SRate,Flags
FMT, 107, 52, PIDY, QffffffffffB, TimeUS,Tar,Act,Err,P,I,D,FF,DFF,Dmod,SRate,Flags
FMT, 108, 52, PIDA, QffffffffffB, TimeUS,Tar,Act,Err,P,I,D,FF,DFF,Dmod,SRate,Flags
FMT, 109, 52, PIDS, QffffffffffB, TimeUS,Tar,Act,Err,P,I,D,FF,DFF,Dmod,SRate,Flags
FMT, 110, 52, PIDN, QffffffffffB, TimeUS,Tar,Act,Err,P,I,D,FF,DFF,Dmod,SRate,Flags
FMT, 111, 52, PIDE, QffffffffffB, TimeUS,Tar,Act,Err,P,I,D,FF,DFF,Dmod,SRate,Flags
FMT, 112, 56, DSTL, QBfLLeccfeffff, TimeUS,Stg,THdg,Lat,Lng,Alt,XT,Travel,L1I,Loiter,Des,P,I,D
FMT, 161, 32, ACC, QBQfff, TimeUS,I,SampleUS,AccX,AccY,AccZ
FMT, 162, 32, GYR, QBQfff, TimeUS,I,SampleUS,GyrX,GyrY,GyrZ
FMT, 163, 54, IMU, QBffffffIIfBBHH, TimeUS,I,GyrX,GyrY,GyrZ,AccX,AccY,AccZ,EG,EA,T,GH,AH,GHz,AHz
FMT, 166, 28, VIBE, QBfffI, TimeUS,IMU,VibeX,VibeY,VibeZ,Clip
FMT, 164, 31, ISBH, QHBBHHQf, TimeUS,N,type,instance,mul,smp_cnt,SampleUS,smp_rate
FMT, 165, 207, ISBD, QHHaaa, TimeUS,N,seqno,x,y,z
FMT, 129, 15, RFRH, QI, TimeUS,TF
FMT, 130, 5, RFRF, BB, FTypes,Slow
FMT, 138, 38, RFRN, IIIfIfffBBB, HLat,HLon,HAlt,E2T,AM,TX,TY,TZ,VC,EKT,Flags
FMT, 131, 4, REV2, B, Event
FMT, 132, 15, RSO2, III, Lat,Lon,Alt
FMT, 133, 11, RWA2, ff, Airspeed,uncertainty
FMT, 134, 4, REV3, B, Event
FMT, 135, 15, RSO3, III, Lat,Lon,Alt
FMT, 136, 11, RWA3, ff, Airspeed,Uncertainty
FMT, 137, 16, REY3, ffIB, yawangle,yawangleerr,timestamp_ms,type
FMT, 139, 13, RISH, HBBfBB, LR,PG,PA,LD,AC,GC
FMT, 140, 37, RISI, ffffffffBB, DVX,DVY,DVZ,DAX,DAY,DAZ,DVDT,DADT,Flags,I
FMT, 148, 5, RASH, BB, Primary,NumInst
FMT, 149, 14, RASI, fIBBB, pd,UpdateMS,H,Use,I
FMT, 141, 5, RBRH, BB, Primary,NumInst
FMT, 142, 13, RBRI, IfBB, LastUpdate,Alt,H,I
FMT, 143, 8, RRNH, hhB, GCl,MaxD,NumSensors
FMT, 144, 20, RRNI, fffHBBB, PX,PY,PZ,Dist,Orient,Status,I
FMT, 145, 5, RGPH, BB, NumInst,Primary
FMT, 146, 23, RGPI, ffffBBBB, OX,OY,OZ,Lg,Flags,Stat,NSats,I
FMT, 147, 58, RGPJ, IffffffIiiiffHB, TS,VX,VY,VZ,SA,Y,YA,YT,Lat,Lon,Alt,HA,VA,HD,I
FMT, 153, 14, RMGH, fBBBBBBB, Dec,Avail,NumInst,AutoDec,NumEna,LOE,C,FUsable
FMT, 154, 35, RMGI, IffffffBBBB, LU,OX,OY,OZ,FX,FY,FZ,UFY,H,HSF,I
FMT, 150, 33, RBCH, ffffiiiBB, PX,PY,PZ,AE,OLat,OLng,OAlt,Flags,NumInst
FMT, 151, 25, RBCI, IffffBB, LU,PX,PY,PZ,Dist,H,I
FMT, 152, 21, RVOH, fffIBB, OX,OY,OZ,Del,H,Ena
FMT, 155, 40, ROFH, ffffIffffB, FX,FY,GX,GY,Tms,PX,PY,PZ,HgtOvr,Qual
FMT, 156, 49, REPH, fffffffffIIH, PX,PY,PZ,Q1,Q2,Q3,Q4,PEr,AEr,TS,RT,D
FMT, 157, 19, RSLL, IIfI, Lat,Lng,PosAccSD,TS
FMT, 158, 25, REVH, ffffIH, VX,VY,VZ,Er,TS,D
FMT, 159, 31, RWOH, ffIffff, DA,DT,TS,PX,PY,PZ,R
FMT, 160, 53, RBOH, ffffffffIfffH, Q,DPX,DPY,DPZ,DAX,DAY,DAZ,DT,TS,OX,OY,OZ,D
FMT, 43, 37, XKF0, QBBccCCcccccccc, TimeUS,C,ID,rng,innov,SIV,TR,BPN,BPE,BPD,OFH,OFL,OFN,OFE,OFD
FMT, 44, 56, XKF1, QBccCfffffffccce, TimeUS,C,Roll,Pitch,Yaw,VN,VE,VD,dPD,PN,PE,PD,GX,GY,GZ,OH
FMT, 45, 46, XKF2, QBccccchhhhhhfff, TimeUS,C,AX,AY,AZ,VWN,VWE,MN,ME,MD,MX,MY,MZ,IDX,IDY,IS
FMT, 46, 42, XKF3, QBcccccchhhccff, TimeUS,C,IVN,IVE,IVD,IPN,IPE,IPD,IMX,IMY,IMZ,IYAW,IVT,RErr,ErSc
FMT, 47, 44, XKF4, QBcccccfffHBIHb, TimeUS,C,SV,SP,SH,SM,SVT,errRP,OFN,OFE,FS,TS,SS,GPS,PI
FMT, 48, 41, XKF5, QBBhhhcccCCfff, TimeUS,C,NI,FIX,FIY,AFI,HAGL,offset,RI,rng,Herr,eAng,eVel,ePos
FMT, 49, 36, XKFD, QBffffff, TimeUS,C,IX,IY,IZ,IVX,IVY,IVZ
FMT, 50, 29, XKFM, QBBffff, TimeUS,C,OGNM,GLR,ALR,GDR,ADR
FMT, 51, 20, XKFS, QBBBBBBBBB, TimeUS,C,MI,BI,GI,AI,SS,GPS_GTA,GPS_CHK_WAIT,MAG_FUSION
FMT, 52, 28, XKQ, QBffff, TimeUS,C,Q1,Q2,Q3,Q4
FMT, 53, 48, XKT, QBIffffffff, TimeUS,C,Cnt,IMUMin,IMUMax,EKFMin,EKFMax,AngMin,AngMax,VMin,VMax
FMT, 54, 20, XKTV, QBff, TimeUS,C,TVS,TVD
FMT, 55, 60, XKV1, QBffffffffffff, TimeUS,C,V00,V01,V02,V03,V04,V05,V06,V07,V08,V09,V10,V11
FMT, 56, 60, XKV2, QBffffffffffff, TimeUS,C,V12,V13,V14,V15,V16,V17,V18,V19,V20,V21,V22,V23
FMT, 57, 60, XKY0, QBffffffffffff, TimeUS,C,YC,YCS,Y0,Y1,Y2,Y3,Y4,W0,W1,W2,W3,W4
FMT, 58, 52, XKY1, QBffffffffff, TimeUS,C,IVN0,IVN1,IVN2,IVN3,IVN4,IVE0,IVE1,IVE2,IVE3,IVE4
FMT, 41, 60, NKY0, QBffffffffffff, TimeUS,C,YC,YCS,Y0,Y1,Y2,Y3,Y4,W0,W1,W2,W3,W4
FMT, 42, 52, NKY1, QBffffffffff, TimeUS,C,IVN0,IVN1,IVN2,IVN3,IVN4,IVE0,IVE1,IVE2,IVE3,IVE4
FMT, 70, 45, AHR2, QccCfLLffff, TimeUS,Roll,Pitch,Yaw,Alt,Lat,Lng,Q1,Q2,Q3,Q4
FMT, 71, 19, AOA, Qff, TimeUS,AOA,SSA
FMT, 72, 36, ATT, QffffffB, TimeUS,DesRoll,Roll,DesPitch,Pitch,DesYaw,Yaw,AEKF
FMT, 73, 24, ORGN, QBLLe, TimeUS,Type,Lat,Lng,Alt
FMT, 74, 31, POS, QLLfff, TimeUS,Lat,Lng,Alt,RelHomeAlt,RelOriginAlt
FMT, 76, 35, ATSC, Qffffff, TimeUS,AngPScX,AngPScY,AngPScZ,PDScX,PDScY,PDScZ
FMT, 204, 51, VSTB, Qffffffffff, TimeUS,GyrX,GyrY,GyrZ,AccX,AccY,AccZ,Q1,Q2,Q3,Q4
FMT, 90, 38, MON, QIbIHHHHHII, TimeUS,Dly,Tsk,IErr,IErrCnt,IErrLn,MM,MC,SmLn,SPICnt,I2CCnt
FMT, 91, 47, WDOG, QbIHHHHHHHIBIIn, TimeUS,Tsk,IE,IEC,IEL,MvMsg,MvCmd,SmLn,FL,FT,FA,FP,ICSR,LR,TN
FMT, 210, 20, UART, QBff, TimeUS,I,Tx,Rx
FMT, 115, 21, RPM, QBffB, TimeUS,I,RPM,Qual,H
FMT, 209, 27, FNCE, QBBBLLBf, TimeUS,Tot,Seq,Type,Lat,Lng,Count,Radius
FMT, 177, 33, DSF, QIHIIII, TimeUS,Dp,Blk,Bytes,FMn,FMx,FAv
FMT, 121, 24, RALY, QBBLLhB, TimeUS,Tot,Seq,Lat,Lng,Alt,Flags
FMT, 183, 23, MAV, QBHHHBHH, TimeUS,chan,txp,rxp,rxdp,flags,ss,tf
FMT, 167, 43, VISO, Qffffffff, TimeUS,dt,AngDX,AngDY,AngDZ,PosDX,PosDY,PosDZ,conf
FMT, 168, 58, VISP, QQIffffffffBBb, TimeUS,RTimeUS,CTimeMS,PX,PY,PZ,R,P,Y,PErr,AErr,Rst,Ign,Q
FMT, 169, 42, VISV, QQIffffBBb, TimeUS,RTimeUS,CTimeMS,VX,VY,VZ,VErr,Rst,Ign,Q
FMT, 180, 28, OF, QBffff, TimeUS,Qual,flowX,flowY,bodyX,bodyY
FMT, 182, 21, WENC, Qfbfb, TimeUS,Dist0,Qual0,Dist1,Qual1
FMT, 185, 35, ADSB, QIiiiHHhH, TimeUS,ICAO_address,Lat,Lng,Alt,Heading,Hor_vel,Ver_vel,Squark
FMT, 181, 12, EV, QB, TimeUS,Id
FMT, 186, 18, ARM, QBIBB, TimeUS,ArmState,ArmChecks,Forced,Method
FMT, 184, 13, ERR, QBB, TimeUS,Subsys,ECode
FMT, 187, 35, WINC, QBBBBBfffHfb, TimeUS,Heal,ThEnd,Mov,Clut,Mode,DLen,Len,DRate,Tens,Vcc,Temp
FMT, 188, 47, PSCN, Qfffffffff, TimeUS,DPN,TPN,PN,DVN,TVN,VN,DAN,TAN,AN
FMT, 189, 47, PSCE, Qfffffffff, TimeUS,DPE,TPE,PE,DVE,TVE,VE,DAE,TAE,AE
FMT, 190, 47, PSCD, Qfffffffff, TimeUS,DPD,TPD,PD,DVD,TVD,VD,DAD,TAD,AD
FMT, 191, 35, PSON, Qffffff, TimeUS,TPON,PON,TVON,VON,TAON,AON
FMT, 192, 35, PSOE, Qffffff, TimeUS,TPOE,POE,TVOE,VOE,TAOE,AOE
FMT, 193, 35, PSOD, Qffffff, TimeUS,TPOD,POD,TVOD,VOD,TAOD,AOD
FMT, 194, 35, PSOT, Qffffff, TimeUS,TPOT,POT,TVOT,VOT,TAOT,AOT
FMT, 75, 63, RATE, Qfffffffffffff, TimeUS,RDes,R,ROut,PDes,P,POut,YDes,Y,YOut,ADes,A,AOut,AOutSlew
FMT, 195, 39, ANG, Qfffffff, TimeUS,DesRoll,Roll,DesPitch,Pitch,DesYaw,Yaw,Dt
FMT, 201, 33, STAK, QBBHHN, TimeUS,Id,Pri,Total,Free,Name
FMT, 202, 88, FILE, NIBZ, FileName,Offset,Length,Data
FMT, 197, 78, AISR, QBBBZ, TimeUS,num,total,ID,payload
FMT, 198, 41, AIS1, QBBIBbHbLLHHBBbI, US,typ,rep,mmsi,nav,rot,sog,pos,lon,lat,cog,hed,sec,man,raim,rad
FMT, 199, 38, AIS4, QBIHBBBBBBLLBBI, US,rep,mmsi,year,mth,day,h,m,s,fix,lon,lat,epfd,raim,rad
FMT, 200, 175, AIS5, QBIBINZBHHBBBBZB, US,rep,mmsi,ver,imo,cal,nam,typ,bow,stn,prt,str,fix,dght,dst,dte
FMT, 203, 39, SCR, QNIii, TimeUS,Name,Runtime,Total_mem,Run_mem
FMT, 206, 90, VER, QBHBBBBIZHBB, TimeUS,BT,BST,Maj,Min,Pat,FWT,GH,FWS,APJ,BU,FV
FMT, 205, 32, MOTB, QfffffB, TimeUS,LiftMax,BatVolt,ThLimit,ThrAvMx,ThrOut,FailFlags
FMT, 6, 24, PTUN, QBfff, TimeUS,Param,TunVal,TunMin,TunMax
FMT, 0, 55, CTUN, Qffffffefffhh, TimeUS,ThI,ABst,ThO,ThH,DAlt,Alt,BAlt,DSAlt,SAlt,TAlt,DCRt,CRt
FMT, 1, 14, D16, QBh, TimeUS,Id,Value
FMT, 2, 14, DU16, QBH, TimeUS,Id,Value
FMT, 3, 16, D32, QBi, TimeUS,Id,Value
FMT, 4, 16, DU32, QBI, TimeUS,Id,Value
FMT, 5, 16, DFLT, QBf, TimeUS,Id,Value
FMT, 9, 47, SIDD, Qfffffffff, TimeUS,Time,Targ,F,Gx,Gy,Gz,Ax,Ay,Az
FMT, 10, 40, SIDS, QBfffffff, TimeUS,Ax,Mag,FSt,FSp,TFin,TC,TR,TFout
FMT, 8, 49, GUIP, QBfffbffffff, TimeUS,Type,pX,pY,pZ,Terrain,vX,vY,vZ,aX,aY,aZ
FMT, 11, 44, GUIA, QBffffffff, TimeUS,Type,Roll,Pitch,Yaw,RollRt,PitchRt,YawRt,Thrust,ClimbRt
GPS, 167841373, 0, 3, 296195800, 2379, 16, 0.61, 15.3677074, 75.1255206, 631.02, 0.061, 0, 0.026, 0, 1
GPA, 167841373, 0, 1.14, 0.91, 1.46, 0.16, 0, 1, 167825, 200, 553.01, 0, 0
IMU, 167841444, 0, -0.005072503, -0.01828776, 0.003367998, 0.06599168, -0.04909356, -9.79392, 0, 0, 44.80676, 1, 1, 2022, 2022
IMU, 167841444, 1, 0.0001103345, -0.003386517, 0.005072861, 0.05469443, 0.002151181, -9.826431, 0, 0, 45, 1, 1, 1998, 2046
FMT, 249, 25, SURF, QBBfff, TimeUS,I,St,D,FD,TO
SURF, 167851826, 0, 2, 0, 0, 0.336181
SURF, 167851854, 1, 2, 0, 0, 0.336181
FMT, 253, 28, HEAT, Qfbfff, TimeUS,Temp,Targ,P,I,Out
HEAT, 167878264, 44.77053, 45, 11.47346, 8.591757, 20.06522
IMU, 167881452, 0, -0.00547525, -0.01867455, -0.005070976, -0.07516719, -0.1242425, -9.790515, 0, 0, 44.80676, 1, 1, 2022, 2022
IMU, 167881452, 1, -0.0001703373, 0.002100046, -0.003787638, -0.08857956, -0.1183368, -9.792015, 0, 0, 45, 1, 1, 1998, 2046
POWR, 167901409, 4.919384, 0, 1, 1, 6
MCU, 167901409, 39.20477, 3.348254, 3.337176, 3.354597
BAT, 167901423, 0, 15.53284, 15.59084, 1.150703, 58.60997, 0.91899, 0, 0.05040709, 98, 1, 0
MAG, 167901434, 0, -19, -218, 125, 102, 25, 42, 0, 0, 0, 1, 167901433
MAG, 167901434, 1, 56, -380, 185, 32, 17, -32, 0, 0, 0, 1, 167901432
SURF, 167901510, 0, 2, 0, 0, 0.3366891
SURF, 167901519, 1, 2, 0, 0, 0.3366891
BARO, 167901557, 0, 0.2073975, 630.8474, 93699.77, 39.86, -0.5973244, 167901, 0, 35, 1
CTUN, 167901570, 0, 0, 0, 0.2570977, 0.3455622, 0.3455622, 0.2, NaN, 0, 0.01398248, 1, 1
ATT, 167901630, 0.0004190666, 0.5232831, -0.0003586345, -0.1041692, 132.1405, 87.04156, 3
ANG, 167900769, 0.0004190666, 0.523283, -0.0003586345, -0.1041692, 132.1405, 87.04156, 0.002509
RATE, 167900781, -2.281567, 0.03242456, -0.005551728, 0.8238593, 0.03398318, 0.001568324, 139.3409, -0.1372848, 0.5000265, -0.1984596, -0.1984596, 0, 0
PIDR, 167901663, -0.0397191, 0.0005659154, -0.04028502, -0.005438478, 0, -0.0001132503, 0, 0, 1, 0.03235561, 9
PIDP, 167901678, 0.01486736, 0.0005931184, 0.01427424, 0.001927023, 0, -0.0003586984, 0, 0, 1, 0.04314763, 9
PIDY, 167901711, 2.481247, -0.002396073, 2.777925, 0.5000265, 0, 0, 0, 0, 1, 0.6935833, 9
PIDA, 167901725, -0.1984596, -0.1984596, 0, 0, -257.0977, 0, 0, 0, 1, 0, 13
PIDN, 167901730, 0, 0, 0, 0, 0, 0, 0, 0, 0, 0, 0
PIDE, 167901734, 0, 0, 0, 0, 0, 0, 0, 0, 0, 0, 0
XKF4, 167900875, 0, 0.02, 0.01, 0.01, 0.09, 0, 0.006115941, 0.4932518, -0.299622, 0, 48, 109375, 0, 0
XKY0, 167900875, 0, 180.1625, 15.03311, 216.0025, 288.0025, 0.002469745, 72.00247, 144.0025, 0.2, 0.2, 0.2, 0.2, 0.2
XKY1, 167900875, 0, 0, 0, 0, 0, 0, 0, 0, 0, 0, 0
XKF1, 167900875, 0, 0.52, -0.1, 87.04, -0.01569302, 0.0114348, -0.01927221, 0.01222609, 0.353235, -1.634937, -0.3455622, -0.29, -1.04, -0.07, 630.64
XKF2, 167900875, 0, 0, 0, 0.02, 0, 0, 400, -5, 144, 0, 0, 0, 0, 0, 0
XKF3, 167900875, 0, 0.02, -0.04, -0.04, 0.09, 0, -0.25, 0, 0, 0, -8.18, 0, 0, 0.0003693282
XKF5, 167900875, 0, 0, 0, 0, 0, 0.41, 0.08, 0, 0, 0.5, 0.001154102, 0.005359237, 0.009354248
XKFS, 167900875, 0, 0, 0, 0, 0, 0, 1, 0, 1
XKQ, 167900875, 0, 0.7251139, 0.003937253, 0.002485399, 0.6886132
XKF4, 167900875, 1, 0.02, 0.01, 0.01, 0.09, 0, 0.006114603, 0.4446999, -0.1910028, 0, 48, 109375, 0, 0
XKY0, 167900875, 1, 259.4193, 14.58543, 216.1183, 287.9857, 359.8997, 71.9649, 144.0985, 0.2010008, 0.2010544, 0.1996501, 0.1987331, 0.1995615
XKY1, 167900875, 1, 0.002706723, -0.2691899, -0.1323275, 0.2151228, 0.3026515, 0.2492091, 0.01810308, -0.306849, -0.2805306, 0.05851661
XKF1, 167900875, 1, 0.35, -0.07, 87.09, -0.01407625, 0.007868445, -0.009786398, 0.017211, 0.3542407, -1.637476, -0.336476, -0.05, -0.06, 0, 630.64
XKF2, 167900875, 1, 0, 0, 0, 0, 0, 400, -5, 144, 0, 0, 0, 0, 0, 0
XKF3, 167900875, 1, 0.02, -0.04, -0.03, 0.09, 0, -0.24, 0, 0, 0, -8.11, 0, 0.007843952, 0.000358018
XKFS, 167900875, 1, 0, 0, 0, 0, 0, 1, 0, 1
XKQ, 167900875, 1, 0.7247924, 0.002669738, 0.001662804, 0.6889602
AHR2, 167901840, 0.49, -0.07, 87.22, 631.05, 15.3677074, 75.1255206, 0.7240219, 0.003628152, 0.002510545, 0.6897628
POS, 167901846, 15.3677082, 75.1255205, 630.98, 0.01556226, 0.3455622
MOTB, 167901850, 1, 1, 1, 0.02570977, 0, 2
RCIN, 167901857, 1495, 1495, 982, 1495, 982, 982, 982, 982, 1495, 982, 982, 982, 1495, 1495
RCI2, 167901860, 1495, 1495, 0, 1
RCOU, 167901867, 1000, 1000, 1000, 1000, 0, 0, 0, 0, 0, 0, 0, 0, 0, 0
RCO2, 167901870, 0, 0, 0, 0
PSCN, 167901877, 0.353235, 0.353235, 0.353235, -0.01569302, -0.01569302, -0.01569302, 0, -2.004834E-39, -6.846306E-05
PSCE, 167901882, -1.634937, -1.634937, -1.634937, 0.0114348, 0.0114348, 0.0114348, 0, -2.726969E-40, 6.500341E-05
PSCD, 167901886, -0.3455622, -0.3455622, -0.3455622, -0.01927221, -0.01927221, -0.01927221, 0.001984596, 0.001984596, 0.001984596
VIBE, 167901891, 0, 0.05197155, 0.04230747, 0.01389394, 0
VIBE, 167901891, 1, 0.07899139, 0.07896715, 0.07927297, 0
FMT, 246, 31, CTRL, Qfffff, TimeUS,RMSRollP,RMSRollD,RMSPitchP,RMSPitchD,RMSYaw
CTRL, 167901899, 0.005182958, 0.0001843874, 0.002964902, 0.0002477872, 0.5624965
FMT, 252, 43, DCM, Qffffffff, TimeUS,Roll,Pitch,Yaw,ErrRP,ErrYaw,VWN,VWE,VWD
DCM, 167903386, 0.5004531, -0.07995789, 87.22446, 0.02976615, 0.137793, 0, 0, 0
FMT, 251, 51, EAHR, QffffffLLfI, TimeUS,Roll,Pitch,Yaw,VN,VE,VD,Lat,Lon,Alt,Flg
EAHR, 167903427, 0, 0, 0, 0, 0, 0, 0, 0, 0, 0
MSG, 167907191, ArduCopter V4.6.2 (1ebd4d99)
MSG, 167907198, ChibiOS: 88b84600
VER, 167907203, 10, 5009, 4, 6, 2, 255, 515722649, ArduCopter V4.6.2 (1ebd4d99), 56, 2, 2
MSG, 167907216, Pixhawk6C 003D0048 3133510F 31343630
MSG, 167907224, Param space used: 874/5376
MSG, 167907231, RC Protocol: SBUS
MSG, 167907241, RCOut: PWM:1-16
MSG, 167907246, New mission
CMD, 167908751, 4, 0, 16, 0, 0, 0, 0, 15.3677086, 75.1255203, 630.97, 0
CMD, 167908760, 4, 1, 22, 1, 0, 0, 0, 0, 0, 10, 3
CMD, 167908767, 4, 2, 16, 10, 0, 0, 0, 15.367361, 75.1254623, 10, 3
CMD, 167908774, 4, 3, 20, 0, 0, 0, 0, 0, 0, 0, 0
MSG, 167908779, New rally
MSG, 167908784, New fence
FNCE, 167908791, 14, 0, 98, 15.3679153, 75.1255443, 14, 0
FNCE, 167908796, 14, 1, 98, 15.3678714, 75.1258394, 14, 0
FNCE, 167908801, 14, 2, 98, 15.3676541, 75.1260915, 14, 0
FNCE, 167908807, 14, 3, 98, 15.3674795, 75.1260915, 14, 0
FNCE, 167908812, 14, 4, 98, 15.3673825, 75.1260754, 14, 0
FNCE, 167908817, 14, 5, 98, 15.3673075, 75.12607, 14, 0
FNCE, 167908823, 14, 6, 98, 15.3670748, 75.1260566, 14, 0
FNCE, 167908828, 14, 7, 98, 15.3668963, 75.1258796, 14, 0
FNCE, 167908833, 14, 8, 98, 15.366811, 75.1255792, 14, 0
FNCE, 167908838, 14, 9, 98, 15.3668653, 75.1252922, 14, 0
FNCE, 167908844, 14, 10, 98, 15.3670334, 75.1250857, 14, 0
FNCE, 167908849, 14, 11, 98, 15.3673696, 75.1251125, 14, 0
FNCE, 167908854, 14, 12, 98, 15.3675817, 75.1251393, 14, 0
FNCE, 167908860, 14, 13, 98, 15.3678481, 75.1253163, 14, 0
MSG, 167908868, Frame: QUAD/X
MODE, 167908873, Loiter, 5, 1
ORGN, 167908877, 0, 15.367705, 75.1255358, 630.64
ORGN, 167908880, 1, 15.3677086, 75.1255203, 630.97
MSG, 167908889, GPS 1: probing for u-blox at 230400 baud
MSG, 167908899, u-blox 1 HW: 00190000 SW: EXT CORE 4.04 (7f89f7)
IMU, 167921268, 0, -0.004955301, -0.01846131, 0.0006440178, 0.02066322, -0.05594653, -9.787473, 0, 0, 44.80676, 1, 1, 2022, 2022
IMU, 167921268, 1, -0.0003963244, -0.001106597, 0.002669437, 0.02452881, -0.008603949, -9.79634, 0, 0, 45, 1, 1, 1998, 2046
FILE, @SYS/uarts.txt, 0, 64, UARTV1\nSERIAL0 OTG1  TX =       0 RX =       0 TXBD=     0 RXBD=
FILE, @SYS/uarts.txt, 64, 64,      0 FE=0 OE=0 NE=0 FlowCtrl=0\nSERIAL1 UART7 TX*=  290699 RX*=
SURF, 167951509, 0, 2, 0, 0, 0.3371224
SURF, 167951518, 1, 2, 0, 0, 0.3371224
FILE, @SYS/uarts.txt, 128, 64,    35949 TXBD= 17405 RXBD=  2152 FE=0 OE=0 NE=0 FlowCtrl=0\nSERIA
IMU, 167961269, 0, -0.005903056, -0.01795376, 0.001405336, -0.01978849, -0.1155735, -9.788818, 0, 0, 44.80676, 1, 1, 2022, 2022
IMU, 167961269, 1, -0.0006571951, -0.000689009, 0.002803294, -0.0290826, -0.09492639, -9.786799, 0, 0, 45, 1, 1, 1998, 2046
FILE, @SYS/uarts.txt, 192, 64, L2 UART5 TX*=    4220 RX*=       0 TXBD=   252 RXBD=     0 FE=0 
FILE, @SYS/uarts.txt, 256, 64, OE=0 NE=0 FlowCtrl=0\nSERIAL3 UART1 TX*=    2106 RX*=  110655 TXB
STAK, 167987228, 21, 58, 2992, 1368, FTP
FILE, @SYS/uarts.txt, 320, 64, D=   126 RXBD=  6625 FE=143 OE=0 NE=168 FlowCtrl=0\nSERIAL4 UART8
RAD, 167993915, 70, 0, 100, 91, 0, 0, 0
POWR, 168001452, 4.945468, 0, 1, 1, 6
MCU, 168001452, 39.16501, 3.348958, 3.340674, 3.354738
BAT, 168001466, 0, 15.55728, 15.61873, 1.192447, 58.64311, 0.9195056, 0, 0.05152712, 98, 1, 0
MAG, 168001477, 0, -22, -217, 144, 102, 25, 42, 0, 0, 0, 1, 168001476
MAG, 168001477, 1, 58, -380, 186, 32, 17, -32, 0, 0, 0, 1, 168001475
SURF, 168001495, 0, 2, 0, 0, 0.3374927
SURF, 168001504, 1, 2, 0, 0, 0.3374927
BARO, 168001524, 0, 0.1456299, 630.7856, 93700.46, 39.87, -0.5063438, 168001, 0, 35, 1
CTUN, 168001536, 0, 0, 0, 0.2570977, 0.3440123, 0.3440123, 0.14, NaN, 0, 0.01398248, 1, 1
ATT, 168001623, 0.0003777338, 0.5240401, -0.0002976641, -0.1062214, 132.1118, 87.08043, 3
ANG, 168000759, 0.0003777338, 0.5240402, -0.0002976641, -0.1062214, 132.1118, 87.08043, 0.002501
RATE, 168000773, -2.335049, 0.01499859, -0.005633013, 0.5872903, -0.01727952, 0.001309371, 112.3447, -0.1172735, 0.4155777, 0.3525734, 0.3525734, 0, 0
PIDR, 168001662, -0.04063046, 0.0002617748, -0.04089224, -0.005520453, 0, -0.0001125601, 0, 0, 1, 0.03449085, 9
PIDP, 168001666, 0.0106646, -0.0003015846, 0.01096618, 0.001480434, 0, -0.0001710632, 0, 0, 1, 0.04493786, 9
PIDY, 168001670, 2.010064, -0.00204681, 2.308765, 0.4155777, 0, 0, 0, 0, 1, 0.7422815, 9
PIDA, 168001673, 0.3525734, 0.3525734, 0, 0, -257.0977, 0, 0, 0, 1, 0, 13
PIDN, 168001677, 0, 0, 0, 0, 0, 0, 0, 0, 0, 0, 0
PIDE, 168001681, 0, 0, 0, 0, 0, 0, 0, 0, 0, 0, 0
XKF4, 168000918, 0, 0.02, 0.01, 0, 0.08, 0, 0.006195324, 0.4932518, -0.299622, 0, 48, 109375, 0, 0
XKY0, 168000918, 0, 180.3305, 15.02613, 216.0019, 288.0019, 0.001905129, 72.00191, 144.0019, 0.2, 0.2, 0.2, 0.2, 0.2
XKY1, 168000918, 0, 0, 0, 0, 0, 0, 0, 0, 0, 0, 0
XKF1, 168000918, 0, 0.52, -0.1, 87.08, -0.01688086, 0.01435071, -0.01845242, 0.0226981, 0.3481864, -1.632737, -0.3440123, -0.29, -1.04, -0.07, 630.64
XKF2, 168000918, 0, 0, 0, 0.02, 0, 0, 400, -5, 144, 0, 0, 0, 0, 0, 0
XKF3, 168000918, 0, 0.02, -0.04, -0.04, 0.09, 0, -0.12, 0, 0, 0, -7.35, 0, 0, 0.0003693282
XKF5, 168000918, 0, 0, 0, 0, 0, 0.41, 0.08, 0, 0, 0.5, 0.001033382, 0.003746947, 0.006479647
XKFS, 168000918, 0, 0, 0, 0, 0, 0, 1, 0, 1
XKQ, 168000918, 0, 0.7248802, 0.003953536, 0.002478303, 0.6888591
XKV1, 168000918, 0, 0.0001156145, 4.794515E-06, 4.795817E-06, 0.0001302251, 0.02716053, 0.02716151, 0.01212983, 0.06010615, 0.06010614, 0.1516657, 3.87607E-11, 3.876598E-11
XKV2, 168000918, 0, 1.083522E-10, 4.44781E-06, 4.447859E-06, 5.8081E-08, 0, 0, 0, 0, 0, 0, 0, 0
XKF4, 168000918, 1, 0.02, 0.01, 0, 0.08, 0, 0.006194194, 0.4446999, -0.1910028, 0, 48, 109375, 0, 0
XKY0, 168000918, 1, 259.4225, 14.58546, 216.1214, 287.9888, 359.9029, 71.96802, 144.1016, 0.2010008, 0.2010544, 0.1996501, 0.1987331, 0.1995615
XKY1, 168000918, 1, 0.002706723, -0.2691899, -0.1323275, 0.2151228, 0.3026515, 0.2492091, 0.01810308, -0.306849, -0.2805306, 0.05851661
XKF1, 168000918, 1, 0.35, -0.07, 87.13, -0.01601127, 0.01058595, -0.008523379, 0.0266588, 0.3491055, -1.63533, -0.3344618, -0.05, -0.06, 0, 630.64
XKF2, 168000918, 1, 0, 0, 0, 0, 0, 400, -5, 144, 0, 0, 0, 0, 0, 0
XKF3, 168000918, 1, 0.02, -0.04, -0.03, 0.09, 0, -0.12, 0, 0, 0, -7.29, 0, 0.007843952, 0.000358018
XKFS, 168000918, 1, 0, 0, 0, 0, 0, 1, 0, 1
XKQ, 168000918, 1, 0.7245373, 0.002720589, 0.001646518, 0.6892283
AHR2, 168001839, 0.53, -0.13, 87.3, 631.17, 15.3677074, 75.1255207, 0.7235397, 0.004212471, 0.002371167, 0.6902659
POS, 168001845, 15.3677082, 75.1255205, 630.98, 0.01401236, 0.3440123
MOTB, 168001850, 1, 1, 1, 0.02570977, 0, 2
RCIN, 168001856, 1495, 1495, 982, 1495, 982, 982, 982, 982, 1495, 982, 982, 982, 1495, 1495
RCI2, 168001860, 1495, 1495, 0, 1
RCOU, 168001866, 1000, 1000, 1000, 1000, 0, 0, 0, 0, 0, 0, 0, 0, 0, 0
RCO2, 168001869, 0, 0, 0, 0
PSCN, 168001876, 0.3481864, 0.3481864, 0.3481864, -0.01688086, -0.01688086, -0.01688086, 0, -1.078375E-39, -6.197341E-05
PSCE, 168001881, -1.632737, -1.632737, -1.632737, 0.01435071, 0.01435071, 0.01435071, 0, -1.466809E-40, 5.417457E-05
PSCD, 168001885, -0.3440123, -0.3440123, -0.3440123, -0.01845242, -0.01845242, -0.01845242, -0.003525734, -0.003525734, -0.003525734
VIBE, 168001890, 0, 0.03334952, 0.02990573, 0.01168196, 0
VIBE, 168001890, 1, 0.06976887, 0.06672308, 0.07503539, 0
CTRL, 168001898, 0.005263091, 0.0001577553, 0.002615302, 0.0002212428, 0.5292025
IMU, 168001913, 0, -0.004959025, -0.01855025, -0.003282028, -0.01207023, -0.0826502, -9.788894, 0, 0, 44.80676, 1, 1, 2022, 2022
IMU, 168001913, 1, -0.001033651, -0.00319647, -0.001177508, -0.01377173, -0.04854495, -9.793259, 0, 0, 45, 1, 1, 1998, 2046
DCM, 168003374, 0.5375082, -0.1374187, 87.30359, 0.02976615, 0.1378028, 0, 0, 0
EAHR, 168003410, 0, 0, 0, 0, 0, 0, 0, 0, 0, 0
FILE, @SYS/uarts.txt, 384, 64,  TX*=       0 RX*=       0 TXBD=     0 RXBD=     0 FE=0 OE=0 NE=
FILE, @SYS/uarts.txt, 448, 64, 0 FlowCtrl=0\nSERIAL5 UART2 TX =       0 RX =       0 TXBD=     0
FILE, @SYS/uarts.txt, 512, 64,  RXBD=     0 FE=0 OE=0 NE=0 FlowCtrl=0\nSERIAL6 UART3 TX =       
GPS, 168041325, 0, 3, 296196000, 2379, 16, 0.61, 15.3677074, 75.1255206, 631.02, 0.07600001, 0, 0.048, 0, 1
GPA, 168041325, 0, 1.14, 0.91, 1.46, 0.19, 0, 1, 168025, 200, 553.01, 0, 0
IMU, 168041441, 0, -0.005035544, -0.01779749, -0.000657017, -0.02196443, -0.0796536, -9.785456, 0, 0, 44.32367, 1, 1, 2022, 2022
IMU, 168041441, 1, -0.001295461, -0.00057733, 0.001282786, -0.02330066, -0.05464675, -9.799946, 0, 0, 45, 1, 1, 1998, 2046
FILE, @SYS/uarts.txt, 576, 64, 0 RX =       0 TXBD=     0 RXBD=     0 FE=0 OE=0 NE=0 FlowCtrl=0
SURF, 168051856, 0, 2, 0, 0, 0.3378111
SURF, 168051871, 1, 2, 0, 0, 0.3378111
FILE, @SYS/uarts.txt, 640, 64, \nSERIAL7 OTG2  TX =       0 RX =       0 TXBD=     0 RXBD=     0
FILE, @SYS/uarts.txt, 704, 64,  FE=0 OE=0 NE=0 FlowCtrl=0\nIOMCU   UART6 TX*= 1371566 RX*=  8428
IMU, 168081416, 0, -0.00520501, -0.01733814, 0.001587561, -0.004133965, -0.1119158, -9.793296, 0, 0, 44.80676, 1, 1, 2022, 2022
IMU, 168081416, 1, -0.0004664974, -0.001915897, 0.002915401, 0.00914215, -0.0975837, -9.790518, 0, 0, 45, 1, 1, 1998, 2046
FILE, @SYS/uarts.txt, 768, 53, 74 TXBD=  4974 RXBD= 24751 FE=0 OE=0 NE=0 FlowCtrl=0\n
STAK, 168086767, 255, 255, 1536, 1276, ISR
POWR, 168101388, 4.94436, 0, 1, 1, 6
MCU, 168101388, 39.20477, 3.348958, 3.342215, 3.355162
BAT, 168101402, 0, 15.5559, 15.61767, 1.174809, 58.67572, 0.920013, 0, 0.05257603, 98, 1, 0
MAG, 168101431, 0, -26, -218, 160, 102, 25, 42, 0, 0, 0, 1, 168101430
MAG, 168101431, 1, 57, -381, 188, 32, 17, -32, 0, 0, 0, 1, 168101428
SURF, 168101450, 0, 2, 0, 0, 0.3380634
SURF, 168101459, 1, 2, 0, 0, 0.3380634
BARO, 168101478, 0, 0.1427002, 630.7827, 93700.5, 39.87, -0.08358003, 168101, 0, 35, 1
CTUN, 168101493, 0, 0, 0, 0.2570977, 0.3410124, 0.3410124, 0.14, NaN, 0, 0.01398248, 1, 1
ATT, 168101552, 0.0003301637, 0.5252156, -0.000224979, -0.1037984, 132.0932, 87.11678, 3
ANG, 168100758, 0.0003301637, 0.5252156, -0.000224979, -0.1037984, 132.0932, 87.11678, 0.0025
RATE, 168100770, -2.361057, 0.0196024, -0.005530627, 0.467306, -0.008209994, 0.001135282, 100.4148, 0.06021078, 0.3423917, 0.3507614, 0.3507614, 0, 0
PIDR, 168101569, -0.04125116, 0.0003421265, -0.04159329, -0.005615094, 0, 8.446717E-05, 0, 0, 1, 0.03549768, 9
PIDP, 168101573, 0.008195149, -0.0001432914, 0.00833844, 0.001125689, 0, 9.592243E-06, 0, 0, 1, 0.04573878, 9
PIDY, 168101577, 1.752756, 0.001050876, 1.902176, 0.3423917, 0, 0, 0, 0, 1, 0.7732119, 9
PIDA, 168101606, 0.3507614, 0.3507614, 0, 0, -257.0977, 0, 0, 0, 1, 0, 13
PIDN, 168101642, 0, 0, 0, 0, 0, 0, 0, 0, 0, 0, 0
PIDE, 168101657, 0, 0, 0, 0, 0, 0, 0, 0, 0, 0, 0
XKF4, 168100913, 0, 0.04, 0.01, 0, 0.09, 0, 0.006225839, 0.4932518, -0.299622, 0, 48, 109375, 0, 0
XKY0, 168100913, 0, 307.8221, 12.00971, 219.2476, 289.1007, 357.4301, 69.30846, 144.9039, 0.1900944, 0.2828472, 0.2480441, 0.1516434, 0.1273708
XKY1, 168100913, 0, -1.283758, 0.5177298, 1.476591, 0.2677129, -1.438277, -0.9283333, -1.351201, 0.2314417, 1.632437, 0.9156562
XKF1, 168100913, 0, 0.52, -0.1, 87.11, -0.01287113, 0.01179893, -0.01723328, 0.03036904, 0.3457197, -1.632994, -0.3410124, -0.29, -1.04, -0.07, 630.64
XKF2, 168100913, 0, 0.01, 0.01, 0.02, 0, 0, 400, -5, 144, 0, 0, 0, 0, 0, 0
XKF3, 168100913, 0, -0.07, 0.06, -0.06, 0.09, -0.01, -0.19, 0, 0, 0, -8.09, 0, 0, 0.0009219418
XKF5, 168100913, 0, 0, 0, 0, 0, 0.41, 0.08, 0, 0, 0.5, 0.001024869, 0.01877157, 0.01591232
XKFS, 168100913, 0, 0, 0, 0, 0, 0, 1, 0, 1
XKQ, 168100913, 0, 0.7246617, 0.003945612, 0.002501949, 0.6890889
XKF4, 168100913, 1, 0.03, 0.01, 0, 0.09, 0, 0.006224446, 0.4446999, -0.1910028, 0, 48, 109375, 0, 0
XKY0, 168100913, 1, 82.23735, 13.60681, 214.8707, 288.7943, 1.663396, 72.27757, 142.5453, 0.1863007, 0.1822124, 0.2021879, 0.2199105, 0.2093885
XKY1, 168100913, 1, -0.1000286, -0.4150718, -0.2609016, 0.1508552, 0.2503516, 0.4120151, 0.1468768, -0.2351915, -0.2066457, 0.1942786
XKF1, 168100913, 1, 0.35, -0.07, 87.17, -0.01235115, 0.008569398, -0.007040699, 0.0357564, 0.3465441, -1.635578, -0.3311664, -0.05, -0.06, 0, 630.64
XKF2, 168100913, 1, 0.01, 0.01, 0, 0, 0, 400, -5, 144, 0, 0, 0, 0, 0, 0
XKF3, 168100913, 1, -0.07, 0.06, -0.05, 0.09, -0.01, -0.17, 0, 0, 0, -8.03, 0, 0.009208132, 0.0008240551
XKFS, 168100913, 1, 0, 0, 0, 0, 0, 1, 0, 1
XKQ, 168100913, 1, 0.7243203, 0.002679149, 0.001699977, 0.6894563
AHR2, 168101756, 0.52, -0.12, 87.38, 631.11, 15.3677074, 75.1255206, 0.7230178, 0.004043802, 0.002351125, 0.6908136
POS, 168101761, 15.3677082, 75.1255205, 630.98, 0.01101246, 0.3410124
MOTB, 168101766, 1, 1, 1, 0.02570977, 0, 2
RCIN, 168101772, 1495, 1495, 982, 1495, 982, 982, 982, 982, 1495, 982, 982, 982, 1495, 1495
RCI2, 168101776, 1495, 1495, 0, 1
RCOU, 168101782, 1000, 1000, 1000, 1000, 0, 0, 0, 0, 0, 0, 0, 0, 0, 0
RCO2, 168101785, 0, 0, 0, 0
PSCN, 168101795, 0.3457197, 0.3457197, 0.3457197, -0.01287113, -0.01287113, -0.01287113, 0, -5.800114E-40, -5.450183E-05
PSCE, 168101800, -1.632994, -1.632994, -1.632994, 0.01179893, 0.01179893, 0.01179893, 0, -7.88931E-41, 4.130077E-05
PSCD, 168101804, -0.3410124, -0.3410124, -0.3410124, -0.01723328, -0.01723328, -0.01723328, -0.003507614, -0.003507614, -0.003507614
VIBE, 168101808, 0, 0.03482667, 0.02491315, 0.03504354, 0
VIBE, 168101808, 1, 0.07092368, 0.06947245, 0.08082455, 0
CTRL, 168101817, 0.005374668, 0.0001374002, 0.002240754, 0.0002156463, 0.4829925
DCM, 168103347, 0.5193194, -0.1239216, 87.39093, 0.03813165, 0.141149, 0, 0, 0
EAHR, 168103371, 0, 0, 0, 0, 0, 0, 0, 0, 0, 0
FILE, @SYS/memory.txt, 0, 64, MemInfoV1\nSTART=0x24000000 LEN=512k FREE=  2336 LRG=  1152 TYPE=
IMU, 168121205, 0, -0.005337568, -0.01851982, -0.002903771, -0.05720934, -0.09528141, -9.790931, 0, 0, 44.80676, 1, 1, 2022, 2022
IMU, 168121205, 1, -0.00174746, 0.0005344056, -0.0002363473, -0.05890921, -0.05555679, -9.807534, 0, 0, 45, 1, 1, 1998, 2046
FILE, @SYS/memory.txt, 64, 64, 4\nSTART=0x30000000 LEN=256k FREE=262136 LRG=262136 TYPE=8\nSTART=
FILE, @SYS/memory.txt, 128, 64, 0x20000000 LEN=128k FREE=112544 LRG=112544 TYPE=2\nSTART=0x000004
FILE, @SYS/memory.txt, 192, 64, 00 LEN= 63k FREE= 64504 LRG= 64504 TYPE=2\nSTART=0x30040000 LEN= 
SURF, 168151454, 0, 2, 0, 0, 0.3382073
SURF, 168151463, 1, 2, 0, 0, 0.3382073
FILE, @SYS/memory.txt, 256, 64, 32k FREE= 32760 LRG= 32760 TYPE=8\nSTART=0x38000000 LEN= 64k FREE
IMU, 168161249, 0, -0.005106106, -0.01834793, -0.0004513355, 0.02678045, -0.06318472, -9.795389, 0, 0, 44.80676, 1, 1, 2022, 2022
IMU, 168161249, 1, 0.0004748591, -0.0005578065, 0.001716405, 0.03679458, -0.02588161, -9.801985, 0, 0, 45, 1, 1, 1998, 2046
FILE, @SYS/memory.txt, 320, 26, = 56808 LRG= 56152 TYPE=1\n
STAK, 168187279, 0, 182, 7168, 4000, ArduCopter
FILE, @SYS/threads.txt, 0, 64, ThreadsV2\nISR           PRI=255 sp=0x24000000 STACK=1276/1536\nAr
POWR, 168201387, 4.946777, 0, 1, 1, 6
MCU, 168201387, 39.14513, 3.349239, 3.341655, 3.354032
BAT, 168201413, 0, 15.55206, 15.60617, 1.029133, 58.70432, 0.9204576, 0, 0.05257603, 98, 1, 0
MAG, 168201425, 0, -31, -216, 160, 102, 25, 42, 0, 0, 0, 1, 168201424
MAG, 168201425, 1, 56, -380, 187, 32, 17, -32, 0, 0, 0, 1, 168201422
SURF, 168201443, 0, 2, 0, 0, 0.3382596
SURF, 168201452, 1, 2, 0, 0, 0.3382596
BARO, 168201498, 0, 0.2044067, 630.8444, 93699.79, 39.87, 0.1029777, 168201, 0, 35, 1
CTUN, 168201510, 0, 0, 0, 0.2570977, 0.3377449, 0.3377449, 0.2, NaN, 0, 0.003982479, 1, 1
ATT, 168201589, 0.0003301637, 0.5249085, -0.000224979, -0.1021264, 132.0932, 87.15163, 3
ANG, 168200758, 0.0003301637, 0.5249086, -0.000224979, -0.1021264, 132.0932, 87.15163, 0.0025
RATE, 168200772, -2.360812, 0.04034112, -0.005791551, 0.4600042, 0.02046634, 0.000802089, 100.3731, 0.1108996, 0.3210132, -0.07925034, -0.07925034, 0, 0
PIDR, 168201606, -0.04116471, 0.0007040855, -0.04186879, -0.005652287, 0, -0.0001392645, 0, 0, 1, 0.03593475, 9
PIDP, 168201610, 0.008079894, 0.000357205, 0.007722689, 0.001042563, 0, -0.000240474, 0, 0, 1, 0.04687843, 9
PIDY, 168201613, 1.75193, 0.001935563, 1.783407, 0.3210132, 0, 0, 0, 0, 1, 0.7900999, 9
PIDA, 168201620, -0.07925034, -0.07925034, 0, 0, -257.0977, 0, 0, 0, 1, 0, 13
PIDN, 168201624, 0, 0, 0, 0, 0, 0, 0, 0, 0, 0, 0
PIDE, 168201628, 0, 0, 0, 0, 0, 0, 0, 0, 0, 0, 0
XKF4, 168200863, 0, 0.04, 0.01, 0, 0.1, 0, 0.006304481, 0.4932518, -0.299622, 0, 48, 109375, 0, 0
XKY0, 168200863, 0, 307.8203, 12.00974, 219.2457, 289.0988, 357.4282, 69.30656, 144.902, 0.1900944, 0.2828472, 0.2480441, 0.1516434, 0.1273708
XKY1, 168200863, 0, -1.283758, 0.5177298, 1.476591, 0.2677129, -1.438277, -0.9283333, -1.351201, 0.2314417, 1.632437, 0.9156562
XKF1, 168200863, 0, 0.52, -0.1, 87.15, -0.006232138, 0.006094264, -0.01569204, 0.04063188, 0.3454092, -1.634781, -0.337745, -0.29, -1.04, -0.07, 630.64
XKF2, 168200863, 0, 0.01, 0.01, 0.02, 0, 0, 400, -5, 144, 0, 0, 0, 0, 0, 0
XKF3, 168200863, 0, -0.07, 0.06, -0.06, 0.09, -0.01, -0.18, 0, 0, 0, -9.12, 0, 0, 0.0009219418
XKF5, 168200863, 0, 0, 0, 0, 0, 0.4, 0.08, 0, 0, 0.5, 0.001118751, 0.01325276, 0.01384802
XKFS, 168200863, 0, 0, 0, 0, 0, 0, 1, 0, 1
XKQ, 168200863, 0, 0.7244522, 0.003932852, 0.002511872, 0.6893093
XKF4, 168200863, 1, 0.03, 0.01, 0, 0.1, 0, 0.006303929, 0.4446999, -0.1910028, 0, 48, 109375, 0, 0
XKY0, 168200863, 1, 82.24097, 13.60683, 214.8743, 288.7979, 1.667012, 72.28117, 142.5489, 0.1863007, 0.1822124, 0.2021879, 0.2199105, 0.2093885
XKY1, 168200863, 1, -0.1000286, -0.4150718, -0.2609016, 0.1508552, 0.2503516, 0.4120151, 0.1468768, -0.2351915, -0.2066457, 0.1942786
XKF1, 168200863, 1, 0.35, -0.06, 87.21, -0.00596526, 0.002666372, -0.005376447, 0.04420334, 0.3461327, -1.637385, -0.3275084, -0.05, -0.06, 0, 630.64
XKF2, 168200863, 1, 0.01, 0.01, 0, 0, 0, 400, -5, 144, 0, 0, 0, 0, 0, 0
XKF3, 168200863, 1, -0.07, 0.06, -0.05, 0.09, -0.01, -0.17, 0, 0, 0, -9.06, 0, 0.009208132, 0.0008240551
XKFS, 168200863, 1, 0, 0, 0, 0, 0, 1, 0, 1
XKQ, 168200863, 1, 0.7241003, 0.002628789, 0.0017478, 0.6896875
AHR2, 168201787, 0.46, -0.06, 87.48, 631.11, 15.3677075, 75.1255205, 0.7224566, 0.003343757, 0.002380449, 0.691404
POS, 168201792, 15.3677082, 75.1255205, 630.97, 0.007744959, 0.337745
MOTB, 168201797, 1, 1, 1, 0.02570977, 0, 2
RCIN, 168201803, 1495, 1495, 982, 1495, 982, 982, 982, 982, 1495, 982, 982, 982, 1495, 1495
RCI2, 168201807, 1495, 1495, 0, 1
RCOU, 168201813, 1000, 1000, 1000, 1000, 0, 0, 0, 0, 0, 0, 0, 0, 0, 0
RCO2, 168201817, 0, 0, 0, 0
PSCN, 168201824, 0.3454092, 0.3454092, 0.3454092, -0.006232137, -0.006232137, -0.006232137, 0, -3.119627E-40, -5.452694E-05
PSCE, 168201828, -1.634781, -1.634781, -1.634781, 0.006094264, 0.006094264, 0.006094264, 0, -4.243272E-41, 4.126761E-05
PSCD, 168201832, -0.3377449, -0.3377449, -0.3377449, -0.01569204, -0.01569204, -0.01569204, 0.0007925034, 0.0007925034, 0.0007925034
VIBE, 168201837, 0, 0.03446307, 0.03206503, 0.0308494, 0
VIBE, 168201837, 1, 0.06971283, 0.07246048, 0.07941643, 0
CTRL, 168201845, 0.005445404, 0.0001367032, 0.001942759, 0.0001840605, 0.4378858
IMU, 168201855, 0, -0.004509176, -0.01788787, 0.0006796981, -0.04809162, -0.1352692, -9.784245, 0, 0, 44.80676, 1, 1, 2022, 2022
IMU, 168201855, 1, -0.001180809, -0.0008886002, 0.002670262, -0.04931586, -0.1152867, -9.796535, 0, 0, 45, 1, 1, 1998, 2046
DCM, 168203357, 0.4639827, -0.06593995, 87.48443, 0.03813165, 0.1478349, 0, 0, 0
EAHR, 168203383, 0, 0, 0, 0, 0, 0, 0, 0, 0, 0
FILE, @SYS/threads.txt, 64, 64, duCopter    PRI=182 sp=0x24000600 STACK=4000/7168\nidle          
FILE, @SYS/threads.txt, 128, 64, PRI=  1 sp=0x240214B0 STACK=288/496\nUART_RX       PRI= 60 sp=0x2
FILE, @SYS/threads.txt, 192, 64, 407B0E8 STACK=880/1200\nOTG1          PRI= 60 sp=0x2407A1A0 STACK
FILE, @SYS/threads.txt, 256, 64, =480/752\nmonitor       PRI=183 sp=0x2401CE20 STACK=1096/1456\ntim
GPS, 168241345, 0, 3, 296196200, 2379, 16, 0.61, 15.3677074, 75.1255207, 631.03, 0.024, 0, 0.031, 0, 1
GPA, 168241345, 0, 1.14, 0.9, 1.45, 0.23, 0, 1, 168225, 200, 553.02, 0, 0
IMU, 168241407, 0, -0.004847652, -0.01817222, -0.003456008, 0.01178261, -0.04571066, -9.784791, 0, 0, 44.80676, 1, 1, 2022, 2022
IMU, 168241407, 1, -0.00158514, -0.002213306, -0.002251022, 0.007330612, -0.01509534, -9.802299, 0, 0, 45, 1, 1, 1998, 2046
SURF, 168251840, 0, 2, 0, 0, 0.3382345
SURF, 168251850, 1, 2, 0, 0, 0.3382345
FILE, @SYS/threads.txt, 320, 64, er         PRI=181 sp=0x2401E3E0 STACK=1528/1968\nrcout         P
FILE, @SYS/threads.txt, 384, 64, RI=181 sp=0x2401DA00 STACK=656/944\nrcin          PRI=177 sp=0x24
FILE, @SYS/threads.txt, 448, 64, 01D410 STACK=992/1456\nio            PRI= 58 sp=0x2401C430 STACK=
IMU, 168281469, 0, -0.004744085, -0.0182135, 0.0005797991, -0.04789312, -0.1251014, -9.778656, 0, 0, 44.32367, 1, 1, 2022, 2022
IMU, 168281469, 1, -0.0001030135, -0.0004855055, 0.002866553, -0.04211287, -0.09040592, -9.802776, 0, 0, 45, 1, 1, 1998, 2046
STAK, 168288230, 1, 1, 496, 288, idle
FILE, @SYS/threads.txt, 512, 64, 1576/2480\nstorage       PRI= 59 sp=0x2401DDF0 STACK=904/1456\nUAR
POWR, 168301383, 4.944663, 0, 1, 1, 6
MCU, 168301383, 39.16501, 3.349098, 3.342496, 3.354738
BAT, 168301396, 0, 15.58163, 15.63109, 0.938871, 58.73039, 0.9208639, 0, 0.05268132, 98, 1, 0
MAG, 168301407, 0, -29, -213, 129, 102, 25, 42, 0, 0, 0, 1, 168301406
MAG, 168301407, 1, 57, -380, 188, 32, 17, -32, 0, 0, 0, 1, 168301405
SURF, 168301425, 0, 2, 0, 0, 0.3381332
SURF, 168301434, 1, 2, 0, 0, 0.3381332
BARO, 168301461, 0, 0.2867432, 630.9268, 93698.88, 39.87, 0.09922028, 168301, 0, 35, 1
CTUN, 168301473, 0, 0, 0, 0.2570977, 0.3340532, 0.3340532, 0.28, NaN, 0, 0.003982479, 1, 1
ATT, 168301530, 0.0003301637, 0.5244526, -0.000224979, -0.09867985, 132.0932, 87.18832, 3
ANG, 168300758, 0.0003301637, 0.5244526, -0.000224979, -0.09867985, 132.0932, 87.18832, 0.0025
RATE, 168300778, -2.358749, 0.03314856, -0.005655698, 0.4444883, 0.03609243, 0.0008042492, 100.3293, 0.1520195, 0.3164193, -0.1091957, -0.1091957, 0, 0
PIDR, 168301547, -0.04115, 0.0005785516, -0.04172855, -0.005633354, 0, -2.234406E-05, 0, 0, 1, 0.03605448, 9
PIDP, 168301551, 0.007798415, 0.0006299317, 0.007168483, 0.0009677453, 0, -0.0001634961, 0, 0, 1, 0.04733975, 9
PIDY, 168301555, 1.751189, 0.002653242, 1.757885, 0.3164193, 0, 0, 0, 0, 1, 0.7839119, 9
PIDA, 168301559, -0.1091957, -0.1091957, 0, 0, -257.0977, 0, 0, 0, 1, 0, 13
PIDN, 168301563, 0, 0, 0, 0, 0, 0, 0, 0, 0, 0, 0
PIDE, 168301567, 0, 0, 0, 0, 0, 0, 0, 0, 0, 0, 0
XKF4, 168300877, 0, 0.01, 0.01, 0, 0.12, 0, 0.006355515, 0.4932518, -0.299622, 0, 48, 109375, 0, 0
XKY0, 168300877, 0, 321.6385, 12.46304, 218.3547, 289.028, 358.285, 69.91879, 144.4186, 0.175028, 0.2603837, 0.2573435, 0.1723108, 0.1349339
XKY1, 168300877, 0, -1.692542, 0.9490572, 2.34532, 0.6401916, -2.031876, -1.653438, -2.166981, 0.0727389, 2.241556, 1.166081
XKF1, 168300877, 0, 0.52, -0.09, 87.18, -0.001385518, 0.004070688, -0.01394735, 0.04090348, 0.3452327, -1.63553, -0.3340532, -0.29, -1.04, -0.07, 630.64
XKF2, 168300877, 0, 0, 0.01, 0.02, 0, 0, 400, -5, 144, 0, 0, 0, 0, 0, 0
XKF3, 168300877, 0, -0.01, -0.01, -0.04, 0.09, -0.01, -0.12, 0, 0, 0, -10.37, 0, 0, 0.0002409481
XKF5, 168300877, 0, 0, 0, 0, 0, 0.4, 0.08, 0, 0, 0.5, 0.001273244, 0.009117906, 0.01222334
XKFS, 168300877, 0, 0, 0, 0, 0, 0, 1, 0, 1
XKQ, 168300877, 0, 0.7242315, 0.003908427, 0.00253217, 0.6895411
XKT, 168300877, 0, 408, 0.002500002, 0.002500002, 0.01249212, 0.01250714, 0.01186845, 0.01285756, 0.01186845, 0.01285756
XKF4, 168300877, 1, 0.01, 0.01, 0, 0.11, 0, 0.006354656, 0.4446999, -0.1910028, 0, 48, 109375, 0, 0
XKY0, 168300877, 1, 99.76836, 13.90067, 214.671, 288.3381, 1.595192, 72.69825, 142.8907, 0.1907179, 0.1796476, 0.1958259, 0.2186055, 0.2152031
XKY1, 168300877, 1, -0.03524286, -0.402365, -0.2172932, 0.2399085, 0.3558827, 0.3768716, 0.07177272, -0.3619086, -0.3229389, 0.1189763
XKF1, 168300877, 1, 0.35, -0.06, 87.24, -0.001749516, 0.0008724465, -0.003849949, 0.04481287, 0.3458306, -1.638088, -0.3235141, -0.05, -0.06, 0, 630.64
XKF2, 168300877, 1, 0, 0.01, 0, 0, 0, 400, -5, 144, 0, 0, 0, 0, 0, 0
XKF3, 168300877, 1, -0.01, -0.02, -0.03, 0.09, -0.02, -0.11, 0, 0, 0, -10.31, 0, 0.009208132, 0.0002078905
XKFS, 168300877, 1, 0, 0, 0, 0, 0, 1, 0, 1
XKQ, 168300877, 1, 0.7238882, 0.00263696, 0.001729239, 0.6899101
XKT, 168300877, 1, 408, 0.002500002, 0.002500002, 0.01248996, 0.01250751, 0.01200622, 0.01300685, 0.01172587, 0.01319174
AHR2, 168301771, 0.45, -0.06, 87.58, 631.17, 15.3677074, 75.1255207, 0.7218376, 0.003258209, 0.002346076, 0.6920508
POS, 168301777, 15.3677082, 75.1255205, 630.97, 0.004053196, 0.3340532
MOTB, 168301782, 1, 1, 1, 0.02570977, 0, 2
RCIN, 168301788, 1495, 1495, 1016, 1495, 982, 982, 982, 982, 1495, 982, 982, 982, 1495, 1495
RCI2, 168301792, 1495, 1495, 0, 1
RCOU, 168301798, 1000, 1000, 1000, 1000, 0, 0, 0, 0, 0, 0, 0, 0, 0, 0
RCO2, 168301802, 0, 0, 0, 0
PSCN, 168301809, 0.3452327, 0.3452327, 0.3452327, -0.001385518, -0.001385518, -0.001385518, 0, -1.677901E-40, -5.455335E-05
PSCE, 168301813, -1.63553, -1.63553, -1.63553, 0.004070688, 0.004070688, 0.004070688, 0, -2.282295E-41, 4.12327E-05
PSCD, 168301817, -0.3340532, -0.3340532, -0.3340532, -0.01394735, -0.01394735, -0.01394735, 0.001091957, 0.001091957, 0.001091957
VIBE, 168301822, 0, 0.03347354, 0.03018566, 0.01933928, 0
VIBE, 168301822, 1, 0.06844298, 0.07030359, 0.08093572, 0
CTRL, 168301830, 0.005491936, 0.0001258336, 0.001693848, 0.0001664832, 0.4021963
DCM, 168303374, 0.4561368, -0.06530976, 87.58753, 0.03836378, 0.1513671, 0, 0, 0
EAHR, 168303414, 0, 0, 0, 0, 0, 0, 0, 0, 0, 0
FILE, @SYS/threads.txt, 576, 64, T7         PRI= 60 sp=0x24078FF8 STACK=224/752\nUART5         PRI
FILE, @SYS/threads.txt, 640, 64, = 60 sp=0x240784B0 STACK=344/752\nUART1         PRI= 60 sp=0x2407
IMU, 168321275, 0, -0.005309529, -0.01888156, 0.0004910514, 0.02928639, -0.0680114, -9.793627, 0, 0, 44.80676, 1, 1, 2022, 2022
IMU, 168321275, 1, -0.001856565, -0.003364218, 0.001305546, 0.02537837, -0.02975208, -9.800412, 0, 0, 45, 1, 1, 1998, 2046
FILE, @SYS/threads.txt, 704, 64, 78E8 STACK=352/752\nUART8         PRI= 60 sp=0x24076D20 STACK=408
FILE, @SYS/threads.txt, 768, 64, /752\nOTG2          PRI= 60 sp=0x24075DD8 STACK=480/752\nUART6    
FILE, @SYS/threads.txt, 832, 64,      PRI=181 sp=0x24074F58 STACK=336/752\nIOMCU         PRI=183 s
SURF, 168351457, 0, 2, 0, 0, 0.337934
SURF, 168351481, 1, 2, 0, 0, 0.337934
FILE, @SYS/threads.txt, 896, 64, p=0x2406AB30 STACK=896/1456\nlog_io        PRI= 59 sp=0x2406B2C0 
IMU, 168361329, 0, -0.004884104, -0.01809888, -0.00259218, -0.05281005, -0.1051167, -9.783523, 0, 0, 44.80676, 1, 1, 2022, 2022
IMU, 168361329, 1, -0.001262052, 0.0008653333, -0.0009150435, -0.04736176, -0.08873697, -9.788815, 0, 0, 45, 1, 1, 1998, 2046
FILE, @SYS/threads.txt, 960, 64, STACK=768/2016\nI2C1          PRI=176 sp=0x2406BBD0 STACK=984/145
FILE, @SYS/threads.txt, 1024, 64, 6\nI2C0          PRI=176 sp=0x2406C4A0 STACK=984/1456\nSPI1       
STAK, 168388931, 2, 60, 1200, 880, UART_RX
FILE, @SYS/threads.txt, 1088, 64,    PRI=181 sp=0x24070FC0 STACK=824/1456\nFTP           PRI= 58 sp
POWR, 168401393, 4.938015, 0, 1, 1, 6
MCU, 168401393, 39.16501, 3.348958, 3.341795, 3.355303
BAT, 168401425, 0, 15.56863, 15.61563, 0.8920007, 58.75518, 0.9212498, 0, 0.05268132, 98, 1, 0
MAG, 168401436, 0, -34, -214, 164, 102, 25, 42, 0, 0, 0, 1, 168401435
MAG, 168401436, 1, 57, -380, 186, 32, 17, -32, 0, 0, 0, 1, 168401434
SURF, 168401455, 0, 2, 0, 0, 0.3376597
SURF, 168401467, 1, 2, 0, 0, 0.3376597
BARO, 168401487, 0, 0.0927124, 630.7327, 93701.05, 39.87, 0.1928711, 168401, 0, 35, 1
CTUN, 168401499, 0, 0, 0, 0.2570977, 0.3308907, 0.3308907, 0.09, NaN, 0, 0.003982479, 1, 1
DU32, 168401517, 7, 6349272
TERR, 168401545, 2, 15.3677082, 75.1255205, 100, 630.966, 0.003982479, 0, 224, -2.116135
ATT, 168401678, 0.0003301637, 0.5247213, -0.000224979, -0.1013479, 132.0932, 87.22891, 3
ANG, 168400758, 0.0003301637, 0.5247213, -0.000224979, -0.1013479, 132.0932, 87.22891, 0.002489
RATE, 168400770, -2.35982, 0.01678908, -0.005568308, 0.4564688, -0.0529948, 0.001391631, 100.2807, 0.09307846, 0.3153663, 0.1347542, 0.1347542, 0, 0
PIDR, 168401696, -0.04115449, 0.0002930248, -0.04144751, -0.005595414, 0, 2.710563E-05, 0, 0, 1, 0.034328, 9
PIDP, 168401700, 0.007901801, -0.0009249337, 0.008826734, 0.001191609, 0, 0.000200022, 0, 0, 1, 0.04572749, 9
PIDY, 168401706, 1.750342, 0.001624526, 1.752035, 0.3153663, 0, 0, 0, 0, 1, 0.709224, 9
PIDA, 168401709, 0.1347542, 0.1347542, 0, 0, -257.0977, 0, 0, 0, 1, 0, 13
PIDN, 168401714, 0, 0, 0, 0, 0, 0, 0, 0, 0, 0, 0
PIDE, 168401719, 0, 0, 0, 0, 0, 0, 0, 0, 0, 0, 0
XKF4, 168400903, 0, 0.01, 0.01, 0, 0.11, 0, 0.006434274, 0.4932518, -0.299622, 0, 48, 109375, 0, 0
XKY0, 168400903, 0, 321.639, 12.46307, 218.3553, 289.0285, 358.2856, 69.91934, 144.4192, 0.175028, 0.2603837, 0.2573435, 0.1723108, 0.1349339
XKY1, 168400903, 0, -1.692542, 0.9490572, 2.34532, 0.6401916, -2.031876, -1.653438, -2.166981, 0.0727389, 2.241556, 1.166081
XKF1, 168400903, 0, 0.52, -0.1, 87.22, 0.002859232, 0.003545658, -0.0125134, 0.03859423, 0.3455668, -1.635607, -0.3308907, -0.29, -1.04, -0.07, 630.64
XKF2, 168400903, 0, 0, 0.01, 0.02, 0, 0, 400, -5, 144, 0, 0, 0, 0, 0, 0
XKF3, 168400903, 0, -0.01, -0.01, -0.04, 0.09, -0.01, -0.03, 0, 0, 0, -9.9, 0, 0, 0.0002409481
XKF5, 168400903, 0, 0, 0, 0, 0, 0.4, 0.08, 0, 0, 0.5, 0.001331854, 0.005831687, 0.009515725
XKFS, 168400903, 0, 0, 0, 0, 0, 0, 1, 0, 1
XKQ, 168400903, 0, 0.7239872, 0.003925288, 0.002518316, 0.6897977
XKF4, 168400903, 1, 0.01, 0.01, 0, 0.11, 0, 0.006433416, 0.4446999, -0.1910028, 0, 48, 109375, 0, 0
XKY0, 168400903, 1, 99.7684, 13.9007, 214.671, 288.3382, 1.595245, 72.6983, 142.8908, 0.1907179, 0.1796476, 0.1958259, 0.2186055, 0.2152031
XKY1, 168400903, 1, -0.03524286, -0.402365, -0.2172932, 0.2399085, 0.3558827, 0.3768716, 0.07177272, -0.3619086, -0.3229389, 0.1189763
XKF1, 168400903, 1, 0.35, -0.06, 87.28, 0.002047068, 0.0005421143, -0.002717568, 0.04090454, 0.3460396, -1.638118, -0.3199779, -0.05, -0.06, 0, 630.64
XKF2, 168400903, 1, 0, 0.01, 0, 0, 0, 400, -5, 144, 0, 0, 0, 0, 0, 0
XKF3, 168400903, 1, -0.01, -0.02, -0.03, 0.09, -0.02, -0.02, 0, 0, 0, -9.84, 0, 0.009208132, 0.0002078905
XKFS, 168400903, 1, 0, 0, 0, 0, 0, 1, 0, 1
XKQ, 168400903, 1, 0.7236407, 0.002651948, 0.001685159, 0.6901698
AHR2, 168401816, 0.47, -0.1, 87.68, 631.25, 15.3677074, 75.1255207, 0.7212386, 0.003660455, 0.002224806, 0.6926735
POS, 168401821, 15.3677082, 75.1255205, 630.97, 0.0008907225, 0.3308907
MOTB, 168401826, 1, 1, 1, 0.02570977, 0, 2
RCIN, 168401832, 1495, 1495, 1035, 1495, 982, 982, 982, 982, 1495, 982, 982, 982, 1495, 1495
RCI2, 168401836, 1495, 1495, 0, 1
RCOU, 168401842, 1000, 1000, 1000, 1000, 0, 0, 0, 0, 0, 0, 0, 0, 0, 0
RCO2, 168401846, 0, 0, 0, 0
PSCN, 168401852, 0.3455668, 0.3455668, 0.3455668, 0.002859232, 0.002859232, 0.002859232, 0, -9.024642E-41, -5.458256E-05
PSCE, 168401857, -1.635607, -1.635607, -1.635607, 0.003545658, 0.003545658, 0.003545658, 0, -1.227537E-41, 4.119403E-05
PSCD, 168401861, -0.3308907, -0.3308907, -0.3308907, -0.0125134, -0.0125134, -0.0125134, -0.001347542, -0.001347542, -0.001347542
VIBE, 168401870, 0, 0.03215586, 0.0238882, 0.02511551, 0
VIBE, 168401870, 1, 0.06881896, 0.06366675, 0.07640585, 0
CTRL, 168401904, 0.005517285, 0.0001155582, 0.001522056, 0.0001614703, 0.375782
IMU, 168401914, 0, -0.004922173, -0.01917531, 0.0003431702, 0.01741705, -0.06849439, -9.787335, 0, 0, 44.80676, 1, 1, 2022, 2022
IMU, 168401914, 1, -0.0008699773, -0.002482078, 0.002306803, 0.02680213, -0.0277686, -9.816126, 0, 0, 45, 1, 1, 1998, 2046
UART, 168402017, 1, 1922, 199
UART, 168402022, 2, 20, 0
UART, 168402025, 3, 0, 653
UART, 168402030, 100, 8379, 5078
DCM, 168403345, 0.4798056, -0.107744, 87.68621, 0.03836378, 0.1585658, 0, 0, 0
EAHR, 168403369, 0, 0, 0, 0, 0, 0, 0, 0, 0, 0
FILE, @SYS/threads.txt, 1152, 28, =0x24032968 STACK=1368/2992\n
FILE, @SYS/timers.txt, 0, 64, TIMERV1\nTIM5  CLK= 200Mhz MODE=  PWM FREQ=       7 TGT=       8\n
GPS, 168441333, 0, 3, 296196400, 2379, 16, 0.61, 15.3677074, 75.1255207, 631.04, 0.035, 0, -0.066, 0, 1
GPA, 168441333, 0, 1.14, 0.9, 1.45, 0.23, 0, 1, 168425, 200, 553.03, 0, 0
IMU, 168441392, 0, -0.004941022, -0.01840911, -0.0002244599, -0.03180056, -0.1214317, -9.784942, 0, 0, 44.80676, 1, 1, 2022, 2022
IMU, 168441392, 1, -0.001060453, -0.001072654, 0.001555224, -0.02145371, -0.09718531, -9.801243, 0, 0, 45, 1, 1, 1998, 2046
FILE, @SYS/timers.txt, 64, 64, TIM4  CLK= 200Mhz MODE=  PWM FREQ=       7 TGT=       8\nTIM1  CL
SURF, 168451909, 0, 2, 0, 0, 0.3373292
SURF, 168451918, 1, 2, 0, 0, 0.3373292
FILE, @SYS/timers.txt, 128, 48, K= 200Mhz MODE=  PWM FREQ=       7 TGT=       8\n
IMU, 168481426, 0, -0.004974212, -0.01854497, -0.002325949, -0.006108562, -0.07099611, -9.788707, 0, 0, 44.80676, 1, 1, 2022, 2022
IMU, 168481426, 1, 0.001129885, -0.0006249025, -0.001756597, -0.001837694, -0.03973867, -9.80201, 0, 0, 45, 1, 1, 1998, 2046
FILE, @ROMFS/hwdef.dat, 0, 64, MCU STM32H7xx STM32H743xx\nOSCILLATOR_HZ 16000000\nSTM32_ST_USE_TI
STAK, 168488931, 3, 60, 752, 480, OTG1
FILE, @ROMFS/hwdef.dat, 64, 64, MER 2\nUSB_VENDOR 0x3162\nUSB_PRODUCT 0x0053\nUSB_STRING_MANUFACTUR
POWR, 168501350, 4.946072, 0, 1, 1, 6
MCU, 168501350, 39.16501, 3.348958, 3.341514, 3.354173
BAT, 168501363, 0, 15.57358, 15.62153, 0.9103094, 58.78045, 0.9216434, 0, 0.05268132, 98, 1, 0
MAG, 168501375, 0, -26, -214, 146, 102, 25, 42, 0, 0, 0, 1, 168501374
MAG, 168501375, 1, 57, -381, 185, 32, 17, -32, 0, 0, 0, 1, 168501372
SURF, 168501393, 0, 2, 0, 0, 0.3369659
SURF, 168501401, 1, 2, 0, 0, 0.3369659
BARO, 168501421, 0, 0.2456055, 630.8856, 93699.32, 39.87, 0.1708603, 168501, 0, 35, 1
CTUN, 168501433, 0, 0, 0, 0.2570977, 0.3298855, 0.3298855, 0.24, NaN, 0, -0.006017521, 1, 1
ATT, 168501518, 0.0003301637, 0.5255051, -0.000224979, -0.1002639, 132.0932, 87.27194, 3
ANG, 168500758, 0.0003301637, 0.5255051, -0.000224979, -0.1002639, 132.0932, 87.27194, 0.0025
RATE, 168500772, -2.362469, 0.0002572527, -0.005512219, 0.4514212, 0.04023728, 0.0006904159, 100.2292, -0.05207084, 0.3150235, 0.1466751, 0.1466751, 0, 0
PIDR, 168501535, -0.04124717, 4.489906E-06, -0.04125166, -0.005568974, 0, 5.675428E-05, 0, 0, 1, 0.03189032, 9
PIDP, 168501539, 0.007938426, 0.0007022731, 0.007236153, 0.0009768807, 0, -0.0002864648, 0, 0, 1, 0.04137077, 9
PIDY, 168501572, 1.749417, -0.0009088077, 1.750131, 0.3150235, 0, 0, 0, 0, 1, 0.6416522, 9
PIDA, 168501576, 0.1466751, 0.1466751, 0, 0, -257.0977, 0, 0, 0, 1, 0, 13
PIDN, 168501580, 0, 0, 0, 0, 0, 0, 0, 0, 0, 0, 0
PIDE, 168501584, 0, 0, 0, 0, 0, 0, 0, 0, 0, 0, 0
XKF4, 168500865, 0, 0.02, 0.01, 0.01, 0.13, 0, 0.006496618, 0.4932518, -0.299622, 0, 48, 109375, 0, 0
XKF1, 168500865, 0, 0.52, -0.1, 87.27, 0.007499623, 0.0005247512, -0.01236628, 0.01768013, 0.3458545, -1.636586, -0.3298856, -0.29, -1.04, -0.07, 630.64
XKF2, 168500865, 0, 0.01, 0.01, 0.02, 0, 0, 400, -5, 144, 0, 0, 0, 0, 0, 0
XKF3, 168500865, 0, -0.01, 0.03, 0.05, 0.08, -0.02, -0.23, 0, 0, 0, -11.2, 0, 0, 0.0003345381
XKF5, 168500865, 0, 0, 0, 0, 0, 0.41, 0.08, 0, 0, 0.5, 0.001420157, 0.008335638, 0.005842905
XKFS, 168500865, 0, 0, 0, 0, 0, 0, 1, 0, 1
XKQ, 168500865, 0, 0.7237281, 0.003922765, 0.002531355, 0.6900695
XKV1, 168500865, 0, 0.0001156493, 5.272545E-06, 5.273837E-06, 0.0001301378, 0.02406392, 0.02406471, 0.01211739, 0.05543986, 0.05543985, 0.1633837, 3.950266E-11, 3.950795E-11
XKV2, 168500865, 0, 1.083499E-10, 2.692987E-06, 2.693038E-06, 5.508871E-08, 0, 0, 0, 0, 0, 0, 0, 0
XKF4, 168500865, 1, 0.02, 0.01, 0.01, 0.12, 0, 0.006496223, 0.4446999, -0.1910028, 0, 48, 109375, 0, 0
XKY0, 168500865, 1, 87.86853, 13.31832, 214.4786, 288.8072, 2.06758, 72.52757, 142.313, 0.1816043, 0.172681, 0.2000503, 0.2292181, 0.2164464
XKY1, 168500865, 1, -0.03852001, -0.4457095, -0.2419173, 0.267285, 0.3921681, 0.470595, 0.1359696, -0.3473521, -0.3023167, 0.187479
XKF1, 168500865, 1, 0.35, -0.07, 87.33, 0.006464885, -0.002118765, -0.002635899, 0.01697562, 0.3462212, -1.639001, -0.3188105, -0.05, -0.06, 0, 630.64
XKF2, 168500865, 1, 0.01, 0.01, 0, 0, 0, 400, -5, 144, 0, 0, 0, 0, 0, 0
XKF3, 168500865, 1, -0.01, 0.02, 0.06, 0.08, -0.02, -0.22, 0, 0, 0, -11.15, 0, 0.01088821, 0.0003928423
XKFS, 168500865, 1, 0, 0, 0, 0, 0, 1, 0, 1
XKQ, 168500865, 1, 0.7233642, 0.002674229, 0.001687182, 0.6904594
AHR2, 168501717, 0.48, -0.1, 87.79, 631.06, 15.3677074, 75.1255207, 0.7205614, 0.003716367, 0.002269336, 0.6933775
POS, 168501734, 15.3677082, 75.1255205, 630.96, -0.0001144204, 0.3298856
MOTB, 168501749, 1, 1, 1, 0.02570977, 0, 2
RCIN, 168501757, 1495, 1495, 1057, 1495, 982, 982, 982, 982, 1495, 982, 982, 982, 1495, 1495
RCI2, 168501760, 1495, 1495, 0, 1
RCOU, 168501767, 1000, 1000, 1000, 1000, 0, 0, 0, 0, 0, 0, 0, 0, 0, 0
RCO2, 168501770, 0, 0, 0, 0
PSCN, 168501777, 0.3458545, 0.3458545, 0.3458545, 0.007499623, 0.007499623, 0.007499623, 0, -4.853958E-41, -5.461348E-05
PSCE, 168501781, -1.636586, -1.636586, -1.636586, 0.0005247512, 0.0005247512, 0.0005247512, 0, -6.602918E-42, 4.115302E-05
PSCD, 168501786, -0.3298855, -0.3298855, -0.3298855, -0.01236628, -0.01236628, -0.01236628, -0.001466751, -0.001466751, -0.001466751
VIBE, 168501790, 0, 0.01981102, 0.01960899, 0.01543813, 0
VIBE, 168501790, 1, 0.0695258, 0.06139922, 0.07498192, 0
CTRL, 168501798, 0.005539382, 0.0001030263, 0.001394779, 0.0001517628, 0.3568307
DCM, 168503358, 0.4869513, -0.1066765, 87.79881, 0.03541566, 0.1567385, 0, 0, 0
EAHR, 168503381, 0, 0, 0, 0, 0, 0, 0, 0, 0, 0
FILE, @ROMFS/hwdef.dat, 128, 64, ER "Holybro"\nAPJ_BOARD_ID 56\nFLASH_RESERVE_START_KB 128\nenv USE_
IMU, 168521274, 0, -0.004680736, -0.01830103, -6.315542E-05, -0.02366511, -0.0955147, -9.783688, 0, 0, 44.32367, 1, 1, 2022, 2022
IMU, 168521274, 1, 0.0009813784, 0.002531873, 0.003118218, -0.02546375, -0.07336023, -9.808217, 0, 0, 45, 1, 1, 1998, 2046
FILE, @ROMFS/hwdef.dat, 192, 64, ALT_RAM_MAP 1\nFLASH_SIZE_KB 2048\nenv OPTIMIZE -O2\nSERIAL_ORDER O
FILE, @ROMFS/hwdef.dat, 256, 64, TG1 UART7 UART5 USART1 UART8 USART2 USART3 OTG2\nPA11 OTG_FS_DM O
FILE, @ROMFS/hwdef.dat, 320, 64, TG1\nPA12 OTG_FS_DP OTG1\nPA9 VBUS INPUT OPENDRAIN\nPA13 JTMS-SWDIO
SURF, 168551489, 0, 2, 0, 0, 0.3366202
SURF, 168551498, 1, 2, 0, 0, 0.3366202
IMU, 168561273, 0, -0.005577331, -0.01835766, 0.0004786728, -0.004451405, -0.09375638, -9.785994, 0, 0, 44.80676, 1, 1, 2022, 2022
IMU, 168561273, 1, -0.002081135, -0.003458752, 0.0007278153, -0.008675, -0.06104159, -9.793086, 0, 0, 45, 1, 1, 1998, 2046
FILE, @ROMFS/hwdef.dat, 384, 64,  SWD\nPA14 JTCK-SWCLK SWD\nPE8  UART7_TX UART7\nPE7  UART7_RX UART7
FILE, @ROMFS/hwdef.dat, 448, 64, \nPE9  UART7_RTS UART7 LOW PULLDOWN\nPE10 UART7_CTS UART7\nPC12 UAR
FILE, @ROMFS/hwdef.dat, 512, 64, T5_TX UART5\nPD2 UART5_RX UART5\nPC8 UART5_RTS UART5 LOW PULLDOWN\n
STAK, 168588957, 4, 183, 1456, 1096, monitor
FILE, @ROMFS/hwdef.dat, 576, 64, PC9 UART5_CTS UART5\nPB6  USART1_TX USART1\nPA10 USART1_RX USART1\n
RAD, 168598729, 68, 0, 100, 100, 0, 0, 0
POWR, 168601363, 4.934491, 0, 1, 1, 6
MCU, 168601363, 39.14513, 3.349098, 3.341935, 3.355868
BAT, 168601377, 0, 15.57174, 15.62032, 0.9220269, 58.80607, 0.9220423, 0, 0.05268132, 98, 1, 0
MAG, 168601388, 0, -32, -214, 139, 102, 25, 42, 0, 0, 0, 1, 168601387
MAG, 168601388, 1, 57, -381, 184, 32, 17, -32, 0, 0, 0, 1, 168601386
SURF, 168601406, 0, 2, 0, 0, 0.3362933
SURF, 168601415, 1, 2, 0, 0, 0.3362933
BARO, 168601435, 0, 0.0927124, 630.7327, 93701.05, 39.87, -0.06242751, 168601, 0, 35, 1
CTUN, 168601447, 0, 0, 0, 0.2570977, 0.3300119, 0.3300119, 0.09, NaN, 0, 0.003982479, 1, 1
ATT, 168601503, 0.0003301637, 0.5262995, -0.000224979, -0.09918978, 132.0932, 87.31803, 3
ANG, 168600758, 0.0003301637, 0.5262995, -0.000224979, -0.09918978, 132.0932, 87.31803, 0.002497
RATE, 168600770, -2.366714, -0.01228375, -0.005514256, 0.4467139, -0.02543424, 0.001183505, 100.174, -0.03073634, 0.3147562, 0.1187325, 0.1187325, 0, 0
PIDR, 168601520, -0.04132281, -0.0002143919, -0.04110842, -0.005549637, 0, 3.538118E-05, 0, 0, 1, 0.02885194, 9
PIDP, 168601524, 0.007791896, -0.0004439112, 0.008235807, 0.001111834, 0, 7.167127E-05, 0, 0, 1, 0.04210543, 9
PIDY, 168601528, 1.748453, -0.0005364504, 1.748645, 0.3147562, 0, 0, 0, 0, 1, 0.5805184, 9
PIDA, 168601531, 0.1187325, 0.1187325, 0, 0, -257.0977, 0, 0, 0, 1, 0, 13
PIDN, 168601535, 0, 0, 0, 0, 0, 0, 0, 0, 0, 0, 0
PIDE, 168601539, 0, 0, 0, 0, 0, 0, 0, 0, 0, 0, 0
XKF4, 168600867, 0, 0.02, 0.01, 0, 0.1, 0, 0.006575059, 0.4932518, -0.299622, 0, 48, 109375, 0, 0
XKF1, 168600867, 0, 0.52, -0.09, 87.31, 0.01157431, -0.002781726, -0.01243174, -0.005380582, 0.3465872, -1.638215, -0.3300119, -0.29, -1.04, -0.07, 630.64
XKF2, 168600867, 0, 0.01, 0.01, 0.02, 0, 0, 400, -5, 144, 0, 0, 0, 0, 0, 0
XKF3, 168600867, 0, -0.01, 0.03, 0.05, 0.08, -0.02, -0.08, 0, 0, 0, -9.07, 0, 0, 0.0003345381
XKF5, 168600867, 0, 0, 0, 0, 0, 0.41, 0.08, 0, 0, 0.5, 0.00132671, 0.005347881, 0.006080266
XKFS, 168600867, 0, 0, 0, 0, 0, 0, 1, 0, 1
XKQ, 168600867, 0, 0.7234505, 0.003920291, 0.0025445, 0.6903604
XKF4, 168600867, 1, 0.02, 0.01, 0, 0.1, 0, 0.006574856, 0.4446999, -0.1910028, 0, 48, 109375, 0, 0
XKY0, 168600867, 1, 87.87149, 13.31835, 214.4816, 288.8101, 2.070544, 72.53053, 142.3159, 0.1816043, 0.172681, 0.2000503, 0.2292181, 0.2164464
XKY1, 168600867, 1, -0.03852001, -0.4457095, -0.2419173, 0.267285, 0.3921681, 0.470595, 0.1359696, -0.3473521, -0.3023167, 0.187479
XKF1, 168600867, 1, 0.35, -0.07, 87.38, 0.01060745, -0.005351055, -0.003281893, -0.004511631, 0.3468575, -1.640568, -0.3186792, -0.05, -0.06, 0, 630.64
XKF2, 168600867, 1, 0.01, 0.01, 0, 0, 0, 400, -5, 144, 0, 0, 0, 0, 0, 0
XKF3, 168600867, 1, -0.01, 0.02, 0.06, 0.08, -0.02, -0.07, 0, 0, 0, -9, 0, 0.01322039, 0.0003928423
XKFS, 168600867, 1, 0, 0, 0, 0, 0, 1, 0, 1
XKQ, 168600867, 1, 0.7230694, 0.00266466, 0.001688524, 0.6907682
AHR2, 168601672, 0.48, -0.08, 87.88, 631.21, 15.3677074, 75.1255207, 0.7199991, 0.003532296, 0.002417634, 0.6939618
