FMT, 128, 89, FMT, BBnNZ, Type,Length,Name,Format,Columns
FMT, 119, 76, UNIT, QbZ, TimeUS,Id,Label
FMT, 118, 44, FMTU, QBNN, TimeUS,FmtType,UnitIds,MultIds
FMT, 120, 20, MULT, Qbd, TimeUS,Id,Mult
FMT, 32, 35, PARM, QNff, TimeUS,Name,Value,Default
FMT, 94, 51, GPS, QBBIHBcLLeffffB, TimeUS,I,Status,GMS,GWk,NSats,HDop,Lat,Lng,Alt,Spd,GCrs,VZ,Yaw,U
FMT, 95, 39, GPA, QBCCCCfBIHeHH, TimeUS,I,VDop,HAcc,VAcc,SAcc,YAcc,VV,SMS,Delta,AEl,RTCMFU,RTCMFD
FMT, 99, 22, UBX1, QBHBBHI, TimeUS,Instance,noisePerMS,jamInd,aPower,agcCnt,config
FMT, 100, 16, UBX2, QBbBbB, TimeUS,Instance,ofsI,magI,ofsQ,magQ
FMT, 96, 42, GRAW, QIHBBddfBbB, TimeUS,WkMS,Week,numSV,sv,cpMes,prMes,doMes,mesQI,cno,lli
FMT, 97, 24, GRXH, QdHbBB, TimeUS,rcvTime,week,leapS,numMeas,recStat
FMT, 98, 41, GRXS, QddfBBBHBBBBB, TimeUS,prMes,cpMes,doMes,gnss,sv,freq,lock,cno,prD,cpD,doD,trk
FMT, 101, 23, SBPH, QIII, TimeUS,CrcError,LastInject,IARhyp
FMT, 102, 67, SBRH, QQQQQQQQ, TimeUS,msg_flag,1,2,3,4,5,6
FMT, 103, 123, SBRM, QQQQQQQQQQQQQQQ, TimeUS,msg_flag,1,2,3,4,5,6,7,8,9,10,11,12,13
FMT, 104, 23, SBRE, QHIiBB, TimeUS,GWk,GMS,ns_residual,level,quality
FMT, 59, 75, MSG, QZ, TimeUS,Message
FMT, 60, 39, RCIN, QHHHHHHHHHHHHHH, TimeUS,C1,C2,C3,C4,C5,C6,C7,C8,C9,C10,C11,C12,C13,C14
FMT, 61, 18, RCI2, QHHHB, TimeUS,C15,C16,OMask,Flags
FMT, 62, 39, RCOU, QHHHHHHHHHHHHHH, TimeUS,C1,C2,C3,C4,C5,C6,C7,C8,C9,C10,C11,C12,C13,C14
FMT, 207, 19, RCO2, QHHHH, TimeUS,C15,C16,C17,C18
FMT, 208, 39, RCO3, QHHHHHHHHHHHHHH, TimeUS,C19,C20,C21,C22,C23,C24,C25,C26,C27,C28,C29,C30,C31,C32
FMT, 63, 19, RSSI, Qff, TimeUS,RXRSSI,RXLQ
FMT, 64, 43, BARO, QBfffcfIffB, TimeUS,I,Alt,AltAMSL,Press,Temp,CRt,SMS,Offset,GndTemp,Health
FMT, 65, 24, BARD, QBfff, TimeUS,I,DynPrX,DynPrY,DynPrZ
FMT, 66, 25, CANF, QBIBBBBBBBBB, TimeUS,Bus,Id,DLC,B0,B1,B2,B3,B4,B5,B6,B7
FMT, 67, 81, CAFD, QBIBQQQQQQQQ, TimeUS,Bus,Id,DLC,D0,D1,D2,D3,D4,D5,D6,D7
FMT, 196, 50, PL, QBBfffffffIIB, TimeUS,Heal,TAcq,pX,pY,vX,vY,mX,mY,mZ,LastMeasMS,EKFOutl,Est
FMT, 68, 24, POWR, QffHHB, TimeUS,Vcc,VServo,Flags,AccFlags,Safety
FMT, 69, 27, MCU, Qffff, TimeUS,MTemp,MVolt,MVmin,MVmax
FMT, 93, 46, CMD, QHHHffffLLfB, TimeUS,CTot,CNum,CId,Prm1,Prm2,Prm3,Prm4,Lat,Lng,Alt,Frame
FMT, 92, 46, MISE, QHHHffffLLfB, TimeUS,CTot,CNum,CId,Prm1,Prm2,Prm3,Prm4,Lat,Lng,Alt,Frame
FMT, 78, 48, MAVC, QBBBBBHffffiifBB, TimeUS,TS,TC,SS,SC,Fr,Cmd,P1,P2,P3,P4,X,Y,Z,Res,WL
FMT, 79, 20, RAD, QBBBBBHH, TimeUS,RSSI,RemRSSI,TxBuf,Noise,RemNoise,RxErrors,Fixed
FMT, 81, 46, CAM, QBHIHLLeeeccC, TimeUS,I,Img,GPSTime,GPSWeek,Lat,Lng,Alt,RelAlt,GPSAlt,R,P,Y
FMT, 82, 46, TRIG, QBHIHLLeeeccC, TimeUS,I,Img,GPSTime,GPSWeek,Lat,Lng,Alt,RelAlt,GPSAlt,R,P,Y
FMT, 83, 48, MNT, QBfffffffff, TimeUS,I,DRoll,Roll,DPitch,Pitch,DYawB,YawB,DYawE,YawE,Dist
FMT, 114, 41, ARSP, QBffcffBBffB, TimeUS,I,Airspeed,DiffPress,Temp,RawPress,Offset,U,H,Hp,TR,Pri
FMT, 88, 41, BAT, QBfffffcfBBB, TimeUS,Inst,Volt,VoltR,Curr,CurrTot,EnrgTot,Temp,Res,RemPct,H,SH
FMT, 89, 40, BCL, QBfHHHHHHHHHHHH, TimeUS,Instance,Volt,V1,V2,V3,V4,V5,V6,V7,V8,V9,V10,V11,V12
FMT, 113, 35, MAG, QBhhhhhhhhhBI, TimeUS,I,MagX,MagY,MagZ,OfsX,OfsY,OfsZ,MOX,MOY,MOZ,Health,S
FMT, 122, 14, MODE, QMBB, TimeUS,Mode,ModeNum,Rsn
FMT, 116, 17, RFND, QBCBBb, TimeUS,Instance,Dist,Stat,Orient,Quality
FMT, 117, 36, DMS, QIIIIBBBBBBBBB, TimeUS,N,Dp,RT,RS,Fa,Fmn,Fmx,Pa,Pmn,Pmx,Sa,Smn,Smx
FMT, 174, 41, BCN, QBBfffffff, TimeUS,Health,Cnt,D0,D1,D2,D3,PosX,PosY,PosZ
FMT, 175, 57, PRX, QBBfffffffffff, TimeUS,Layer,He,D0,D45,D90,D135,D180,D225,D270,D315,DUp,CAn,CDis
FMT, 176, 44, PRXR, QBffffffff, TimeUS,Layer,D0,D45,D90,D135,D180,D225,D270,D315
FMT, 179, 61, PM, QHHHIIHHIIIIIIQ, TimeUS,LR,NLon,NL,MaxT,Mem,Load,ErrL,InE,ErC,SPIC,I2CC,I2CI,Ex,R
FMT, 178, 29, SRTL, QBHHBfff, TimeUS,Active,NumPts,MaxPts,Action,N,E,D
FMT, 170, 48, OABR, QBBHHHBfLLiLLi, TimeUS,Type,Act,DYaw,Yaw,DP,RChg,Mar,DLt,DLg,DAlt,OLt,OLg,OAlt
FMT, 171, 31, OADJ, QBBBBLLLL, TimeUS,State,Err,CurrPoint,TotPoints,DLat,DLng,OALat,OALng
FMT, 172, 37, SA, QBffffffB, TimeUS,State,DVelX,DVelY,DVelZ,MVelX,MVelY,MVelZ,Back
FMT, 173, 21, OAVG, QBBLL, TimeUS,version,point_num,Lat,Lon
FMT, 77, 45, SIM, QccCfLLffff, TimeUS,Roll,Pitch,Yaw,Alt,Lat,Lng,Q1,Q2,Q3,Q4
FMT, 84, 38, TERR, QBLLHffHHf, TimeUS,Status,Lat,Lng,Spacing,TerrH,CHeight,Pending,Loaded,ROfs
FMT, 86, 40, ESC, QBffffcfcf, TimeUS,Instance,RPM,RawRPM,Volt,Curr,Temp,CTot,MotTemp,Err
FMT, 87, 15, EDT2, QBBBB, TimeUS,Instance,Stress,MaxStress,Status
FMT, 85, 46, CSRV, QBfffBfffffB, TimeUS,Id,Pos,Force,Speed,Pow,PosCmd,V,A,MotT,PCBT,Err
FMT, 105, 52, PIDR, QffffffffffB, TimeUS,Tar,Act,Err,P,I,D,FF,DFF,Dmod,SRate,Flags
FMT, 106, 52, PIDP, QffffffffffB, TimeUS,Tar,Act,Err,P,I,D,FF,DFF,Dmod,SRate,Flags
FMT, 107, 52, PIDY, QffffffffffB, TimeUS,Tar,Act,Err,P,I,D,FF,DFF,Dmod,SRate,Flags
FMT, 108, 52, PIDA, QffffffffffB, TimeUS,Tar,Act,Err,P,I,D,FF,DFF,Dmod,SRate,Flags
FMT, 109, 52, PIDS, QffffffffffB, TimeUS,Tar,Act,Err,P,I,D,FF,DFF,Dmod,SRate,Flags
FMT, 110, 52, PIDN, QffffffffffB, TimeUS,Tar,Act,Err,P,I,D,FF,DFF,Dmod,SRate,Flags
FMT, 111, 52, PIDE, QffffffffffB, TimeUS,Tar,Act,Err,P,I,D,FF,DFF,Dmod,SRate,Flags
FMT, 112, 56, DSTL, QBfLLeccfeffff, TimeUS,Stg,THdg,Lat,Lng,Alt,XT,Travel,L1I,Loiter,Des,P,I,D
FMT, 161, 32, ACC, QBQfff, TimeUS,I,SampleUS,AccX,AccY,AccZ
FMT, 162, 32, GYR, QBQfff, TimeUS,I,SampleUS,GyrX,GyrY,GyrZ
FMT, 163, 54, IMU, QBffffffIIfBBHH, TimeUS,I,GyrX,GyrY,GyrZ,AccX,AccY,AccZ,EG,EA,T,GH,AH,GHz,AHz
FMT, 166, 28, VIBE, QBfffI, TimeUS,IMU,VibeX,VibeY,VibeZ,Clip
FMT, 164, 31, ISBH, QHBBHHQf, TimeUS,N,type,instance,mul,smp_cnt,SampleUS,smp_rate
FMT, 165, 207, ISBD, QHHaaa, TimeUS,N,seqno,x,y,z
FMT, 129, 15, RFRH, QI, TimeUS,TF
FMT, 130, 5, RFRF, BB, FTypes,Slow
FMT, 138, 38, RFRN, IIIfIfffBBB, HLat,HLon,HAlt,E2T,AM,TX,TY,TZ,VC,EKT,Flags
FMT, 131, 4, REV2, B, Event
FMT, 132, 15, RSO2, III, Lat,Lon,Alt
FMT, 133, 11, RWA2, ff, Airspeed,uncertainty
FMT, 134, 4, REV3, B, Event
FMT, 135, 15, RSO3, III, Lat,Lon,Alt
FMT, 136, 11, RWA3, ff, Airspeed,Uncertainty
FMT, 137, 16, REY3, ffIB, yawangle,yawangleerr,timestamp_ms,type
FMT, 139, 13, RISH, HBBfBB, LR,PG,PA,LD,AC,GC
FMT, 140, 37, RISI, ffffffffBB, DVX,DVY,DVZ,DAX,DAY,DAZ,DVDT,DADT,Flags,I
FMT, 148, 5, RASH, BB, Primary,NumInst
FMT, 149, 14, RASI, fIBBB, pd,UpdateMS,H,Use,I
FMT, 141, 5, RBRH, BB, Primary,NumInst
FMT, 142, 13, RBRI, IfBB, LastUpdate,Alt,H,I
FMT, 143, 8, RRNH, hhB, GCl,MaxD,NumSensors
FMT, 144, 20, RRNI, fffHBBB, PX,PY,PZ,Dist,Orient,Status,I
FMT, 145, 5, RGPH, BB, NumInst,Primary
FMT, 146, 23, RGPI, ffffBBBB, OX,OY,OZ,Lg,Flags,Stat,NSats,I
FMT, 147, 58, RGPJ, IffffffIiiiffHB, TS,VX,VY,VZ,SA,Y,YA,YT,Lat,Lon,Alt,HA,VA,HD,I
FMT, 153, 14, RMGH, fBBBBBBB, Dec,Avail,NumInst,AutoDec,NumEna,LOE,C,FUsable
FMT, 154, 35, RMGI, IffffffBBBB, LU,OX,OY,OZ,FX,FY,FZ,UFY,H,HSF,I
FMT, 150, 33, RBCH, ffffiiiBB, PX,PY,PZ,AE,OLat,OLng,OAlt,Flags,NumInst
FMT, 151, 25, RBCI, IffffBB, LU,PX,PY,PZ,Dist,H,I
FMT, 152, 21, RVOH, fffIBB, OX,OY,OZ,Del,H,Ena
FMT, 155, 40, ROFH, ffffIffffB, FX,FY,GX,GY,Tms,PX,PY,PZ,HgtOvr,Qual
FMT, 156, 49, REPH, fffffffffIIH, PX,PY,PZ,Q1,Q2,Q3,Q4,PEr,AEr,TS,RT,D
FMT, 157, 19, RSLL, IIfI, Lat,Lng,PosAccSD,TS
FMT, 158, 25, REVH, ffffIH, VX,VY,VZ,Er,TS,D
FMT, 159, 31, RWOH, ffIffff, DA,DT,TS,PX,PY,PZ,R
FMT, 160, 53, RBOH, ffffffffIfffH, Q,DPX,DPY,DPZ,DAX,DAY,DAZ,DT,TS,OX,OY,OZ,D
FMT, 43, 37, XKF0, QBBccCCcccccccc, TimeUS,C,ID,rng,innov,SIV,TR,BPN,BPE,BPD,OFH,OFL,OFN,OFE,OFD
FMT, 44, 56, XKF1, QBccCfffffffccce, TimeUS,C,Roll,Pitch,Yaw,VN,VE,VD,dPD,PN,PE,PD,GX,GY,GZ,OH
FMT, 45, 46, XKF2, QBccccchhhhhhfff, TimeUS,C,AX,AY,AZ,VWN,VWE,MN,ME,MD,MX,MY,MZ,IDX,IDY,IS
FMT, 46, 42, XKF3, QBcccccchhhccff, TimeUS,C,IVN,IVE,IVD,IPN,IPE,IPD,IMX,IMY,IMZ,IYAW,IVT,RErr,ErSc
FMT, 47, 44, XKF4, QBcccccfffHBIHb, TimeUS,C,SV,SP,SH,SM,SVT,errRP,OFN,OFE,FS,TS,SS,GPS,PI
FMT, 48, 41, XKF5, QBBhhhcccCCfff, TimeUS,C,NI,FIX,FIY,AFI,HAGL,offset,RI,rng,Herr,eAng,eVel,ePos
FMT, 49, 36, XKFD, QBffffff, TimeUS,C,IX,IY,IZ,IVX,IVY,IVZ
FMT, 50, 29, XKFM, QBBffff, TimeUS,C,OGNM,GLR,ALR,GDR,ADR
FMT, 51, 20, XKFS, QBBBBBBBBB, TimeUS,C,MI,BI,GI,AI,SS,GPS_GTA,GPS_CHK_WAIT,MAG_FUSION
FMT, 52, 28, XKQ, QBffff, TimeUS,C,Q1,Q2,Q3,Q4
FMT, 53, 48, XKT, QBIffffffff, TimeUS,C,Cnt,IMUMin,IMUMax,EKFMin,EKFMax,AngMin,AngMax,VMin,VMax
FMT, 54, 20, XKTV, QBff, TimeUS,C,TVS,TVD
FMT, 55, 60, XKV1, QBffffffffffff, TimeUS,C,V00,V01,V02,V03,V04,V05,V06,V07,V08,V09,V10,V11
FMT, 56, 60, XKV2, QBffffffffffff, TimeUS,C,V12,V13,V14,V15,V16,V17,V18,V19,V20,V21,V22,V23
FMT, 57, 60, XKY0, QBffffffffffff, TimeUS,C,YC,YCS,Y0,Y1,Y2,Y3,Y4,W0,W1,W2,W3,W4
FMT, 58, 52, XKY1, QBffffffffff, TimeUS,C,IVN0,IVN1,IVN2,IVN3,IVN4,IVE0,IVE1,IVE2,IVE3,IVE4
FMT, 41, 60, NKY0, QBffffffffffff, TimeUS,C,YC,YCS,Y0,Y1,Y2,Y3,Y4,W0,W1,W2,W3,W4
FMT, 42, 52, NKY1, QBffffffffff, TimeUS,C,IVN0,IVN1,IVN2,IVN3,IVN4,IVE0,IVE1,IVE2,IVE3,IVE4
FMT, 70, 45, AHR2, QccCfLLffff, TimeUS,Roll,Pitch,Yaw,Alt,Lat,Lng,Q1,Q2,Q3,Q4
FMT, 71, 19, AOA, Qff, TimeUS,AOA,SSA
FMT, 72, 36, ATT, QffffffB, TimeUS,DesRoll,Roll,DesPitch,Pitch,DesYaw,Yaw,AEKF
FMT, 73, 24, ORGN, QBLLe, TimeUS,Type,Lat,Lng,Alt
FMT, 74, 31, POS, QLLfff, TimeUS,Lat,Lng,Alt,RelHomeAlt,RelOriginAlt
FMT, 76, 35, ATSC, Qffffff, TimeUS,AngPScX,AngPScY,AngPScZ,PDScX,PDScY,PDScZ
FMT, 204, 51, VSTB, Qffffffffff, TimeUS,GyrX,GyrY,GyrZ,AccX,AccY,AccZ,Q1,Q2,Q3,Q4
FMT, 90, 38, MON, QIbIHHHHHII, TimeUS,Dly,Tsk,IErr,IErrCnt,IErrLn,MM,MC,SmLn,SPICnt,I2CCnt
FMT, 91, 47, WDOG, QbIHHHHHHHIBIIn, TimeUS,Tsk,IE,IEC,IEL,MvMsg,MvCmd,SmLn,FL,FT,FA,FP,ICSR,LR,TN
FMT, 210, 20, UART, QBff, TimeUS,I,Tx,Rx
FMT, 115, 21, RPM, QBffB, TimeUS,I,RPM,Qual,H
FMT, 209, 27, FNCE, QBBBLLBf, TimeUS,Tot,Seq,Type,Lat,Lng,Count,Radius
FMT, 177, 33, DSF, QIHIIII, TimeUS,Dp,Blk,Bytes,FMn,FMx,FAv
FMT, 121, 24, RALY, QBBLLhB, TimeUS,Tot,Seq,Lat,Lng,Alt,Flags
FMT, 183, 23, MAV, QBHHHBHH, TimeUS,chan,txp,rxp,rxdp,flags,ss,tf
FMT, 167, 43, VISO, Qffffffff, TimeUS,dt,AngDX,AngDY,AngDZ,PosDX,PosDY,PosDZ,conf
FMT, 168, 58, VISP, QQIffffffffBBb, TimeUS,RTimeUS,CTimeMS,PX,PY,PZ,R,P,Y,PErr,AErr,Rst,Ign,Q
FMT, 169, 42, VISV, QQIffffBBb, TimeUS,RTimeUS,CTimeMS,VX,VY,VZ,VErr,Rst,Ign,Q
FMT, 180, 28, OF, QBffff, TimeUS,Qual,flowX,flowY,bodyX,bodyY
POWR, 159933544, 4.947986, 5.043077, 1, 1, 6
MCU, 159933544, 36.0835, 3.348817, 3.340674, 3.355444
BAT, 159933557, 0, 15.50158, 15.66221, 1.465918, 68.12966, 1.061211, 0, 0.1095722, 97, 1, 0
MAG, 159933601, 0, -161, -142, 338, -382, 367, 647, 0, 0, 0, 1, 159933568
MAG, 159933601, 1, 149, -345, 170, 59, 22, -40, 0, 0, 0, 1, 159933566
FMT, 249, 25, SURF, QBBfff, TimeUS,I,St,D,FD,TO
SURF, 159933620, 0, 2, 0, 0, 0.3332101
SURF, 159933649, 1, 2, 0, 0, 0.3332101
BARO, 159933669, 0, 0.1536255, 641.2736, 93711.8, 35.97, -0.1442146, 159933, 0, 31.91488, 1
FMT, 0, 55, CTUN, Qffffffefffhh, TimeUS,ThI,ABst,ThO,ThH,DAlt,Alt,BAlt,DSAlt,SAlt,TAlt,DCRt,CRt
CTUN, 159933682, 0, 0, 0, 0.4193364, 0, 0.3155987, 0.15, NaN, 0, -0.009040216, 0, 0
ATT, 159933821, 0.0002616376, 2.421352, 0.0002178201, 0.01336988, 132.8641, 132.8124, 3
FMT, 195, 39, ANG, Qfffffff, TimeUS,DesRoll,Roll,DesPitch,Pitch,DesYaw,Yaw,Dt
ANG, 159932921, 0.0002616376, 2.420811, 0.0002178201, 0.01227778, 132.8641, 132.8641, 0.002499
FMT, 75, 63, RATE, Qfffffffffffff, TimeUS,RDes,R,ROut,PDes,P,POut,YDes,Y,YOut,ADes,A,AOut,AOutSlew
RATE, 159932935, -10.89467, -0.2675878, -0.02428336, -0.02746167, -0.06472532, 7.264082E-05, 0.6753897, 0.9406633, 0.002365584, 0, 1.40543, 0, 0
PIDR, 159933868, -0.1903923, -0.004670289, -0.1857221, -0.02507248, 0, 0.0007891132, 0, 0, 1, 0.1272791, 9
PIDP, 159933875, -0.0005626281, -0.00112967, 0.0005670419, 7.655066E-05, 0, -3.909844E-06, 0, 0, 1, 0.04075136, 9
PIDY, 159933879, 0.01179166, 0.01641767, 0.01314213, 0.002365584, 0, 0, 0, 0, 1, 0.03583888, 9
PIDA, 159933883, 0, 0, 0, 0, 0, 0, 0, 0, 0, 0, 0
XKF4, 159933071, 0, 0.01, 0.01, 0, 0.04, 0, 0.006358636, -0.2768707, 0.541474, 0, 48, 109375, 0, 0
XKY0, 159933071, 0, 170.6821, 14.69749, 215.9258, 287.9246, 359.9321, 71.938, 143.9341, 0.2000446, 0.199971, 0.1999374, 0.1999904, 0.2000566
XKY1, 159933071, 0, -0.05515521, -0.04744855, -0.04761199, -0.0554219, -0.0600788, -0.02113809, -0.01846499, -0.0103061, -0.007944617, -0.01463896
XKF1, 159933071, 0, 2.42, 0.01, 132.81, -0.01899765, -0.003466015, -0.005013163, 0.02036299, -0.2635918, 2.088594, -0.3155987, -0.38, -0.78, -0.02, 641.12
XKF2, 159933071, 0, 0, 0, 0, 0, 0, 213, -2, 329, 0, 0, 0, 0, 0, 0
XKF3, 159933071, 0, -0.04, 0, -0.02, 0.08, -0.18, -0.06, 0, 0, 0, -4.22, 0, 0, 0.0003788389
XKF5, 159933071, 0, 0, 0, 0, 0, 0.37, 0.06, 0, 0, 0.5, 0.0005359763, 0.006441023, 0.009203999
XKFS, 159933071, 0, 0, 0, 0, 0, 0, 1, 0, 1
XKQ, 159933071, 0, 0.3999735, 0.01722968, 0.01306887, 0.9162716
XKF4, 159933071, 1, 0.01, 0.02, 0, 0.04, 0, 0.006412811, -0.446513, 0.7383402, 0, 48, 109375, 0, 0
XKY0, 159933071, 1, 225.1872, 14.31106, 215.9375, 287.8966, 359.9036, 71.94877, 143.9698, 0.2003401, 0.2001577, 0.1997575, 0.1996924, 0.2000523
XKY1, 159933071, 1, -0.05422515, -0.05261105, -0.05172184, -0.05278852, -0.05433569, -0.01541299, -0.01582247, -0.01441323, -0.01313202, -0.01375131
XKF1, 159933071, 1, 3.62, 0.54, 131.28, 0.001358546, -0.0172936, -0.003350931, 0.02298463, -0.2520655, 2.078064, -0.3186269, -0.07, -0.02, 0, 641.12
XKF2, 159933071, 1, 0, 0, -0.01, 0, 0, 216, -2, 327, 0, 0, 0, 0, 0, 0
XKF3, 159933071, 1, -0.02, -0.02, -0.02, 0.09, -0.19, -0.06, 0, 0, 0, -3.98, 0, 0.02776643, 0.000334823
XKFS, 159933071, 1, 0, 0, 0, 0, 0, 1, 0, 1
XKQ, 159933071, 1, 0.4121081, 0.01747304, 0.02429101, 0.9106435
AHR2, 159933978, 2.35, -0.21, 133.64, 641.69, 15.3695902, 75.1243824, 0.3935057, 0.009792466, 0.01812724, 0.9190912
POS, 159933984, 15.369591, 75.1243806, 641.43, -0.004401267, 0.3155987
FMT, 205, 32, MOTB, QfffffB, TimeUS,LiftMax,BatVolt,ThLimit,ThrAvMx,ThrOut,FailFlags
MOTB, 159933992, 1, 1, 1, 0.04193364, 0, 2
RCIN, 159934012, 1495, 1495, 982, 1995, 982, 982, 1495, 1495, 1495, 1495, 1495, 1495, 1495, 1495
RCI2, 159934016, 1495, 1495, 0, 1
RCOU, 159934022, 1000, 1000, 1000, 1000, 0, 0, 0, 0, 1495, 0, 0, 0, 0, 0
RCO2, 159934063, 0, 0, 0, 0
VIBE, 159934097, 0, 0.09364074, 0.07683126, 0.02551824, 0
VIBE, 159934097, 1, 0.1140421, 0.09510702, 0.07880579, 0
FMT, 247, 31, CTRL, Qfffff, TimeUS,RMSRollP,RMSRollD,RMSPitchP,RMSPitchD,RMSYaw
CTRL, 159934139, 0.02568472, 0.0007138489, 0.0001664992, 0.000154988, 0.002824989
IMU, 159934184, 0, -0.01145894, -0.01485545, 0.016017, -0.2283837, -0.2891839, -9.821798, 0, 0, 44.80676, 1, 1, 2022, 2022
IMU, 159934184, 1, -0.004052559, -0.003918848, 0.01821322, -0.1269691, -0.4993567, -9.796112, 0, 0, 45, 1, 1, 1999, 2045
FMT, 182, 21, WENC, Qfbfb, TimeUS,Dist0,Qual0,Dist1,Qual1
FMT, 185, 35, ADSB, QIiiiHHhH, TimeUS,ICAO_address,Lat,Lng,Alt,Heading,Hor_vel,Ver_vel,Squark
FMT, 181, 12, EV, QB, TimeUS,Id
FMT, 186, 18, ARM, QBIBB, TimeUS,ArmState,ArmChecks,Forced,Method
FMT, 184, 13, ERR, QBB, TimeUS,Subsys,ECode
FMT, 187, 35, WINC, QBBBBBfffHfb, TimeUS,Heal,ThEnd,Mov,Clut,Mode,DLen,Len,DRate,Tens,Vcc,Temp
FMT, 188, 47, PSCN, Qfffffffff, TimeUS,DPN,TPN,PN,DVN,TVN,VN,DAN,TAN,AN
FMT, 189, 47, PSCE, Qfffffffff, TimeUS,DPE,TPE,PE,DVE,TVE,VE,DAE,TAE,AE
FMT, 190, 47, PSCD, Qfffffffff, TimeUS,DPD,TPD,PD,DVD,TVD,VD,DAD,TAD,AD
FMT, 191, 35, PSON, Qffffff, TimeUS,TPON,PON,TVON,VON,TAON,AON
FMT, 192, 35, PSOE, Qffffff, TimeUS,TPOE,POE,TVOE,VOE,TAOE,AOE
FMT, 193, 35, PSOD, Qffffff, TimeUS,TPOD,POD,TVOD,VOD,TAOD,AOD
FMT, 194, 35, PSOT, Qffffff, TimeUS,TPOT,POT,TVOT,VOT,TAOT,AOT
FMT, 201, 33, STAK, QBBHHN, TimeUS,Id,Pri,Total,Free,Name
FMT, 202, 88, FILE, NIBZ, FileName,Offset,Length,Data
FMT, 197, 78, AISR, QBBBZ, TimeUS,num,total,ID,payload
FMT, 198, 41, AIS1, QBBIBbHbLLHHBBbI, US,typ,rep,mmsi,nav,rot,sog,pos,lon,lat,cog,hed,sec,man,raim,rad
FMT, 199, 38, AIS4, QBIHBBBBBBLLBBI, US,rep,mmsi,year,mth,day,h,m,s,fix,lon,lat,epfd,raim,rad
FMT, 200, 175, AIS5, QBIBINZBHHBBBBZB, US,rep,mmsi,ver,imo,cal,nam,typ,bow,stn,prt,str,fix,dght,dst,dte
FMT, 203, 39, SCR, QNIii, TimeUS,Name,Runtime,Total_mem,Run_mem
FMT, 206, 90, VER, QBHBBBBIZHBB, TimeUS,BT,BST,Maj,Min,Pat,FWT,GH,FWS,APJ,BU,FV
FMT, 6, 24, PTUN, QBfff, TimeUS,Param,TunVal,TunMin,TunMax
FMT, 1, 14, D16, QBh, TimeUS,Id,Value
FMT, 2, 14, DU16, QBH, TimeUS,Id,Value
FMT, 3, 16, D32, QBi, TimeUS,Id,Value
FMT, 4, 16, DU32, QBI, TimeUS,Id,Value
FMT, 5, 16, DFLT, QBf, TimeUS,Id,Value
FMT, 9, 47, SIDD, Qfffffffff, TimeUS,Time,Targ,F,Gx,Gy,Gz,Ax,Ay,Az
FMT, 10, 40, SIDS, QBfffffff, TimeUS,Ax,Mag,FSt,FSp,TFin,TC,TR,TFout
FMT, 8, 49, GUIP, QBfffbffffff, TimeUS,Type,pX,pY,pZ,Terrain,vX,vY,vZ,aX,aY,aZ
FMT, 11, 44, GUIA, QBffffffff, TimeUS,Type,Roll,Pitch,Yaw,RollRt,PitchRt,YawRt,Thrust,ClimbRt
FMT, 252, 43, DCM, Qffffffff, TimeUS,Roll,Pitch,Yaw,ErrRP,ErrYaw,VWN,VWE,VWD
DCM, 159935512, 2.350122, -0.2127599, 133.6452, 0.02270957, 0.05465508, 0, 0, 0
FMT, 251, 51, EAHR, QffffffLLfI, TimeUS,Roll,Pitch,Yaw,VN,VE,VD,Lat,Lon,Alt,Flg
EAHR, 159935629, 0, 0, 0, 0, 0, 0, 0, 0, 0, 0
IMU, 159973805, 0, -0.004563399, -0.01381627, 0.00256363, -0.194342, -0.4944974, -9.799002, 0, 0, 44.80676, 1, 1, 2022, 2022
IMU, 159973805, 1, 0.001852558, -0.001604027, 0.002343694, -0.1279371, -0.6909633, -9.788212, 0, 0, 45, 1, 1, 1999, 2045
SURF, 159983658, 0, 2, 0, 0, 0.3323502
SURF, 159983667, 1, 2, 0, 0, 0.3323502
IMU, 160013357, 0, -0.007962025, -0.01377511, -0.01148976, -0.2231421, -0.2895204, -9.814651, 0, 0, 44.80676, 1, 1, 2022, 2022
IMU, 160013357, 1, -0.003504046, -0.0002566803, -0.009894704, -0.1579362, -0.511116, -9.818704, 0, 0, 45, 1, 1, 1999, 2045
MSG, 160018894, ArduCopter V4.6.2 (1ebd4d99)
MSG, 160018902, ChibiOS: 88b84600
VER, 160018908, 10, 5009, 4, 6, 2, 255, 515722649, ArduCopter V4.6.2 (1ebd4d99), 56, 2, 2
MSG, 160018923, Pixhawk6C 003D0048 3133510F 31343630
MSG, 160018933, Param space used: 974/5376
MSG, 160018940, RC Protocol: SBUS
MSG, 160018950, RCOut: PWM:1-16
MSG, 160018955, New mission
CMD, 160021044, 4, 0, 16, 0, 0, 0, 0, 15.3695911, 75.1243804, 641.44, 0
CMD, 160021053, 4, 1, 22, 1, 0, 0, 0, 0, 0, 10, 3
CMD, 160021060, 4, 2, 16, 10, 0, 0, 0, 15.367361, 75.1254623, 10, 3
CMD, 160021092, 4, 3, 20, 0, 0, 0, 0, 0, 0, 0, 0
MSG, 160021097, New rally
MSG, 160021135, New fence
FNCE, 160021153, 10, 0, 98, 15.3694775, 75.1243937, 10, 0
FNCE, 160021158, 10, 1, 98, 15.3694025, 75.1246646, 10, 0
FNCE, 160021164, 10, 2, 98, 15.3694775, 75.1248684, 10, 0
FNCE, 160021169, 10, 3, 98, 15.3696456, 75.1249086, 10, 0
FNCE, 160021174, 10, 4, 98, 15.3699042, 75.1248443, 10, 0
FNCE, 160021180, 10, 5, 98, 15.3702533, 75.1247826, 10, 0
FNCE, 160021185, 10, 6, 98, 15.3703154, 75.1244822, 10, 0
FNCE, 160021190, 10, 7, 98, 15.3700982, 75.124281, 10, 0
FNCE, 160021196, 10, 8, 98, 15.3698292, 75.1241469, 10, 0
FNCE, 160021201, 10, 9, 98, 15.3695111, 75.1241147, 10, 0
MSG, 160021210, Frame: QUAD/X
MODE, 160021215, Stabilize, 0, 1
ORGN, 160021218, 0, 15.3695933, 75.1243612, 641.12
ORGN, 160021222, 1, 15.3695911, 75.1243804, 641.44
MSG, 160021231, GPS 1: probing for u-blox at 230400 baud
MSG, 160021240, u-blox 1 HW: 00190000 SW: EXT CORE 4.04 (7f89f7)
FILE, @SYS/uarts.txt, 0, 64, UARTV1\nSERIAL0 OTG1  TX =       0 RX =       0 TXBD=     0 RXBD=
POWR, 160033490, 4.938015, 5.040659, 1, 1, 6
MCU, 160033490, 36.20278, 3.348113, 3.338435, 3.35375
BAT, 160033503, 0, 15.48396, 15.64234, 1.445473, 68.16979, 1.061833, 0, 0.1095722, 97, 1, 0
MAG, 160033514, 0, -160, -143, 340, -382, 367, 647, 0, 0, 0, 1, 160033513
MAG, 160033514, 1, 149, -343, 168, 59, 22, -40, 0, 0, 0, 1, 160033512
SURF, 160033532, 0, 2, 0, 0, 0.3314827
SURF, 160033567, 1, 2, 0, 0, 0.3314827
BARO, 160033634, 0, 0.380127, 641.5001, 93709.24, 35.97, 0.002765661, 160033, 0, 31.91488, 1
CTUN, 160033647, 0, 0, 0, 0.4193364, 0, 0.3136653, 0.38, NaN, 0, -0.008857111, 0, 0
ATT, 160033706, 0.0002616376, 2.418275, 0.0002178201, 0.01292442, 132.8755, 132.8239, 3
ANG, 160032921, 0.0002616376, 2.417734, 0.0002178201, 0.01183501, 132.8755, 132.8755, 0.002498
RATE, 160032935, -10.88084, -0.1057998, -0.02531572, -0.02551642, -0.01031705, -2.497511E-05, 0.6749429, -0.029956, 0.002584227, 0, -0.03805161, 0, 0
PIDR, 160033722, -0.1899919, -0.001846555, -0.1881453, -0.02539962, 0, 8.390562E-05, 0, 0, 1, 0.1464762, 9
PIDP, 160033726, -0.0004646905, -0.0001800666, -0.0002846239, -3.842423E-05, 0, 1.344912E-05, 0, 0, 1, 0.04150087, 9
PIDY, 160033730, 0.01179034, -0.0005228309, 0.01435682, 0.002584227, 0, 0, 0, 0, 1, 0.04050168, 9
PIDA, 160033733, 0, 0, 0, 0, 0, 0, 0, 0, 0, 0, 0
XKF4, 160033025, 0, 0.01, 0.01, 0, 0.04, 0, 0.006436664, -0.2768707, 0.541474, 0, 48, 109375, 0, 0
XKY0, 160033025, 0, 170.6547, 14.69752, 215.8983, 287.8971, 359.9046, 71.91052, 143.9067, 0.2000446, 0.199971, 0.1999374, 0.1999904, 0.2000566
XKY1, 160033025, 0, -0.05515521, -0.04744855, -0.04761199, -0.0554219, -0.0600788, -0.02113809, -0.01846499, -0.0103061, -0.007944617, -0.01463896
XKF1, 160033025, 0, 2.41, 0.01, 132.82, -0.01755379, 0.0006437224, -0.004903764, 0.02113073, -0.2664151, 2.093816, -0.3136653, -0.38, -0.78, -0.02, 641.12
XKF2, 160033025, 0, 0, 0, 0, 0, 0, 213, -2, 329, 0, 0, 0, 0, 0, 0
XKF3, 160033025, 0, -0.04, 0, -0.02, 0.08, -0.18, -0.16, 0, 0, 0, -3.77, 0, 0, 0.0003788389
XKF5, 160033025, 0, 0, 0, 0, 0, 0.37, 0.06, 0, 0, 0.5, 0.0005221742, 0.004582257, 0.004479366
XKFS, 160033025, 0, 0, 0, 0, 0, 0, 1, 0, 1
XKQ, 160033025, 0, 0.399882, 0.01722119, 0.01304443, 0.916312
XKF4, 160033025, 1, 0.01, 0.02, 0, 0.04, 0, 0.006490491, -0.446513, 0.7383402, 0, 48, 109375, 0, 0
XKY0, 160033025, 1, 225.1497, 14.31108, 215.9, 287.8591, 359.8661, 71.91125, 143.9322, 0.2003401, 0.2001577, 0.1997575, 0.1996924, 0.2000523
XKY1, 160033025, 1, -0.05422515, -0.05261105, -0.05172184, -0.05278852, -0.05433569, -0.01541299, -0.01582247, -0.01441323, -0.01313202, -0.01375131
XKF1, 160033025, 1, 3.61, 0.54, 131.29, 0.002248781, -0.01232335, -0.003075479, 0.02364982, -0.2549464, 2.083679, -0.316416, -0.07, -0.02, 0, 641.12
XKF2, 160033025, 1, 0, 0, -0.01, 0, 0, 216, -2, 327, 0, 0, 0, 0, 0, 0
XKF3, 160033025, 1, -0.02, -0.02, -0.02, 0.09, -0.19, -0.16, 0, 0, 0, -3.52, 0, 0.02776643, 0.000334823
XKFS, 160033025, 1, 0, 0, 0, 0, 0, 1, 0, 1
XKQ, 160033025, 1, 0.4120335, 0.01750074, 0.02426909, 0.9106773
AHR2, 160033879, 2.33, -0.15, 133.67, 641.59, 15.3695902, 75.1243824, 0.393262, 0.009285251, 0.01820955, 0.9191992
POS, 160033885, 15.369591, 75.1243807, 641.43, -0.006334722, 0.3136653
MOTB, 160033890, 1, 1, 1, 0.04193364, 0, 2
RCIN, 160033896, 1495, 1495, 982, 2006, 982, 982, 1495, 1495, 1495, 1495, 1495, 1495, 1495, 1495
RCI2, 160033900, 1495, 1495, 0, 1
RCOU, 160033907, 1000, 1000, 1000, 1000, 0, 0, 0, 0, 1495, 0, 0, 0, 0, 0
RCO2, 160033911, 0, 0, 0, 0
VIBE, 160033918, 0, 0.06275637, 0.07201832, 0.02295191, 0
VIBE, 160033918, 1, 0.08734738, 0.08996912, 0.07215899, 0
CTRL, 160033927, 0.02565712, 0.0006710918, 0.0001444498, 0.0001421291, 0.002571868
DCM, 160035508, 2.336878, -0.1563615, 133.6759, 0.02270957, 0.05327568, 0, 0, 0
EAHR, 160035532, 0, 0, 0, 0, 0, 0, 0, 0, 0, 0
IMU, 160053410, 0, -0.005241977, -0.01404656, 0.01211924, -0.1810478, -0.3706776, -9.809876, 0, 0, 44.80676, 1, 1, 2022, 2022
IMU, 160053410, 1, 0.0003357454, 0.0002733878, 0.01387976, -0.1072687, -0.5873377, -9.792938, 0, 0, 45, 1, 1, 1999, 2045
FILE, @SYS/uarts.txt, 64, 64,      0 FE=0 OE=0 NE=0 FlowCtrl=0\nSERIAL1 UART7 TX*=    4988 RX*=
FILE, @SYS/uarts.txt, 128, 64,    26657 TXBD=   313 RXBD=  1675 FE=0 OE=0 NE=0 FlowCtrl=0\nSERIA
GPS, 160073838, 0, 3, 182514600, 2380, 14, 0.79, 15.3695901, 75.1243824, 642.13, 0.038, 108.2776, 0.033, 0, 1
GPA, 160073838, 0, 1.12, 1.41, 1.43, 0.34, 0, 1, 160065, 200, 564.12, 0, 0
SURF, 160083969, 0, 2, 0, 0, 0.3306127
SURF, 160083981, 1, 2, 0, 0, 0.3306127
STAK, 160085180, 2, 60, 1200, 880, UART_RX
FILE, @SYS/uarts.txt, 192, 64, L2 UART5 TX*=    3964 RX*=       0 TXBD=   249 RXBD=     0 FE=0 
IMU, 160093405, 0, -0.008079649, -0.01453442, 0.006787864, -0.218096, -0.3557133, -9.81893, 0, 0, 44.80676, 1, 1, 2022, 2022
IMU, 160093405, 1, -0.001617198, -0.0006920024, 0.007220261, -0.1488133, -0.5638282, -9.825038, 0, 0, 45, 1, 1, 1999, 2045
FILE, @SYS/uarts.txt, 256, 64, OE=0 NE=0 FlowCtrl=0\nSERIAL3 UART1 TX*=    2020 RX*=  105095 TXB
FILE, @SYS/uarts.txt, 320, 64, D=   126 RXBD=  6603 FE=144 OE=0 NE=161 FlowCtrl=0\nSERIAL4 UART8
RAD, 160121085, 63, 0, 100, 96, 0, 0, 0
FILE, @SYS/uarts.txt, 384, 64,  TX*=       0 RX*=       0 TXBD=     0 RXBD=     0 FE=0 OE=0 NE=
POWR, 160133520, 4.93298, 5.043077, 1, 1, 6
MCU, 160133520, 36.14314, 3.348817, 3.339834, 3.355727
BAT, 160133533, 0, 15.48881, 15.6488, 1.46012, 68.21037, 1.062461, 0, 0.1095722, 97, 1, 0
MAG, 160133652, 0, -163, -141, 336, -382, 367, 647, 0, 0, 0, 1, 160133601
MAG, 160133652, 1, 151, -344, 169, 59, 22, -40, 0, 0, 0, 1, 160133567
SURF, 160133678, 0, 2, 0, 0, 0.3297424
SURF, 160133687, 1, 2, 0, 0, 0.3297424
BARO, 160133707, 0, 0.1536255, 641.2736, 93711.81, 35.97, 0.1194763, 160133, 0, 31.91488, 1
CTUN, 160133719, 0, 0, 0, 0.4193364, 0, 0.3115857, 0.15, NaN, 0, -0.008368829, 0, 0
ATT, 160133776, 0.0002616376, 2.416378, 0.00021782, 0.01052874, 132.921, 132.8694, 3
ANG, 160132926, 0.0002616376, 2.415836, 0.00021782, 0.00944104, 132.921, 132.921, 0.0025
RATE, 160132939, -10.87247, -0.05461168, -0.02542814, -0.01474017, -0.01718379, 4.757487E-07, 0.6753953, -0.2735564, 0.001708114, 0, 1.052284, 0, 0
PIDR, 160133792, -0.1898063, -0.0009531537, -0.1888532, -0.02549518, 0, 6.704156E-05, 0, 0, 1, 0.1605603, 9
PIDP, 160133796, -0.0002723868, -0.0002999138, 2.752698E-05, 3.716143E-06, 0, -3.240394E-06, 0, 0, 1, 0.0387153, 9
PIDY, 160133800, 0.01179044, -0.004774459, 0.009489521, 0.001708114, 0, 0, 0, 0, 1, 0.04410645, 9
PIDA, 160133804, 0, 0, 0, 0, 0, 0, 0, 0, 0, 0, 0
XKF4, 160133030, 0, 0.02, 0.01, 0, 0.03, 0, 0.006443808, -0.2768707, 0.541474, 0, 48, 109375, 0, 0
XKY0, 160133030, 0, 300.8641, 14.36759, 215.9112, 287.9017, 359.8885, 71.88973, 143.9037, 0.2000095, 0.2001055, 0.2000557, 0.1999289, 0.1999004
XKY1, 160133030, 0, -0.03340346, -0.02720462, -0.02228334, -0.02544217, -0.03231421, 0.03091164, 0.0277515, 0.03267121, 0.0388714, 0.03778315
XKF1, 160133030, 0, 2.41, 0.01, 132.86, -0.01550214, 0.002335587, -0.005033394, 0.02021999, -0.2688295, 2.098297, -0.3115857, -0.38, -0.78, -0.02, 641.12
XKF2, 160133030, 0, 0, 0, 0, 0, 0, 213, -2, 329, 0, 0, 0, 0, 0, 0
XKF3, 160133030, 0, -0.03, 0.04, -0.03, 0.09, -0.18, 0.06, 0, 0, 0, -3.25, 0, 0, 0.0004157692
XKF5, 160133030, 0, 0, 0, 0, 0, 0.37, 0.06, 0, 0, 0.5, 0.0004786575, 0.004853392, 0.003252574
XKFS, 160133030, 0, 0, 0, 0, 0, 0, 1, 0, 1
XKQ, 160133030, 0, 0.3995178, 0.01722855, 0.01302774, 0.9164709
XKV1, 160133030, 0, 0.0002068207, 5.117035E-06, 5.153198E-06, 4.058502E-05, 0.0309675, 0.03099374, 0.01187417, 0.1027635, 0.1027636, 0.149836, 3.930957E-11, 3.938514E-11
XKV2, 160133030, 0, 1.08563E-10, 4.644103E-06, 4.64438E-06, 5.765644E-08, 0, 0, 0, 0, 0, 0, 0, 0
XKF4, 160133030, 1, 0.01, 0.02, 0, 0.03, 0, 0.006499277, -0.446513, 0.7383402, 0, 48, 109375, 0, 0
XKY0, 160133030, 1, 227.0811, 14.33832, 215.9039, 287.8769, 359.8804, 71.90961, 143.9241, 0.2002199, 0.2001093, 0.1998477, 0.1997966, 0.2000266
XKY1, 160133030, 1, -0.03068053, -0.03249108, -0.02825739, -0.02382708, -0.02532866, 0.03736055, 0.03232224, 0.02904024, 0.03205593, 0.03719893
XKF1, 160133030, 1, 3.61, 0.54, 131.33, 0.003175222, -0.0100529, -0.002366334, 0.02301545, -0.2574582, 2.088401, -0.314173, -0.07, -0.02, 0, 641.12
XKF2, 160133030, 1, 0, 0, -0.01, 0, 0, 216, -2, 327, 0, 0, 0, 0, 0, 0
XKF3, 160133030, 1, -0.01, 0.02, -0.03, 0.1, -0.19, 0.06, 0, 0, 0, -2.99, 0, 0.02776643, 0.000338092
XKFS, 160133030, 1, 0, 0, 0, 0, 0, 1, 0, 1
XKQ, 160133030, 1, 0.411676, 0.01749763, 0.02424868, 0.9108396
AHR2, 160133978, 2.34, -0.12, 133.73, 641.82, 15.3695901, 75.1243824, 0.3927808, 0.009043906, 0.01837315, 0.919404
POS, 160133990, 15.3695909, 75.1243807, 641.43, -0.008414268, 0.3115857
MOTB, 160133995, 1, 1, 1, 0.04193364, 0, 2
RCIN, 160134001, 1495, 1495, 982, 2006, 982, 982, 1495, 1495, 1495, 1495, 1495, 1495, 1495, 1495
RCI2, 160134005, 1495, 1495, 0, 1
RCOU, 160134011, 1000, 1000, 1000, 1000, 0, 0, 0, 0, 1495, 0, 0, 0, 0, 0
RCO2, 160134014, 0, 0, 0, 0
VIBE, 160134019, 0, 0.05553727, 0.05245076, 0.01879242, 0
VIBE, 160134019, 1, 0.08363834, 0.0760985, 0.069568, 0
CTRL, 160134027, 0.02564537, 0.0005744197, 0.0001213944, 0.0001269435, 0.002294
IMU, 160134037, 0, -0.007744393, -0.01403374, -0.005183879, -0.1726153, -0.4484187, -9.813519, 0, 0, 44.80676, 1, 1, 2022, 2022
IMU, 160134037, 1, -0.004312231, -0.002113891, -0.00615899, -0.1057842, -0.6534513, -9.784687, 0, 0, 45, 1, 1, 1999, 2045
FILE, @SYS/uarts.txt, 448, 64, 0 FlowCtrl=0\nSERIAL5 UART2 TX =       0 RX =       0 TXBD=     0
DCM, 160135538, 2.343708, -0.1254544, 133.7346, 0.02359391, 0.05493851, 0, 0, 0
EAHR, 160135574, 0, 0, 0, 0, 0, 0, 0, 0, 0, 0
FILE, @SYS/uarts.txt, 512, 64,  RXBD=     0 FE=0 OE=0 NE=0 FlowCtrl=0\nSERIAL6 UART3 TX =       
FILE, @SYS/uarts.txt, 576, 64, 0 RX =       0 TXBD=     0 RXBD=     0 FE=0 OE=0 NE=0 FlowCtrl=0
FILE, @SYS/uarts.txt, 640, 64, \nSERIAL7 OTG2  TX =       0 RX =       0 TXBD=     0 RXBD=     0
IMU, 160173832, 0, -0.006423456, -0.01213518, -0.0003673305, -0.2749583, -0.2909067, -9.835179, 0, 0, 44.80676, 1, 1, 2022, 2022
IMU, 160173832, 1, -0.001249781, 0.0004314624, 0.0008033719, -0.1855605, -0.4862237, -9.841237, 0, 0, 45, 1, 1, 1999, 2045
FILE, @SYS/uarts.txt, 704, 64,  FE=0 OE=0 NE=0 FlowCtrl=0\nIOMCU   UART6 TX*= 1288508 RX*=  7982
SURF, 160183691, 0, 2, 0, 0, 0.3288558
SURF, 160183701, 1, 2, 0, 0, 0.3288558
STAK, 160186198, 3, 60, 752, 480, OTG1
FILE, @SYS/uarts.txt, 768, 53, 52 TXBD=     1 RXBD= 23171 FE=0 OE=0 NE=0 FlowCtrl=0\n
FILE, @SYS/memory.txt, 0, 64, MemInfoV1\nSTART=0x24000000 LEN=512k FREE=  3008 LRG=  1152 TYPE=
IMU, 160213394, 0, -0.006797843, -0.01369452, -0.001896171, -0.09574927, -0.3866078, -9.799552, 0, 0, 44.80676, 1, 1, 2022, 2022
IMU, 160213394, 1, -0.001099215, -0.0002225744, -0.0004667697, -0.03122438, -0.6047618, -9.809259, 0, 0, 45, 1, 1, 1999, 2045
FILE, @SYS/memory.txt, 64, 64, 4\nSTART=0x30000000 LEN=256k FREE=262136 LRG=262136 TYPE=8\nSTART=
FILE, @SYS/memory.txt, 128, 64, 0x20000000 LEN=128k FREE=112544 LRG=112544 TYPE=2\nSTART=0x000004
POWR, 160233496, 4.946173, 5.043077, 1, 1, 6
MCU, 160233496, 36.14314, 3.348676, 3.339834, 3.354597
BAT, 160233540, 0, 15.50254, 15.66385, 1.472204, 68.25127, 1.063095, 0, 0.1095722, 97, 1, 0
MAG, 160233552, 0, -161, -144, 335, -382, 367, 647, 0, 0, 0, 1, 160233551
MAG, 160233552, 1, 149, -344, 168, 59, 22, -40, 0, 0, 0, 1, 160233549
SURF, 160233571, 0, 2, 0, 0, 0.3279589
SURF, 160233579, 1, 2, 0, 0, 0.3279589
BARO, 160233628, 0, 0.2418823, 641.3619, 93710.82, 35.97, 0.1369476, 160233, 0, 31.91488, 1
CTUN, 160233641, 0, 0, 0, 0.4193364, 0, 0.3094907, 0.24, NaN, 0, -0.01836883, 0, 0
ATT, 160233700, 0.0002616376, 2.418884, 0.00021782, 0.01627271, 132.9327, 132.881, 3
ANG, 160232929, 0.0002616376, 2.418346, 0.00021782, 0.01518282, 132.9327, 132.9327, 0.002508
RATE, 160232943, -10.88371, 0.08197206, -0.0260015, -0.04046464, -0.03235557, 7.663218E-05, 0.6780719, 0.04018153, 0.002156158, 0, 0.5720139, 0, 0
PIDR, 160233741, -0.1899275, 0.001430682, -0.1913581, -0.02583335, 0, -0.0001681512, 0, 0, 1, 0.1682888, 9
PIDP, 160233746, -0.0007116214, -0.0005647112, -0.0001469103, -1.983289E-05, 0, 9.646507E-05, 0, 0, 1, 0.0380225, 9
PIDY, 160233771, 0.01179276, 0.0007013, 0.01197865, 0.002156158, 0, 0, 0, 0, 1, 0.04617942, 9
PIDA, 160233786, 0, 0, 0, 0, 0, 0, 0, 0, 0, 0, 0
XKF4, 160233069, 0, 0.02, 0.01, 0, 0.04, 0, 0.00652175, -0.2768707, 0.541474, 0, 48, 109375, 0, 0
XKY0, 160233069, 0, 300.8945, 14.36761, 215.9416, 287.9321, 359.9189, 71.92014, 143.9342, 0.2000095, 0.2001055, 0.2000557, 0.1999289, 0.1999004
XKY1, 160233069, 0, -0.03340346, -0.02720462, -0.02228334, -0.02544217, -0.03231421, 0.03091164, 0.0277515, 0.03267121, 0.0388714, 0.03778315
XKF1, 160233069, 0, 2.41, 0.01, 132.88, -0.01455009, -0.001426805, -0.005073935, 0.02227513, -0.2706101, 2.101516, -0.3094907, -0.38, -0.78, -0.02, 641.12
XKF2, 160233069, 0, 0, 0, 0, 0, 0, 213, -2, 329, 0, 0, 0, 0, 0, 0
XKF3, 160233069, 0, -0.03, 0.04, -0.03, 0.09, -0.18, -0.15, 0, 0, 0, -4.11, 0, 0, 0.0004157692
XKF5, 160233069, 0, 0, 0, 0, 0, 0.36, 0.06, 0, 0, 0.5, 0.0005026615, 0.002910886, 0.001790875
XKFS, 160233069, 0, 0, 0, 0, 0, 0, 1, 0, 1
XKQ, 160233069, 0, 0.3994257, 0.01719004, 0.01306957, 0.9165112
XKF4, 160233069, 1, 0.01, 0.02, 0, 0.04, 0, 0.0065762, -0.446513, 0.7383402, 0, 48, 109375, 0, 0
XKY0, 160233069, 1, 227.1167, 14.33834, 215.9395, 287.9124, 359.9159, 71.94516, 143.9597, 0.2002199, 0.2001093, 0.1998477, 0.1997966, 0.2000266
XKY1, 160233069, 1, -0.03068053, -0.03249108, -0.02825739, -0.02382708, -0.02532866, 0.03736055, 0.03232224, 0.02904024, 0.03205593, 0.03719893
XKF1, 160233069, 1, 3.61, 0.54, 131.34, 0.002655973, -0.0133905, -0.002541841, 0.02457706, -0.2594402, 2.091978, -0.3117874, -0.07, -0.02, 0, 641.12
XKF2, 160233069, 1, 0, 0, -0.01, 0, 0, 216, -2, 327, 0, 0, 0, 0, 0, 0
XKF3, 160233069, 1, -0.01, 0.02, -0.03, 0.1, -0.19, -0.15, 0, 0, 0, -3.87, 0, 0.02776643, 0.000338092
XKFS, 160233069, 1, 0, 0, 0, 0, 0, 1, 0, 1
XKQ, 160233069, 1, 0.4115887, 0.01747048, 0.02427875, 0.9108788
AHR2, 160233890, 2.36, -0.1, 133.76, 641.59, 15.3695901, 75.1243824, 0.392502, 0.008937208, 0.01865016, 0.9195186
POS, 160233896, 15.3695909, 75.1243807, 641.42, -0.01050925, 0.3094907
MOTB, 160233903, 1, 1, 1, 0.04193364, 0, 2
RCIN, 160233909, 1495, 1495, 982, 2006, 982, 982, 1495, 1495, 1495, 1495, 1495, 1495, 1495, 1495
RCI2, 160233914, 1495, 1495, 0, 1
RCOU, 160233920, 1000, 1000, 1000, 1000, 0, 0, 0, 0, 1495, 0, 0, 0, 0, 0
RCO2, 160233924, 0, 0, 0, 0
VIBE, 160233928, 0, 0.08360535, 0.04832029, 0.01797738, 0
VIBE, 160233928, 1, 0.1031042, 0.07897038, 0.06729412, 0
CTRL, 160233936, 0.02565151, 0.0004880823, 0.0001478451, 0.0001458413, 0.002219364
DCM, 160235512, 2.368696, -0.1018361, 133.7708, 0.02359391, 0.05330924, 0, 0, 0
EAHR, 160235566, 0, 0, 0, 0, 0, 0, 0, 0, 0, 0
FILE, @SYS/memory.txt, 192, 64, 00 LEN= 63k FREE= 64504 LRG= 64504 TYPE=2\nSTART=0x30040000 LEN= 
IMU, 160253369, 0, -0.007619109, -0.0133588, 0.003785307, -0.3064852, -0.3155593, -9.812235, 0, 0, 44.80676, 1, 1, 2022, 2022
IMU, 160253369, 1, -0.002698633, -0.002912991, 0.00487538, -0.2188503, -0.5074595, -9.808337, 0, 0, 45, 1, 1, 1999, 2045
FILE, @SYS/memory.txt, 256, 64, 32k FREE= 32760 LRG= 32760 TYPE=8\nSTART=0x38000000 LEN= 64k FREE
FILE, @SYS/memory.txt, 320, 26, = 56808 LRG= 56152 TYPE=1\n
GPS, 160273925, 0, 3, 182514800, 2380, 14, 0.79, 15.36959, 75.1243826, 642.14, 0.105, 108.2776, -0.078, 0, 1
GPA, 160273925, 0, 1.12, 1.41, 1.43, 0.36, 0, 1, 160265, 200, 564.13, 0, 0
SURF, 160284010, 0, 2, 0, 0, 0.3270572
SURF, 160284019, 1, 2, 0, 0, 0.3270572
STAK, 160286470, 4, 183, 1456, 1096, monitor
IMU, 160293407, 0, -0.005679626, -0.01304372, 0.0003348571, -0.1067697, -0.4327572, -9.808632, 0, 0, 44.80676, 1, 1, 2022, 2022
IMU, 160293407, 1, -0.00200166, 0.001828868, -0.0007462815, -0.04482158, -0.6434109, -9.794343, 0, 0, 45, 1, 1, 1999, 2045
FILE, @SYS/threads.txt, 0, 64, ThreadsV2\nISR           PRI=255 sp=0x24000000 STACK=1284/1536\nAr
FILE, @SYS/threads.txt, 64, 64, duCopter    PRI=182 sp=0x24000600 STACK=4016/7168\nidle          
FILE, @SYS/threads.txt, 128, 64, PRI=  1 sp=0x240214B0 STACK=288/496\nUART_RX       PRI= 60 sp=0x2
FILE, @SYS/threads.txt, 192, 64, 407B0E8 STACK=880/1200\nOTG1          PRI= 60 sp=0x2407A1A0 STACK
POWR, 160333588, 4.939124, 5.043077, 1, 1, 6
MCU, 160333588, 36.16302, 3.348817, 3.341795, 3.356858
BAT, 160333626, 0, 15.49677, 15.65798, 1.471288, 68.29218, 1.063729, 0, 0.1095722, 97, 1, 0
MAG, 160333637, 0, -164, -141, 330, -382, 367, 647, 0, 0, 0, 1, 160333636
MAG, 160333637, 1, 149, -344, 166, 59, 22, -40, 0, 0, 0, 1, 160333635
SURF, 160333656, 0, 2, 0, 0, 0.3261797
SURF, 160333664, 1, 2, 0, 0, 0.3261797
BARO, 160333684, 0, 0.1595459, 641.2795, 93711.73, 35.98, -0.03400803, 160333, 0, 31.91488, 1
CTUN, 160333697, 0, 0, 0, 0.4193364, 0, 0.3099884, 0.15, NaN, 0, -0.008246759, 0, 0
ATT, 160333758, 0.0002616376, 2.41901, 0.00021782, 0.01549439, 132.95, 132.8983, 3
ANG, 160332921, 0.0002616376, 2.418472, 0.00021782, 0.01440438, 132.95, 132.95, 0.002497
RATE, 160332933, -10.88408, 0.01339392, -0.02523805, -0.03708364, -0.02152758, -9.699121E-06, 0.6750029, -0.2033714, 0.002179158, 0, -0.06113052, 0, 0
PIDR, 160333788, -0.1899763, 0.000233768, -0.19021, -0.02567836, 0, 0.0004403029, 0, 0, 1, 0.1710974, 9
PIDP, 160333804, -0.0006999657, -0.0003757272, -0.0003242385, -4.37722E-05, 0, 3.407308E-05, 0, 0, 1, 0.03588322, 9
PIDY, 160333808, 0.01179889, -0.003549501, 0.01210643, 0.002179158, 0, 0, 0, 0, 1, 0.04691472, 9
PIDA, 160333812, 0, 0, 0, 0, 0, 0, 0, 0, 0, 0, 0
XKF4, 160333025, 0, 0.04, 0.02, 0, 0.03, 0, 0.006547247, -0.2768707, 0.541474, 0, 48, 109375, 0, 0
XKY0, 160333025, 0, 87.58999, 14.40964, 215.901, 287.9374, 359.9583, 71.93487, 143.8995, 0.199824, 0.199734, 0.2000115, 0.2002732, 0.2001572
XKY1, 160333025, 0, 0.0383292, 0.04472097, 0.04698822, 0.04199758, 0.03664457, -0.1078483, -0.1081543, -0.1021706, -0.09816409, -0.1016736
XKF1, 160333025, 0, 2.41, 0.01, 132.89, -0.01594196, 0.002794878, -0.005900453, 0.003888871, -0.2745837, 2.109378, -0.3099884, -0.38, -0.78, -0.02, 641.12
XKF2, 160333025, 0, 0, 0, 0, 0, 0, 213, -2, 329, 0, 0, 0, 0, 0, 0
XKF3, 160333025, 0, 0.03, -0.09, 0.07, 0.09, -0.18, -0.06, 0, 0, 0, -3.33, 0, 0, 0.001126472
XKF5, 160333025, 0, 0, 0, 0, 0, 0.37, 0.06, 0, 0, 0.5, 0.0004950162, 0.02032569, 0.02159354
XKFS, 160333025, 0, 0, 0, 0, 0, 0, 1, 0, 1
XKQ, 160333025, 0, 0.399287, 0.01719472, 0.01307046, 0.9165716
XKF4, 160333025, 1, 0.04, 0.02, 0, 0.03, 0, 0.006603486, -0.446513, 0.7383402, 0, 48, 109375, 0, 0
XKY0, 160333025, 1, 237.8745, 14.54759, 215.9459, 287.8888, 359.8848, 71.93937, 143.9772, 0.2004108, 0.2002843, 0.199765, 0.1995706, 0.1999694
XKY1, 160333025, 1, 0.04234406, 0.0388871, 0.03937533, 0.043137, 0.04497077, -0.1004019, -0.1020391, -0.1058343, -0.1065419, -0.1031829
XKF1, 160333025, 1, 3.61, 0.54, 131.35, -0.0007190809, -0.00912667, -0.00309653, 0.0067053, -0.2632952, 2.099124, -0.3116469, -0.07, -0.02, 0, 641.12
XKF2, 160333025, 1, -0.02, 0, -0.01, 0, 0, 216, -2, 327, 0, 0, 0, 0, 0, 0
XKF3, 160333025, 1, 0.05, -0.1, 0.07, 0.09, -0.18, -0.06, 0, 0, 0, -3.12, 0, 0.03286993, 0.001381647
XKFS, 160333025, 1, 0, 0, 0, 0, 0, 1, 0, 1
XKQ, 160333025, 1, 0.4114956, 0.01744544, 0.02428142, 0.9109212
AHR2, 160333925, 2.37, -0.13, 133.8, 641.68, 15.36959, 75.1243827, 0.3922358, 0.009195019, 0.01862916, 0.9196301
POS, 160333930, 15.3695909, 75.1243808, 641.43, -0.01001161, 0.3099884
MOTB, 160333935, 1, 1, 1, 0.04193364, 0, 2
RCIN, 160333941, 1495, 1495, 982, 2006, 982, 982, 1495, 1495, 1495, 1495, 1495, 1495, 1495, 1495
RCI2, 160333945, 1495, 1495, 0, 1
RCOU, 160333951, 1000, 1000, 1000, 1000, 0, 0, 0, 0, 1495, 0, 0, 0, 0, 0
RCO2, 160333955, 0, 0, 0, 0
VIBE, 160333959, 0, 0.07370484, 0.04808666, 0.02095827, 0
VIBE, 160333959, 1, 0.09987551, 0.07882494, 0.074406, 0
CTRL, 160333967, 0.02566073, 0.0004558822, 0.0001414934, 0.0001387492, 0.002133031
IMU, 160333978, 0, -0.006551669, -0.01409633, -0.00396827, -0.2555807, -0.3090295, -9.805604, 0, 0, 44.80676, 1, 1, 2022, 2022
IMU, 160333978, 1, -0.0006779727, 0.001041306, -0.004151971, -0.1782529, -0.5014136, -9.805112, 0, 0, 45, 1, 1, 1999, 2045
DCM, 160335513, 2.37708, -0.133328, 133.8022, 0.03002077, 0.055675, 0, 0, 0
EAHR, 160335565, 0, 0, 0, 0, 0, 0, 0, 0, 0, 0
FILE, @SYS/threads.txt, 256, 64, =480/752\nmonitor       PRI=183 sp=0x2401CE20 STACK=1096/1456\ntim
FILE, @SYS/threads.txt, 320, 64, er         PRI=181 sp=0x2401E3E0 STACK=1528/1968\nrcout         P
FILE, @SYS/threads.txt, 384, 64, RI=181 sp=0x2401DA00 STACK=680/944\nrcin          PRI=177 sp=0x24
IMU, 160373767, 0, -0.007440211, -0.01483251, 0.006056688, -0.1698531, -0.3699215, -9.798386, 0, 0, 45.28986, 1, 1, 2022, 2022
IMU, 160373767, 1, -0.003370135, -0.000192818, 0.008148945, -0.1118896, -0.5949965, -9.797665, 0, 0, 45, 1, 1, 1999, 2045
FILE, @SYS/threads.txt, 448, 64, 01D410 STACK=824/1456\nio            PRI= 58 sp=0x2401C430 STACK=
SURF, 160383656, 0, 2, 0, 0, 0.3253891
SURF, 160383666, 1, 2, 0, 0, 0.3253891
STAK, 160387182, 5, 181, 1968, 1528, timer
FILE, @SYS/threads.txt, 512, 64, 1576/2480\nstorage       PRI= 59 sp=0x2401DDF0 STACK=904/1456\nUAR
FILE, @SYS/threads.txt, 576, 64, T7         PRI= 60 sp=0x24078FF8 STACK=240/752\nUART5         PRI
IMU, 160413399, 0, -0.00639976, -0.01464081, 0.003222858, -0.2111017, -0.3768878, -9.816817, 0, 0, 44.80676, 1, 1, 2022, 2022
IMU, 160413399, 1, -0.001805681, -0.001772557, 0.006301143, -0.1398284, -0.5910183, -9.801853, 0, 0, 45, 1, 1, 1999, 2045
FILE, @SYS/threads.txt, 640, 64, = 60 sp=0x240784B0 STACK=344/752\nUART1         PRI= 60 sp=0x2407
FILE, @SYS/threads.txt, 704, 64, 78E8 STACK=376/752\nUART8         PRI= 60 sp=0x24076D20 STACK=408
POWR, 160433511, 4.946274, 5.045494, 1, 1, 6
MCU, 160433511, 36.14314, 3.348817, 3.339554, 3.355303
BAT, 160433524, 0, 15.49695, 15.65785, 1.468359, 68.33292, 1.064361, 0, 0.1095722, 97, 1, 0
MAG, 160433535, 0, -161, -143, 340, -382, 367, 647, 0, 0, 0, 1, 160433534
MAG, 160433535, 1, 150, -344, 170, 59, 22, -40, 0, 0, 0, 1, 160433533
SURF, 160433624, 0, 2, 0, 0, 0.3246725
SURF, 160433633, 1, 2, 0, 0, 0.3246725
BARO, 160433653, 0, 0.1330566, 641.2531, 93712.05, 35.98, -0.2462959, 160433, 0, 31.91488, 1
CTUN, 160433665, 0, 0, 0, 0.4193364, 0, 0.3113094, 0.13, NaN, 0, -0.007392267, 0, 0
ATT, 160433722, 0.0002616377, 2.418621, 0.0002178201, 0.006899665, 132.9827, 132.9311, 3
ANG, 160432921, 0.0002616377, 2.418076, 0.0002178201, 0.005810034, 132.9827, 132.9827, 0.0025
RATE, 160432936, -10.88232, 0.0550165, -0.02587673, 0.00163268, -0.06745014, 0.0002886417, 0.6749521, -0.1863824, 0.001668761, 0, 0.7210732, 0, 0
PIDR, 160433738, -0.1898646, 0.0009602192, -0.1908248, -0.02576135, 0, -0.0001153769, 0, 0, 1, 0.1585216, 9
PIDP, 160433742, -5.975299E-05, -0.001177227, 0.001117474, 0.000150859, 0, 0.0001377827, 0, 0, 1, 0.03394759, 9
PIDY, 160433746, 0.01177898, -0.003252986, 0.009270893, 0.001668761, 0, 0, 0, 0, 1, 0.0433312, 9
PIDA, 160433754, 0, 0, 0, 0, 0, 0, 0, 0, 0, 0, 0
XKF4, 160433031, 0, 0.04, 0.02, 0, 0.05, 0, 0.006625367, -0.2768707, 0.541474, 0, 48, 109375, 0, 0
XKY0, 160433031, 0, 87.59236, 14.40967, 215.9034, 287.9397, 359.9606, 71.93723, 143.9019, 0.199824, 0.199734, 0.2000115, 0.2002732, 0.2001572
XKY1, 160433031, 0, 0.0383292, 0.04472097, 0.04698822, 0.04199758, 0.03664457, -0.1078483, -0.1081543, -0.1021706, -0.09816409, -0.1016736
XKF1, 160433031, 0, 2.41, 0, 132.93, -0.01847482, 0.011774, -0.007180635, -0.01950609, -0.2794568, 2.118953, -0.3113094, -0.38, -0.78, -0.02, 641.12
XKF2, 160433031, 0, 0, 0, 0, 0, 0, 213, -2, 329, 0, 0, 0, 0, 0, 0
XKF3, 160433031, 0, 0.03, -0.09, 0.07, 0.09, -0.18, -0.15, 0, 0, 0, -4.39, 0, 0, 0.001126472
XKF5, 160433031, 0, 0, 0, 0, 0, 0.37, 0.06, 0, 0, 0.5, 0.0005381829, 0.01433565, 0.01412024
XKFS, 160433031, 0, 0, 0, 0, 0, 0, 1, 0, 1
XKQ, 160433031, 0, 0.3990236, 0.01725838, 0.01304231, 0.9166855
XKF4, 160433031, 1, 0.04, 0.02, 0, 0.04, 0, 0.006680429, -0.446513, 0.7383402, 0, 48, 109375, 0, 0
XKY0, 160433031, 1, 237.8755, 14.54761, 215.9469, 287.8898, 359.8857, 71.94035, 143.9782, 0.2004108, 0.2002843, 0.199765, 0.1995706, 0.1999694
XKY1, 160433031, 1, 0.04234406, 0.0388871, 0.03937533, 0.043137, 0.04497077, -0.1004019, -0.1020391, -0.1058343, -0.1065419, -0.1031829
XKF1, 160433031, 1, 3.61, 0.53, 131.39, -0.004524171, 0.00176584, -0.004037639, -0.01768146, -0.268723, 2.109344, -0.3128814, -0.07, -0.02, 0, 641.12
XKF2, 160433031, 1, -0.02, 0, -0.01, 0, 0, 216, -2, 327, 0, 0, 0, 0, 0, 0
XKF3, 160433031, 1, 0.05, -0.1, 0.07, 0.09, -0.18, -0.16, 0, 0, 0, -4.2, 0, 0.04307692, 0.001381647
XKFS, 160433031, 1, 0, 0, 0, 0, 0, 1, 0, 1
XKQ, 160433031, 1, 0.4112002, 0.01748895, 0.02421694, 0.9110555
AHR2, 160433846, 2.37, -0.2, 133.86, 641.59, 15.3695899, 75.1243828, 0.3917567, 0.009751267, 0.01838469, 0.9198335
POS, 160433852, 15.3695908, 75.1243809, 641.43, -0.008690566, 0.3113094
MOTB, 160433857, 1, 1, 1, 0.04193364, 0, 2
RCIN, 160433863, 1495, 1495, 982, 2006, 982, 982, 1495, 1495, 1495, 1495, 1495, 1495, 1495, 1495
RCI2, 160433867, 1495, 1495, 0, 1
RCOU, 160433873, 1000, 1000, 1000, 1000, 0, 0, 0, 0, 1495, 0, 0, 0, 0, 0
RCO2, 160433876, 0, 0, 0, 0
VIBE, 160433894, 0, 0.04622377, 0.03763923, 0.02777065, 0
VIBE, 160433894, 1, 0.08050837, 0.07332428, 0.07244823, 0
CTRL, 160433917, 0.02565286, 0.0003911904, 0.0001233908, 0.000125684, 0.002038691
DCM, 160435537, 2.376355, -0.2039471, 133.8599, 0.03002077, 0.05407703, 0, 0, 0
EAHR, 160435576, 0, 0, 0, 0, 0, 0, 0, 0, 0, 0
FILE, @SYS/threads.txt, 768, 64, /752\nOTG2          PRI= 60 sp=0x24075DD8 STACK=480/752\nUART6    
FILE, @SYS/threads.txt, 832, 64,      PRI=181 sp=0x24074F58 STACK=336/752\nIOMCU         PRI=183 s
IMU, 160453405, 0, -0.004638494, -0.0140188, -0.006950599, -0.2150596, -0.3683733, -9.816664, 0, 0, 44.80676, 1, 1, 2022, 2022
IMU, 160453405, 1, 0.0005912003, -0.0004990064, -0.00780717, -0.1461876, -0.5639118, -9.823906, 0, 0, 45, 1, 1, 1999, 2045
FILE, @SYS/threads.txt, 896, 64, p=0x2406AB30 STACK=912/1456\nlog_io        PRI= 59 sp=0x2406B2C0 
FILE, @SYS/threads.txt, 960, 64, STACK=712/2016\nI2C1          PRI=176 sp=0x2406BBD0 STACK=984/145
FILE, @SYS/threads.txt, 1024, 64, 6\nI2C0          PRI=176 sp=0x2406C4A0 STACK=984/1456\nSPI1       
SURF, 160483654, 0, 2, 0, 0, 0.32402
SURF, 160483663, 1, 2, 0, 0, 0.32402
STAK, 160488394, 6, 181, 944, 680, rcout
FILE, @SYS/threads.txt, 1088, 40,    PRI=181 sp=0x24070FC0 STACK=840/1456\n
GPS, 160493383, 0, 3, 182515000, 2380, 14, 0.79, 15.3695898, 75.1243827, 642.14, 0.026, 108.2776, -0.019, 0, 1
GPA, 160493383, 0, 1.12, 1.41, 1.43, 0.35, 0, 1, 160465, 200, 564.13, 0, 0
IMU, 160493467, 0, -0.008581422, -0.01457507, 0.006381652, -0.1869484, -0.3352325, -9.81516, 0, 0, 44.80676, 1, 1, 2022, 2022
IMU, 160493467, 1, -0.002470774, -0.0005437176, 0.005955933, -0.09632458, -0.5678405, -9.802679, 0, 0, 45, 1, 1, 1999, 2045
FILE, @SYS/timers.txt, 0, 64, TIMERV1\nTIM5  CLK= 200Mhz MODE=  PWM FREQ=       7 TGT=       8\n
FILE, @SYS/timers.txt, 64, 64, TIM4  CLK= 200Mhz MODE=  PWM FREQ=       7 TGT=       8\nTIM1  CL
POWR, 160533514, 4.949698, 5.043077, 1, 1, 6
MCU, 160533514, 36.1829, 3.348817, 3.340674, 3.354597
BAT, 160533553, 0, 15.49723, 15.6573, 1.460853, 68.37352, 1.06499, 0, 0.1095722, 97, 1, 0
MAG, 160533564, 0, -162, -142, 338, -382, 367, 647, 0, 0, 0, 1, 160533563
MAG, 160533564, 1, 149, -343, 167, 59, 22, -40, 0, 0, 0, 1, 160533562
SURF, 160533603, 0, 2, 0, 0, 0.3234209
SURF, 160533612, 1, 2, 0, 0, 0.3234209
BARO, 160533634, 0, 0.3094482, 641.4294, 93710.03, 35.98, -0.2508926, 160533, 0, 31.91488, 1
CTUN, 160533647, 0, 0, 0, 0.4193364, 0, 0.3123122, 0.3, NaN, 0, -0.007209161, 0, 0
DU32, 160533663, 7, 6349264
TERR, 160533715, 2, 15.3695908, 75.124381, 100, 641.4372, -0.007209161, 0, 336, -5.698503
ATT, 160533804, 0.0002616376, 2.419667, 0.0002178201, 0.001976059, 133.0146, 132.9629, 3
ANG, 160532921, 0.0002616376, 2.419117, 0.0002178201, 0.0008855004, 133.0146, 133.0146, 0.002494
RATE, 160532935, -10.88702, 0.05882884, -0.02593399, 0.02374214, -0.01902218, 0.0001783996, 0.6729727, 0.3045048, 0.001375163, 0, 0.9589195, 0, 0
PIDR, 160533820, -0.1899754, 0.001026757, -0.1910022, -0.0257853, 0, -0.0001486958, 0, 0, 1, 0.1434183, 9
PIDP, 160533824, 0.0003501157, -0.0003319997, 0.0006821154, 9.208559E-05, 0, 8.631396E-05, 0, 0, 1, 0.03103412, 9
PIDY, 160533828, 0.01177908, 0.005314612, 0.007639796, 0.001375163, 0, 0, 0, 0, 1, 0.03920278, 9
PIDA, 160533832, 0, 0, 0, 0, 0, 0, 0, 0, 0, 0, 0
XKF4, 160533083, 0, 0, 0.02, 0, 0.03, 0, 0.006669442, -0.2768707, 0.541474, 0, 48, 109375, 0, 0
XKY0, 160533083, 0, 106.1482, 14.96021, 215.9223, 287.9468, 359.9701, 71.96012, 143.9306, 0.1999246, 0.1997778, 0.1999379, 0.2001839, 0.2001757
XKY1, 160533083, 0, 0.006052291, 0.01543577, 0.01938231, 0.01244294, 0.004208372, 0.0104123, 0.009306267, 0.01788908, 0.02429144, 0.01967504
XKF1, 160533083, 0, 2.41, 0, 132.96, -0.02158124, 0.01580428, -0.008214321, -0.01812272, -0.2848566, 2.127781, -0.3123122, -0.38, -0.78, -0.02, 641.12
XKF2, 160533083, 0, 0, 0, 0, 0, 0, 213, -2, 329, 0, 0, 0, 0, 0, 0
XKF3, 160533083, 0, 0, 0.02, 0.01, 0.1, -0.18, -0.18, 0, 0, 0, -3.35, 0, 0, 0.0002437635
XKF5, 160533083, 0, 0, 0, 0, 0, 0.37, 0.06, 0, 0, 0.5, 0.0005022333, 0.007269664, 0.01456032
XKFS, 160533083, 0, 0, 0, 0, 0, 0, 1, 0, 1
XKQ, 160533083, 0, 0.3987679, 0.01729778, 0.01303832, 0.916796
XKF4, 160533083, 1, 0, 0.02, 0, 0.03, 0, 0.006724598, -0.446513, 0.7383402, 0, 48, 109375, 0, 0
XKY0, 160533083, 1, 241.5752, 14.65227, 215.9756, 287.9194, 359.9118, 71.96333, 144.0028, 0.2003875, 0.2002964, 0.1997957, 0.1995775, 0.1999429
XKY1, 160533083, 1, 0.01126032, 0.009123039, 0.01028445, 0.01314379, 0.01374519, 0.01874004, 0.01682372, 0.01419657, 0.01449078, 0.01730101
XKF1, 160533083, 1, 3.61, 0.53, 131.42, -0.009590752, 0.007743546, -0.004114034, -0.01569043, -0.2743964, 2.11859, -0.3136766, -0.07, -0.02, 0, 641.12
XKF2, 160533083, 1, -0.02, 0, -0.01, 0, 0, 216, -2, 327, 0, 0, 0, 0, 0, 0
XKF3, 160533083, 1, 0.01, 0.01, 0.01, 0.11, -0.19, -0.18, 0, 0, 0, -3.11, 0, 0.05065573, 0.000264879
XKFS, 160533083, 1, 0, 0, 0, 0, 0, 1, 0, 1
XKQ, 160533083, 1, 0.4110081, 0.01753447, 0.02422806, 0.911141
AHR2, 160533920, 2.38, -0.22, 133.9, 641.57, 15.3695898, 75.1243827, 0.3913804, 0.009981896, 0.01839454, 0.919991
POS, 160533926, 15.3695908, 75.124381, 641.43, -0.007687837, 0.3123122
MOTB, 160533933, 1, 1, 1, 0.04193364, 0, 2
RCIN, 160533939, 1495, 1495, 982, 2006, 982, 982, 1495, 1495, 1495, 1495, 1495, 1495, 1495, 1495
RCI2, 160533943, 1495, 1495, 0, 1
RCOU, 160533949, 1000, 1000, 1000, 1000, 0, 0, 0, 0, 1495, 0, 0, 0, 0, 0
RCO2, 160533953, 0, 0, 0, 0
VIBE, 160533957, 0, 0.04686838, 0.03947194, 0.02288712, 0
VIBE, 160533957, 1, 0.0780111, 0.06902601, 0.07641963, 0
CTRL, 160533965, 0.02566546, 0.0003674467, 0.0001135675, 0.0001190679, 0.002003236
IMU, 160533975, 0, -0.00576211, -0.01405775, 0.004886093, -0.1994713, -0.3851845, -9.814187, 0, 0, 44.80676, 1, 1, 2022, 2022
IMU, 160533975, 1, 0.0005965263, 0.001412277, 0.003941808, -0.1188392, -0.5921966, -9.806876, 0, 0, 45, 1, 1, 1999, 2045
UART, 160534157, 1, 45, 162
UART, 160534162, 2, 45, 0
UART, 160534166, 3, 9, 679
UART, 160534170, 100, 8339, 5070
DCM, 160535509, 2.388676, -0.2261368, 133.9067, 0.03412609, 0.05402279, 0, 0, 0
EAHR, 160535534, 0, 0, 0, 0, 0, 0, 0, 0, 0, 0
FILE, @SYS/timers.txt, 128, 48, K= 200Mhz MODE=  PWM FREQ=       7 TGT=       8\n
FMT, 254, 35, IOMC, QHHIIIII, TimeUS,RSErr,Mem,TS,NPkt,Nerr,Nerr2,NDel
IOMC, 160553621, 0, 12896, 160569, 76922, 0, 0, 0
FILE, @ROMFS/hwdef.dat, 0, 64, MCU STM32H7xx STM32H743xx\nOSCILLATOR_HZ 16000000\nSTM32_ST_USE_TI
IMU, 160573815, 0, -0.007870272, -0.01271969, -0.008893138, -0.2391378, -0.3810836, -9.819784, 0, 0, 44.80676, 1, 1, 2022, 2022
IMU, 160573815, 1, -0.004117044, -0.0009940151, -0.008137343, -0.1582859, -0.5799438, -9.809909, 0, 0, 45, 1, 1, 1999, 2045
FILE, @ROMFS/hwdef.dat, 64, 64, MER 2\nUSB_VENDOR 0x3162\nUSB_PRODUCT 0x0053\nUSB_STRING_MANUFACTUR
SURF, 160583660, 0, 2, 0, 0, 0.3228785
SURF, 160583670, 1, 2, 0, 0, 0.3228785
FILE, @ROMFS/hwdef.dat, 128, 64, ER "Holybro"\nAPJ_BOARD_ID 56\nFLASH_RESERVE_START_KB 128\nenv USE_
STAK, 160589440, 7, 177, 1456, 824, rcin
FILE, @ROMFS/hwdef.dat, 192, 64, ALT_RAM_MAP 1\nFLASH_SIZE_KB 2048\nenv OPTIMIZE -O2\nSERIAL_ORDER O
FILE, @ROMFS/hwdef.dat, 256, 64, TG1 UART7 UART5 USART1 UART8 USART2 USART3 OTG2\nPA11 OTG_FS_DM O
IMU, 160613380, 0, -0.006661353, -0.01388371, 0.004603779, -0.1440357, -0.3394742, -9.817637, 0, 0, 44.80676, 1, 1, 2022, 2022
IMU, 160613380, 1, -0.001144102, -0.001188046, 0.005029881, -0.07637066, -0.5411493, -9.806236, 0, 0, 45, 1, 1, 1999, 2045
FILE, @ROMFS/hwdef.dat, 320, 64, TG1\nPA12 OTG_FS_DP OTG1\nPA9 VBUS INPUT OPENDRAIN\nPA13 JTMS-SWDIO
FILE, @ROMFS/hwdef.dat, 384, 64,  SWD\nPA14 JTCK-SWCLK SWD\nPE8  UART7_TX UART7\nPE7  UART7_RX UART7
POWR, 160633526, 4.949698, 5.043077, 1, 1, 6
MCU, 160633526, 36.16302, 3.348676, 3.340114, 3.356151
BAT, 160633567, 0, 15.49988, 15.65979, 1.459388, 68.41405, 1.065618, 0, 0.1095722, 97, 1, 0
MAG, 160633626, 0, -166, -142, 327, -382, 367, 647, 0, 0, 0, 1, 160633607
MAG, 160633626, 1, 149, -344, 171, 59, 22, -40, 0, 0, 0, 1, 160633606
SURF, 160633650, 0, 2, 0, 0, 0.3223917
SURF, 160633658, 1, 2, 0, 0, 0.3223917
BARO, 160633678, 0, 0.1625366, 641.2825, 93711.7, 35.98, -0.04325867, 160633, 0, 31.91488, 1
CTUN, 160633690, 0, 0, 0, 0.4193364, 0, 0.3135269, 0.16, NaN, 0, -0.00659881, 0, 0
ATT, 160633765, 0.0002616376, 2.418743, 0.0002178201, 0.00190605, 133.024, 132.9724, 3
ANG, 160632921, 0.0002616376, 2.418193, 0.0002178201, 0.0008163268, 133.024, 133.024, 0.0025
RATE, 160632935, -10.88265, -0.06083478, -0.0253564, 0.02411085, -0.0237944, 0.0001419416, 0.6744815, 0.3641652, 0.001894341, 0, 1.604176, 0, 0
PIDR, 160633794, -0.1899709, -0.001061767, -0.1889092, -0.02550274, 0, 0.000146335, 0, 0, 1, 0.129754, 9
PIDP, 160633798, 0.0003781411, -0.0004152907, 0.0007934318, 0.0001071133, 0, 3.482831E-05, 0, 0, 1, 0.02993204, 9
PIDY, 160633802, 0.01177079, 0.006355883, 0.01052412, 0.001894341, 0, 0, 0, 0, 1, 0.0354677, 9
PIDA, 160633823, 0, 0, 0, 0, 0, 0, 0, 0, 0, 0, 0
XKF4, 160633025, 0, 0, 0.02, 0, 0.04, 0, 0.006746613, -0.2768707, 0.541474, 0, 48, 109375, 0, 0
XKY0, 160633025, 0, 106.1642, 14.96023, 215.9384, 287.9628, 359.9861, 71.97615, 143.9466, 0.1999246, 0.1997778, 0.1999379, 0.2001839, 0.2001757
XKY1, 160633025, 0, 0.006052291, 0.01543577, 0.01938231, 0.01244294, 0.004208372, 0.0104123, 0.009306267, 0.01788908, 0.02429144, 0.01967504
XKF1, 160633025, 0, 2.41, 0, 132.97, -0.0232394, 0.01762135, -0.009518375, -0.01617555, -0.2905236, 2.135502, -0.3135269, -0.38, -0.78, -0.02, 641.12
XKF2, 160633025, 0, 0, 0, 0, 0, 0, 213, -2, 329, 0, 0, 0, 0, 0, 0
XKF3, 160633025, 0, 0, 0.02, 0.01, 0.1, -0.18, 0, 0, 0, 0, -3.73, 0, 0, 0.0002437635
XKF5, 160633025, 0, 0, 0, 0, 0, 0.37, 0.06, 0, 0, 0.5, 0.0004911638, 0.004877403, 0.009384305
XKFS, 160633025, 0, 0, 0, 0, 0, 0, 1, 0, 1
XKQ, 160633025, 0, 0.3986922, 0.01729405, 0.01303212, 0.9168291
XKV1, 160633025, 0, 0.000206856, 5.616097E-06, 5.652253E-06, 4.045196E-05, 0.03726733, 0.03730057, 0.0124674, 0.1072796, 0.1072807, 0.1653533, 4.005905E-11, 4.0134E-11
XKV2, 160633025, 0, 1.085506E-10, 3.406841E-06, 3.407203E-06, 5.568987E-08, 0, 0, 0, 0, 0, 0, 0, 0
XKF4, 160633025, 1, 0, 0.02, 0, 0.04, 0, 0.006801296, -0.446513, 0.7383402, 0, 48, 109375, 0, 0
XKY0, 160633025, 1, 241.5779, 14.65229, 215.9783, 287.9221, 359.9145, 71.96604, 144.0055, 0.2003875, 0.2002964, 0.1997957, 0.1995775, 0.1999429
XKY1, 160633025, 1, 0.01126032, 0.009123039, 0.01028445, 0.01314379, 0.01374519, 0.01874004, 0.01682372, 0.01419657, 0.01449078, 0.01730101
XKF1, 160633025, 1, 3.61, 0.52, 131.43, -0.0136086, 0.01131457, -0.004624992, -0.01321189, -0.2809367, 2.127165, -0.3145738, -0.07, -0.02, 0, 641.12
XKF2, 160633025, 1, -0.02, 0, -0.01, 0, 0, 216, -2, 327, 0, 0, 0, 0, 0, 0
XKF3, 160633025, 1, 0.01, 0.01, 0.01, 0.11, -0.19, -0.01, 0, 0, 0, -3.5, 0, 0.05150033, 0.000264879
XKFS, 160633025, 1, 0, 0, 0, 0, 0, 1, 0, 1
XKQ, 160633025, 1, 0.4109131, 0.01757356, 0.02418647, 0.9111842
AHR2, 160633928, 2.41, -0.17, 133.93, 641.74, 15.3695898, 75.1243827, 0.3911609, 0.009676796, 0.01878444, 0.9200797
POS, 160633934, 15.3695907, 75.124381, 641.43, -0.006473124, 0.3135269
MOTB, 160633939, 1, 1, 1, 0.04193364, 0, 2
RCIN, 160633945, 1495, 1495, 982, 2006, 982, 982, 1495, 1495, 1495, 1495, 1495, 1495, 1495, 1495
RCI2, 160633949, 1495, 1495, 0, 1
RCOU, 160633955, 1000, 1000, 1000, 1000, 0, 0, 0, 0, 1495, 0, 0, 0, 0, 0
RCO2, 160633959, 0, 0, 0, 0
VIBE, 160633963, 0, 0.05530204, 0.03349257, 0.02170718, 0
VIBE, 160633963, 1, 0.08460867, 0.06485473, 0.0733351, 0
CTRL, 160633971, 0.02565657, 0.0003154737, 0.0001057544, 0.0001242349, 0.002020252
DCM, 160635516, 2.415625, -0.1772047, 133.9353, 0.03412609, 0.05648467, 0, 0, 0
EAHR, 160635535, 0, 0, 0, 0, 0, 0, 0, 0, 0, 0
FILE, @ROMFS/hwdef.dat, 448, 64, \nPE9  UART7_RTS UART7 LOW PULLDOWN\nPE10 UART7_CTS UART7\nPC12 UAR
IMU, 160653402, 0, -0.006642521, -0.01385555, -0.001816999, -0.2894348, -0.4182251, -9.805683, 0, 0, 44.80676, 1, 1, 2022, 2022
IMU, 160653402, 1, -0.002441745, -0.0004544837, -0.001222393, -0.2007216, -0.6180148, -9.786116, 0, 0, 45, 1, 1, 1999, 2045
FILE, @ROMFS/hwdef.dat, 512, 64, T5_TX UART5\nPD2 UART5_RX UART5\nPC8 UART5_RTS UART5 LOW PULLDOWN\n
FILE, @ROMFS/hwdef.dat, 576, 64, PC9 UART5_CTS UART5\nPB6  USART1_TX USART1\nPA10 USART1_RX USART1\n
GPS, 160673839, 0, 3, 182515200, 2380, 14, 0.79, 15.3695896, 75.1243827, 642.12, 0.027, 108.2776, -0.061, 0, 1
GPA, 160673839, 0, 1.12, 1.41, 1.43, 0.33, 0, 1, 160665, 200, 564.11, 0, 0
FILE, @ROMFS/hwdef.dat, 640, 64, PE1 UART8_TX UART8\nPE0 UART8_RX UART8\nPD5 USART2_TX USART2\nPA3 U
SURF, 160683979, 0, 2, 0, 0, 0.3219588
SURF, 160683989, 1, 2, 0, 0, 0.3219588
STAK, 160689524, 8, 58, 2480, 1576, io
FILE, @ROMFS/hwdef.dat, 704, 64, SART2_RX USART2\nPD8 USART3_TX USART3\nPD9 USART3_RX USART3\nPC6 US
IMU, 160693392, 0, -0.007176116, -0.01308997, -0.009879746, -0.1275455, -0.3037168, -9.812256, 0, 0, 44.80676, 1, 1, 2022, 2022
IMU, 160693392, 1, 5.697863E-05, -0.002671173, -0.009891385, -0.05016661, -0.5026317, -9.80188, 0, 0, 45, 1, 1, 1999, 2045
FILE, @ROMFS/hwdef.dat, 768, 64, ART6_TX USART6\nPC7 USART6_RX USART6\nIOMCU_UART USART6\nPC5 BATT_V
FILE, @ROMFS/hwdef.dat, 832, 64, OLTAGE_SENS ADC1 SCALE(1)\nPC4 BATT_CURRENT_SENS ADC1 SCALE(1)\nPB
RAD, 160721105, 66, 0, 100, 98, 0, 0, 0
FILE, @ROMFS/hwdef.dat, 896, 64, 1 BATT2_VOLTAGE_SENS ADC1 SCALE(1)\nPA2 BATT2_CURRENT_SENS ADC1 S
POWR, 160733501, 4.949698, 5.045494, 1, 1, 6
MCU, 160733501, 36.14314, 3.348817, 3.341374, 3.354173
BAT, 160733517, 0, 15.49595, 15.65678, 1.46781, 68.45482, 1.06625, 0, 0.1095722, 97, 1, 0
MAG, 160733529, 0, -166, -145, 332, -382, 367, 647, 0, 0, 0, 1, 160733528
MAG, 160733529, 1, 150, -344, 169, 59, 22, -40, 0, 0, 0, 1, 160733526
SURF, 160733604, 0, 2, 0, 0, 0.3215865
SURF, 160733624, 1, 2, 0, 0, 0.3215865
BARO, 160733648, 0, 0.3330078, 641.453, 93709.78, 35.98, 0.1910973, 160733, 0, 31.91488, 1
CTUN, 160733661, 0, 0, 0, 0.4193364, 0, 0.3158996, 0.33, NaN, 0, -0.006415704, 0, 1
ATT, 160733723, 0.0002616377, 2.420189, 0.0002178201, 0.004535779, 133.0266, 132.9749, 3
ANG, 160732922, 0.0002616377, 2.419641, 0.0002178201, 0.003444775, 133.0266, 133.0266, 0.002501
RATE, 160732936, -10.88923, -0.0333373, -0.02560312, 0.01230772, 0.0005562335, 0.0001043808, 0.6750039, 0.5248904, 0.00233159, 0, 0.9166718, 0, 0
PIDR, 160733740, -0.1900499, -0.0005818456, -0.1894681, -0.02557819, 0, -2.492787E-05, 0, 0, 1, 0.1173915, 9
PIDP, 160733744, 0.0001940996, 9.708107E-06, 0.0001843915, 2.489286E-05, 0, 7.94879E-05, 0, 0, 1, 0.03012863, 9
PIDY, 160733748, 0.01177531, 0.009161066, 0.01295328, 0.00233159, 0, 0, 0, 0, 1, 0.03208846, 9
PIDA, 160733752, 0, 0, 0, 0, 0, 0, 0, 0, 0, 0, 0
XKF4, 160733029, 0, 0.02, 0.01, 0, 0.05, 0, 0.006803517, -0.2768707, 0.541474, 0, 48, 109375, 0, 0
XKY0, 160733029, 0, 135.4796, 14.31031, 215.9495, 287.9531, 359.9612, 71.96255, 143.9553, 0.2000102, 0.1999455, 0.1999562, 0.2000274, 0.2000608
XKY1, 160733029, 0, -0.01172128, -0.003132124, 0.001634539, -0.004008012, -0.01225837, 0.03011189, 0.02788736, 0.03537061, 0.04221303, 0.03896468
XKF1, 160733029, 0, 2.42, 0, 132.97, -0.02480593, 0.01569126, -0.01080695, -0.02213604, -0.2961437, 2.141548, -0.3158996, -0.38, -0.78, -0.02, 641.12
