FMT, 128, 89, FMT, BBnNZ, Type,Length,Name,Format,Columns
FMT, 119, 76, UNIT, QbZ, TimeUS,Id,Label
FMT, 118, 44, FMTU, QBNN, TimeUS,FmtType,UnitIds,MultIds
FMT, 120, 20, MULT, Qbd, TimeUS,Id,Mult
FMT, 32, 35, PARM, QNff, TimeUS,Name,Value,Default
FMT, 94, 51, GPS, QBBIHBcLLeffffB, TimeUS,I,Status,GMS,GWk,NSats,HDop,Lat,Lng,Alt,Spd,GCrs,VZ,Yaw,U
FMT, 95, 39, GPA, QBCCCCfBIHeHH, TimeUS,I,VDop,HAcc,VAcc,SAcc,YAcc,VV,SMS,Delta,AEl,RTCMFU,RTCMFD
FMT, 99, 22, UBX1, QBHBBHI, TimeUS,Instance,noisePerMS,jamInd,aPower,agcCnt,config
FMT, 100, 16, UBX2, QBbBbB, TimeUS,Instance,ofsI,magI,ofsQ,magQ
FMT, 96, 42, GRAW, QIHBBddfBbB, TimeUS,WkMS,Week,numSV,sv,cpMes,prMes,doMes,mesQI,cno,lli
FMT, 97, 24, GRXH, QdHbBB, TimeUS,rcvTime,week,leapS,numMeas,recStat
FMT, 98, 41, GRXS, QddfBBBHBBBBB, TimeUS,prMes,cpMes,doMes,gnss,sv,freq,lock,cno,prD,cpD,doD,trk
FMT, 101, 23, SBPH, QIII, TimeUS,CrcError,LastInject,IARhyp
FMT, 102, 67, SBRH, QQQQQQQQ, TimeUS,msg_flag,1,2,3,4,5,6
FMT, 103, 123, SBRM, QQQQQQQQQQQQQQQ, TimeUS,msg_flag,1,2,3,4,5,6,7,8,9,10,11,12,13
FMT, 104, 23, SBRE, QHIiBB, TimeUS,GWk,GMS,ns_residual,level,quality
FMT, 59, 75, MSG, QZ, TimeUS,Message
FMT, 60, 39, RCIN, QHHHHHHHHHHHHHH, TimeUS,C1,C2,C3,C4,C5,C6,C7,C8,C9,C10,C11,C12,C13,C14
FMT, 61, 18, RCI2, QHHHB, TimeUS,C15,C16,OMask,Flags
FMT, 62, 39, RCOU, QHHHHHHHHHHHHHH, TimeUS,C1,C2,C3,C4,C5,C6,C7,C8,C9,C10,C11,C12,C13,C14
FMT, 207, 19, RCO2, QHHHH, TimeUS,C15,C16,C17,C18
FMT, 208, 39, RCO3, QHHHHHHHHHHHHHH, TimeUS,C19,C20,C21,C22,C23,C24,C25,C26,C27,C28,C29,C30,C31,C32
FMT, 63, 19, RSSI, Qff, TimeUS,RXRSSI,RXLQ
FMT, 64, 43, BARO, QBfffcfIffB, TimeUS,I,Alt,AltAMSL,Press,Temp,CRt,SMS,Offset,GndTemp,Health
FMT, 65, 24, BARD, QBfff, TimeUS,I,DynPrX,DynPrY,DynPrZ
FMT, 66, 25, CANF, QBIBBBBBBBBB, TimeUS,Bus,Id,DLC,B0,B1,B2,B3,B4,B5,B6,B7
FMT, 67, 81, CAFD, QBIBQQQQQQQQ, TimeUS,Bus,Id,DLC,D0,D1,D2,D3,D4,D5,D6,D7
FMT, 196, 50, PL, QBBfffffffIIB, TimeUS,Heal,TAcq,pX,pY,vX,vY,mX,mY,mZ,LastMeasMS,EKFOutl,Est
FMT, 68, 24, POWR, QffHHB, TimeUS,Vcc,VServo,Flags,AccFlags,Safety
FMT, 69, 27, MCU, Qffff, TimeUS,MTemp,MVolt,MVmin,MVmax
FMT, 93, 46, CMD, QHHHffffLLfB, TimeUS,CTot,CNum,CId,Prm1,Prm2,Prm3,Prm4,Lat,Lng,Alt,Frame
FMT, 92, 46, MISE, QHHHffffLLfB, TimeUS,CTot,CNum,CId,Prm1,Prm2,Prm3,Prm4,Lat,Lng,Alt,Frame
FMT, 78, 48, MAVC, QBBBBBHffffiifBB, TimeUS,TS,TC,SS,SC,Fr,Cmd,P1,P2,P3,P4,X,Y,Z,Res,WL
FMT, 79, 20, RAD, QBBBBBHH, TimeUS,RSSI,RemRSSI,TxBuf,Noise,RemNoise,RxErrors,Fixed
FMT, 81, 46, CAM, QBHIHLLeeeccC, TimeUS,I,Img,GPSTime,GPSWeek,Lat,Lng,Alt,RelAlt,GPSAlt,R,P,Y
FMT, 82, 46, TRIG, QBHIHLLeeeccC, TimeUS,I,Img,GPSTime,GPSWeek,Lat,Lng,Alt,RelAlt,GPSAlt,R,P,Y
FMT, 83, 48, MNT, QBfffffffff, TimeUS,I,DRoll,Roll,DPitch,Pitch,DYawB,YawB,DYawE,YawE,Dist
FMT, 114, 41, ARSP, QBffcffBBffB, TimeUS,I,Airspeed,DiffPress,Temp,RawPress,Offset,U,H,Hp,TR,Pri
FMT, 88, 41, BAT, QBfffffcfBBB, TimeUS,Inst,Volt,VoltR,Curr,CurrTot,EnrgTot,Temp,Res,RemPct,H,SH
FMT, 89, 40, BCL, QBfHHHHHHHHHHHH, TimeUS,Instance,Volt,V1,V2,V3,V4,V5,V6,V7,V8,V9,V10,V11,V12
FMT, 113, 35, MAG, QBhhhhhhhhhBI, TimeUS,I,MagX,MagY,MagZ,OfsX,OfsY,OfsZ,MOX,MOY,MOZ,Health,S
FMT, 122, 14, MODE, QMBB, TimeUS,Mode,ModeNum,Rsn
FMT, 116, 17, RFND, QBCBBb, TimeUS,Instance,Dist,Stat,Orient,Quality
FMT, 117, 36, DMS, QIIIIBBBBBBBBB, TimeUS,N,Dp,RT,RS,Fa,Fmn,Fmx,Pa,Pmn,Pmx,Sa,Smn,Smx
FMT, 174, 41, BCN, QBBfffffff, TimeUS,Health,Cnt,D0,D1,D2,D3,PosX,PosY,PosZ
FMT, 175, 57, PRX, QBBfffffffffff, TimeUS,Layer,He,D0,D45,D90,D135,D180,D225,D270,D315,DUp,CAn,CDis
FMT, 176, 44, PRXR, QBffffffff, TimeUS,Layer,D0,D45,D90,D135,D180,D225,D270,D315
FMT, 179, 61, PM, QHHHIIHHIIIIIIQ, TimeUS,LR,NLon,NL,MaxT,Mem,Load,ErrL,InE,ErC,SPIC,I2CC,I2CI,Ex,R
FMT, 178, 29, SRTL, QBHHBfff, TimeUS,Active,NumPts,MaxPts,Action,N,E,D
FMT, 170, 48, OABR, QBBHHHBfLLiLLi, TimeUS,Type,Act,DYaw,Yaw,DP,RChg,Mar,DLt,DLg,DAlt,OLt,OLg,OAlt
FMT, 171, 31, OADJ, QBBBBLLLL, TimeUS,State,Err,CurrPoint,TotPoints,DLat,DLng,OALat,OALng
FMT, 172, 37, SA, QBffffffB, TimeUS,State,DVelX,DVelY,DVelZ,MVelX,MVelY,MVelZ,Back
FMT, 173, 21, OAVG, QBBLL, TimeUS,version,point_num,Lat,Lon
FMT, 77, 45, SIM, QccCfLLffff, TimeUS,Roll,Pitch,Yaw,Alt,Lat,Lng,Q1,Q2,Q3,Q4
FMT, 84, 38, TERR, QBLLHffHHf, TimeUS,Status,Lat,Lng,Spacing,TerrH,CHeight,Pending,Loaded,ROfs
FMT, 86, 40, ESC, QBffffcfcf, TimeUS,Instance,RPM,RawRPM,Volt,Curr,Temp,CTot,MotTemp,Err
FMT, 87, 15, EDT2, QBBBB, TimeUS,Instance,Stress,MaxStress,Status
FMT, 85, 46, CSRV, QBfffBfffffB, TimeUS,Id,Pos,Force,Speed,Pow,PosCmd,V,A,MotT,PCBT,Err
FMT, 105, 52, PIDR, QffffffffffB, TimeUS,Tar,Act,Err,P,I,D,FF,DFF,Dmod,SRate,Flags
FMT, 106, 52, PIDP, QffffffffffB, TimeUS,Tar,Act,Err,P,I,D,FF,DFF,Dmod,SRate,Flags
FMT, 107, 52, PIDY, QffffffffffB, TimeUS,Tar,Act,Err,P,I,D,FF,DFF,Dmod,SRate,Flags
FMT, 108, 52, PIDA, QffffffffffB, TimeUS,Tar,Act,Err,P,I,D,FF,DFF,Dmod,SRate,Flags
FMT, 109, 52, PIDS, QffffffffffB, TimeUS,Tar,Act,Err,P,I,D,FF,DFF,Dmod,SRate,Flags
FMT, 110, 52, PIDN, QffffffffffB, TimeUS,Tar,Act,Err,P,I,D,FF,DFF,Dmod,SRate,Flags
FMT, 111, 52, PIDE, QffffffffffB, TimeUS,Tar,Act,Err,P,I,D,FF,DFF,Dmod,SRate,Flags
FMT, 112, 56, DSTL, QBfLLeccfeffff, TimeUS,Stg,THdg,Lat,Lng,Alt,XT,Travel,L1I,Loiter,Des,P,I,D
FMT, 161, 32, ACC, QBQfff, TimeUS,I,SampleUS,AccX,AccY,AccZ
FMT, 162, 32, GYR, QBQfff, TimeUS,I,SampleUS,GyrX,GyrY,GyrZ
FMT, 163, 54, IMU, QBffffffIIfBBHH, TimeUS,I,GyrX,GyrY,GyrZ,AccX,AccY,AccZ,EG,EA,T,GH,AH,GHz,AHz
FMT, 166, 28, VIBE, QBfffI, TimeUS,IMU,VibeX,VibeY,VibeZ,Clip
FMT, 164, 31, ISBH, QHBBHHQf, TimeUS,N,type,instance,mul,smp_cnt,SampleUS,smp_rate
FMT, 165, 207, ISBD, QHHaaa, TimeUS,N,seqno,x,y,z
FMT, 129, 15, RFRH, QI, TimeUS,TF
FMT, 130, 5, RFRF, BB, FTypes,Slow
FMT, 138, 38, RFRN, IIIfIfffBBB, HLat,HLon,HAlt,E2T,AM,TX,TY,TZ,VC,EKT,Flags
FMT, 131, 4, REV2, B, Event
FMT, 132, 15, RSO2, III, Lat,Lon,Alt
FMT, 133, 11, RWA2, ff, Airspeed,uncertainty
FMT, 134, 4, REV3, B, Event
FMT, 135, 15, RSO3, III, Lat,Lon,Alt
FMT, 136, 11, RWA3, ff, Airspeed,Uncertainty
FMT, 137, 16, REY3, ffIB, yawangle,yawangleerr,timestamp_ms,type
FMT, 139, 13, RISH, HBBfBB, LR,PG,PA,LD,AC,GC
FMT, 140, 37, RISI, ffffffffBB, DVX,DVY,DVZ,DAX,DAY,DAZ,DVDT,DADT,Flags,I
FMT, 148, 5, RASH, BB, Primary,NumInst
FMT, 149, 14, RASI, fIBBB, pd,UpdateMS,H,Use,I
FMT, 141, 5, RBRH, BB, Primary,NumInst
FMT, 142, 13, RBRI, IfBB, LastUpdate,Alt,H,I
FMT, 143, 8, RRNH, hhB, GCl,MaxD,NumSensors
FMT, 144, 20, RRNI, fffHBBB, PX,PY,PZ,Dist,Orient,Status,I
FMT, 145, 5, RGPH, BB, NumInst,Primary
FMT, 146, 23, RGPI, ffffBBBB, OX,OY,OZ,Lg,Flags,Stat,NSats,I
FMT, 147, 58, RGPJ, IffffffIiiiffHB, TS,VX,VY,VZ,SA,Y,YA,YT,Lat,Lon,Alt,HA,VA,HD,I
FMT, 153, 14, RMGH, fBBBBBBB, Dec,Avail,NumInst,AutoDec,NumEna,LOE,C,FUsable
FMT, 154, 35, RMGI, IffffffBBBB, LU,OX,OY,OZ,FX,FY,FZ,UFY,H,HSF,I
FMT, 150, 33, RBCH, ffffiiiBB, PX,PY,PZ,AE,OLat,OLng,OAlt,Flags,NumInst
FMT, 151, 25, RBCI, IffffBB, LU,PX,PY,PZ,Dist,H,I
FMT, 152, 21, RVOH, fffIBB, OX,OY,OZ,Del,H,Ena
FMT, 155, 40, ROFH, ffffIffffB, FX,FY,GX,GY,Tms,PX,PY,PZ,HgtOvr,Qual
FMT, 156, 49, REPH, fffffffffIIH, PX,PY,PZ,Q1,Q2,Q3,Q4,PEr,AEr,TS,RT,D
FMT, 157, 19, RSLL, IIfI, Lat,Lng,PosAccSD,TS
FMT, 158, 25, REVH, ffffIH, VX,VY,VZ,Er,TS,D
FMT, 159, 31, RWOH, ffIffff, DA,DT,TS,PX,PY,PZ,R
FMT, 160, 53, RBOH, ffffffffIfffH, Q,DPX,DPY,DPZ,DAX,DAY,DAZ,DT,TS,OX,OY,OZ,D
FMT, 43, 37, XKF0, QBBccCCcccccccc, TimeUS,C,ID,rng,innov,SIV,TR,BPN,BPE,BPD,OFH,OFL,OFN,OFE,OFD
FMT, 44, 56, XKF1, QBccCfffffffccce, TimeUS,C,Roll,Pitch,Yaw,VN,VE,VD,dPD,PN,PE,PD,GX,GY,GZ,OH
FMT, 45, 46, XKF2, QBccccchhhhhhfff, TimeUS,C,AX,AY,AZ,VWN,VWE,MN,ME,MD,MX,MY,MZ,IDX,IDY,IS
FMT, 46, 42, XKF3, QBcccccchhhccff, TimeUS,C,IVN,IVE,IVD,IPN,IPE,IPD,IMX,IMY,IMZ,IYAW,IVT,RErr,ErSc
FMT, 47, 44, XKF4, QBcccccfffHBIHb, TimeUS,C,SV,SP,SH,SM,SVT,errRP,OFN,OFE,FS,TS,SS,GPS,PI
FMT, 48, 41, XKF5, QBBhhhcccCCfff, TimeUS,C,NI,FIX,FIY,AFI,HAGL,offset,RI,rng,Herr,eAng,eVel,ePos
FMT, 49, 36, XKFD, QBffffff, TimeUS,C,IX,IY,IZ,IVX,IVY,IVZ
FMT, 50, 29, XKFM, QBBffff, TimeUS,C,OGNM,GLR,ALR,GDR,ADR
FMT, 51, 20, XKFS, QBBBBBBBBB, TimeUS,C,MI,BI,GI,AI,SS,GPS_GTA,GPS_CHK_WAIT,MAG_FUSION
FMT, 52, 28, XKQ, QBffff, TimeUS,C,Q1,Q2,Q3,Q4
FMT, 53, 48, XKT, QBIffffffff, TimeUS,C,Cnt,IMUMin,IMUMax,EKFMin,EKFMax,AngMin,AngMax,VMin,VMax
FMT, 54, 20, XKTV, QBff, TimeUS,C,TVS,TVD
FMT, 55, 60, XKV1, QBffffffffffff, TimeUS,C,V00,V01,V02,V03,V04,V05,V06,V07,V08,V09,V10,V11
FMT, 56, 60, XKV2, QBffffffffffff, TimeUS,C,V12,V13,V14,V15,V16,V17,V18,V19,V20,V21,V22,V23
FMT, 57, 60, XKY0, QBffffffffffff, TimeUS,C,YC,YCS,Y0,Y1,Y2,Y3,Y4,W0,W1,W2,W3,W4
FMT, 58, 52, XKY1, QBffffffffff, TimeUS,C,IVN0,IVN1,IVN2,IVN3,IVN4,IVE0,IVE1,IVE2,IVE3,IVE4
FMT, 41, 60, NKY0, QBffffffffffff, TimeUS,C,YC,YCS,Y0,Y1,Y2,Y3,Y4,W0,W1,W2,W3,W4
FMT, 42, 52, NKY1, QBffffffffff, TimeUS,C,IVN0,IVN1,IVN2,IVN3,IVN4,IVE0,IVE1,IVE2,IVE3,IVE4
FMT, 70, 45, AHR2, QccCfLLffff, TimeUS,Roll,Pitch,Yaw,Alt,Lat,Lng,Q1,Q2,Q3,Q4
FMT, 71, 19, AOA, Qff, TimeUS,AOA,SSA
FMT, 72, 36, ATT, QffffffB, TimeUS,DesRoll,Roll,DesPitch,Pitch,DesYaw,Yaw,AEKF
FMT, 73, 24, ORGN, QBLLe, TimeUS,Type,Lat,Lng,Alt
FMT, 74, 31, POS, QLLfff, TimeUS,Lat,Lng,Alt,RelHomeAlt,RelOriginAlt
FMT, 76, 35, ATSC, Qffffff, TimeUS,AngPScX,AngPScY,AngPScZ,PDScX,PDScY,PDScZ
FMT, 204, 51, VSTB, Qffffffffff, TimeUS,GyrX,GyrY,GyrZ,AccX,AccY,AccZ,Q1,Q2,Q3,Q4
FMT, 90, 38, MON, QIbIHHHHHII, TimeUS,Dly,Tsk,IErr,IErrCnt,IErrLn,MM,MC,SmLn,SPICnt,I2CCnt
FMT, 91, 47, WDOG, QbIHHHHHHHIBIIn, TimeUS,Tsk,IE,IEC,IEL,MvMsg,MvCmd,SmLn,FL,FT,FA,FP,ICSR,LR,TN
FMT, 210, 20, UART, QBff, TimeUS,I,Tx,Rx
FMT, 115, 21, RPM, QBffB, TimeUS,I,RPM,Qual,H
FMT, 209, 27, FNCE, QBBBLLBf, TimeUS,Tot,Seq,Type,Lat,Lng,Count,Radius
FMT, 177, 33, DSF, QIHIIII, TimeUS,Dp,Blk,Bytes,FMn,FMx,FAv
FMT, 121, 24, RALY, QBBLLhB, TimeUS,Tot,Seq,Lat,Lng,Alt,Flags
FMT, 183, 23, MAV, QBHHHBHH, TimeUS,chan,txp,rxp,rxdp,flags,ss,tf
POWR, 77889555, 4.926434, 0, 1, 1, 6
MCU, 77889555, 36.62028, 3.348676, 3.341935, 3.354879
BAT, 77889568, 0, 15.95055, 15.97812, 0.6675358, 16.26143, 0.2615485, 0, 0.04129842, 99, 1, 0
MAG, 77889580, 0, 2143, -1519, -214, -382, 367, 647, 0, 0, 0, 1, 77889579
MAG, 77889580, 1, -29, 458, 174, 59, 22, -40, 0, 0, 0, 1, 77889577
FMT, 249, 25, SURF, QBBfff, TimeUS,I,St,D,FD,TO
SURF, 77889598, 0, 2, 0, 0, 0.01270726
SURF, 77889625, 1, 2, 0, 0, 0.01270726
BARO, 77889672, 0, 0.08233643, 0.08233643, 93550.37, 36.41, -0.07395346, 77889, 0, 35, 1
FMT, 0, 55, CTUN, Qffffffefffhh, TimeUS,ThI,ABst,ThO,ThH,DAlt,Alt,BAlt,DSAlt,SAlt,TAlt,DCRt,CRt
CTUN, 77889686, 0, 0, 0, 0.431117, 0, 0.01372973, 0.08, NaN, 0, -57.44526, 0, 1
ATT, 77889781, 0.0002399535, -4.481302, 0.0002510326, 2.490012, 279.7225, 279.7225, 3
FMT, 195, 39, ANG, Qfffffff, TimeUS,DesRoll,Roll,DesPitch,Pitch,DesYaw,Yaw,Dt
ANG, 77888776, 0.0002399535, -4.481302, 0.0002510326, 2.490012, 279.7225, 279.7225, 0.002489
FMT, 75, 63, RATE, Qfffffffffffff, TimeUS,RDes,R,ROut,PDes,P,POut,YDes,Y,YOut,ADes,A,AOut,AOutSlew
RATE, 77888790, 20.1231, 0.1439583, 0.04708663, -11.26968, -0.1349023, -0.02627336, 0.2307396, 0.7977667, -0.001725615, -3.329182, -1.079369, 0, 0
PIDR, 77889902, 0.3513047, 0.002512546, 0.3487921, 0.04708694, 0, -3.070127E-07, 0, 0, 1, 4.291918, 9
PIDP, 77889907, -0.1967543, -0.002354489, -0.1943998, -0.02624397, 0, -2.93939E-05, 0, 0, 1, 2.178943, 9
PIDY, 77889911, 0.004080577, 0.01392366, -0.00958675, -0.001725615, 0, 0, 0, 0, 1, 0.008596708, 9
PIDA, 77889915, -3.329182, -3.329182, 0, 0, -431.1174, 0, 0, 0, 1, 0, 13
XKF4, 77888968, 0, 0, 0, 0, 1.37, 0, 0.007981683, 0, 0, 0, 50, 67751, 159, 0
XKF1, 77888968, 0, -4.48, 2.49, 279.72, 0.003592632, -0.005954005, -0.01315703, -0.0005527126, 0, 0, -0.01372973, -0.55, -0.36, -0.83, 0
XKF2, 77888968, 0, 0, 0, -0.07, 0, 0, 1000, -18, -1000, 0, 0, 0, 0, 0, 0
XKF3, 77888968, 0, 0, 0, 0, 0, 0, -0.03, 0, 0, 0, -118.7, 0, 0, 3.037744E-06
XKF5, 77888968, 0, 0, 0, 0, 0, 0.05, 0.04, 0, 0, 0.5, 0.006178495, 0.0009470191, 0.004180884
XKFS, 77888968, 0, 0, 0, 0, 0, 0, 0, 0, 1
XKQ, 77888968, 0, 0.7642685, -0.01588599, 0.04179527, -0.6433463
XKF4, 77888968, 1, 0, 0, 0, 1.37, 0, 0.007989085, 0, 0, 0, 50, 67751, 159, 0
XKF1, 77888968, 1, -4.52, 2.57, 279.65, 0.003200556, 0.04057617, -0.01606251, -0.004797029, 0, 0, -0.01527037, -0.43, 0.26, -0.79, 0
XKF2, 77888968, 1, 0, 0, -0.01, 0, 0, 1000, -18, -1000, 0, 0, 0, 0, 0, 0
XKF3, 77888968, 1, 0, 0, 0, 0, 0.03, -0.03, 0, 0, 0, -118.77, 0, 9.833934E-05, 3.136533E-06
XKFS, 77888968, 1, 0, 0, 0, 0, 0, 0, 0, 1
XKQ, 77888968, 1, 0.7639097, -0.01566784, 0.0426605, -0.6437209
AHR2, 77889986, -4.47, 3.12, 286.41, -0.02, 15.3695464, 75.1235764, 0.8005483, -0.014989, 0.04518952, -0.597374
POS, 77889991, 15.3695466, 75.123576, 590.31, 0.08233643, 0.01372973
FMT, 205, 32, MOTB, QfffffB, TimeUS,LiftMax,BatVolt,ThLimit,ThrAvMx,ThrOut,FailFlags
MOTB, 77889996, 1, 1, 1, 0.0431117, 0, 2
RCIN, 77890017, 1495, 1495, 982, 1978, 982, 2006, 1495, 1495, 982, 1495, 982, 982, 1495, 1495
RCI2, 77890021, 1495, 1495, 0, 1
RCOU, 77890027, 1000, 1000, 1000, 1000, 0, 0, 0, 0, 1495, 0, 0, 0, 0, 0
RCO2, 77890031, 0, 0, 0, 0
VIBE, 77890035, 0, 0.05054083, 0.05866309, 0.0345431, 0
VIBE, 77890035, 1, 0.091933, 0.1019025, 0.0772057, 0
FMT, 247, 31, CTRL, Qfffff, TimeUS,RMSRollP,RMSRollD,RMSPitchP,RMSPitchD,RMSYaw
CTRL, 77890043, 0.04754693, 0.002640198, 0.02646277, 0.001380214, 0.001749931
IMU, 77890069, 0, -0.007118387, -0.008668904, -0.0006319095, 0.4463459, 0.74662, -9.829547, 0, 0, 44.32367, 1, 1, 2022, 2022
IMU, 77890069, 1, -0.004875325, 0.001492448, 0.0005651751, 0.4534353, 0.7567471, -9.768003, 0, 0, 45, 1, 1, 1999, 2045
FMT, 167, 43, VISO, Qffffffff, TimeUS,dt,AngDX,AngDY,AngDZ,PosDX,PosDY,PosDZ,conf
FMT, 168, 58, VISP, QQIffffffffBBb, TimeUS,RTimeUS,CTimeMS,PX,PY,PZ,R,P,Y,PErr,AErr,Rst,Ign,Q
FMT, 169, 42, VISV, QQIffffBBb, TimeUS,RTimeUS,CTimeMS,VX,VY,VZ,VErr,Rst,Ign,Q
FMT, 180, 28, OF, QBffff, TimeUS,Qual,flowX,flowY,bodyX,bodyY
FMT, 182, 21, WENC, Qfbfb, TimeUS,Dist0,Qual0,Dist1,Qual1
FMT, 185, 35, ADSB, QIiiiHHhH, TimeUS,ICAO_address,Lat,Lng,Alt,Heading,Hor_vel,Ver_vel,Squark
FMT, 181, 12, EV, QB, TimeUS,Id
FMT, 186, 18, ARM, QBIBB, TimeUS,ArmState,ArmChecks,Forced,Method
FMT, 184, 13, ERR, QBB, TimeUS,Subsys,ECode
FMT, 187, 35, WINC, QBBBBBfffHfb, TimeUS,Heal,ThEnd,Mov,Clut,Mode,DLen,Len,DRate,Tens,Vcc,Temp
FMT, 188, 47, PSCN, Qfffffffff, TimeUS,DPN,TPN,PN,DVN,TVN,VN,DAN,TAN,AN
FMT, 189, 47, PSCE, Qfffffffff, TimeUS,DPE,TPE,PE,DVE,TVE,VE,DAE,TAE,AE
FMT, 190, 47, PSCD, Qfffffffff, TimeUS,DPD,TPD,PD,DVD,TVD,VD,DAD,TAD,AD
FMT, 191, 35, PSON, Qffffff, TimeUS,TPON,PON,TVON,VON,TAON,AON
FMT, 192, 35, PSOE, Qffffff, TimeUS,TPOE,POE,TVOE,VOE,TAOE,AOE
FMT, 193, 35, PSOD, Qffffff, TimeUS,TPOD,POD,TVOD,VOD,TAOD,AOD
FMT, 194, 35, PSOT, Qffffff, TimeUS,TPOT,POT,TVOT,VOT,TAOT,AOT
FMT, 201, 33, STAK, QBBHHN, TimeUS,Id,Pri,Total,Free,Name
FMT, 202, 88, FILE, NIBZ, FileName,Offset,Length,Data
FMT, 197, 78, AISR, QBBBZ, TimeUS,num,total,ID,payload
FMT, 198, 41, AIS1, QBBIBbHbLLHHBBbI, US,typ,rep,mmsi,nav,rot,sog,pos,lon,lat,cog,hed,sec,man,raim,rad
FMT, 199, 38, AIS4, QBIHBBBBBBLLBBI, US,rep,mmsi,year,mth,day,h,m,s,fix,lon,lat,epfd,raim,rad
FMT, 200, 175, AIS5, QBIBINZBHHBBBBZB, US,rep,mmsi,ver,imo,cal,nam,typ,bow,stn,prt,str,fix,dght,dst,dte
FMT, 203, 39, SCR, QNIii, TimeUS,Name,Runtime,Total_mem,Run_mem
FMT, 206, 90, VER, QBHBBBBIZHBB, TimeUS,BT,BST,Maj,Min,Pat,FWT,GH,FWS,APJ,BU,FV
FMT, 6, 24, PTUN, QBfff, TimeUS,Param,TunVal,TunMin,TunMax
FMT, 1, 14, D16, QBh, TimeUS,Id,Value
FMT, 2, 14, DU16, QBH, TimeUS,Id,Value
FMT, 3, 16, D32, QBi, TimeUS,Id,Value
FMT, 4, 16, DU32, QBI, TimeUS,Id,Value
FMT, 5, 16, DFLT, QBf, TimeUS,Id,Value
FMT, 9, 47, SIDD, Qfffffffff, TimeUS,Time,Targ,F,Gx,Gy,Gz,Ax,Ay,Az
FMT, 10, 40, SIDS, QBfffffff, TimeUS,Ax,Mag,FSt,FSp,TFin,TC,TR,TFout
FMT, 8, 49, GUIP, QBfffbffffff, TimeUS,Type,pX,pY,pZ,Terrain,vX,vY,vZ,aX,aY,aZ
FMT, 11, 44, GUIA, QBffffffff, TimeUS,Type,Roll,Pitch,Yaw,RollRt,PitchRt,YawRt,Thrust,ClimbRt
FMT, 252, 43, DCM, Qffffffff, TimeUS,Roll,Pitch,Yaw,ErrRP,ErrYaw,VWN,VWE,VWD
DCM, 77891374, -4.478827, 3.120417, 286.4237, 0.04315441, 0.7969157, 0, 0, 0
FMT, 251, 51, EAHR, QffffffLLfI, TimeUS,Roll,Pitch,Yaw,VN,VE,VD,Lat,Lon,Alt,Flg
EAHR, 77891417, 0, 0, 0, 0, 0, 0, 0, 0, 0, 0
FMT, 253, 28, HEAT, Qfbfff, TimeUS,Temp,Targ,P,I,Out
HEAT, 77916291, 44.56523, 45, 21.73862, 4.819404, 26.55803
IMU, 77929219, 0, -0.009346305, -0.007210443, -0.0006817768, 0.397729, 0.7613261, -9.836932, 0, 0, 44.80676, 1, 1, 2022, 2022
IMU, 77929219, 1, -0.007235368, 0.001293757, 0.0008909501, 0.4170032, 0.7727115, -9.772577, 0, 0, 45, 1, 1, 1999, 2045
SURF, 77939773, 0, 2, 0, 0, 0.01275719
SURF, 77939808, 1, 2, 0, 0, 0.01275719
IMU, 77969248, 0, -0.01053671, -0.007350991, -0.0008759621, 0.4319078, 0.7589598, -9.840432, 0, 0, 44.32367, 1, 1, 2022, 2022
IMU, 77969248, 1, -0.008114343, 0.003398659, 0.0002243103, 0.4455369, 0.7609146, -9.760727, 0, 0, 45, 1, 1, 1999, 2045
MSG, 77974503, ArduCopter V4.6.2 (1ebd4d99)
MSG, 77974512, ChibiOS: 88b84600
VER, 77974517, 10, 5009, 4, 6, 2, 255, 515722649, ArduCopter V4.6.2 (1ebd4d99), 56, 2, 2
MSG, 77974530, Pixhawk6C 003D0048 3133510F 31343630
MSG, 77974538, Param space used: 951/5376
MSG, 77974545, RC Protocol: SBUS
MSG, 77974555, RCOut: PWM:1-16
MSG, 77974560, New mission
CMD, 77977097, 4, 0, 16, 0, 0, 0, 0, 0, 0, 0, 0
CMD, 77977124, 4, 1, 22, 1, 0, 0, 0, 0, 0, 10, 3
CMD, 77977132, 4, 2, 16, 10, 0, 0, 0, 15.367361, 75.1254623, 10, 3
CMD, 77977142, 4, 3, 20, 0, 0, 0, 0, 0, 0, 0, 0
MSG, 77977146, New rally
MSG, 77977158, New fence
FNCE, 77977168, 10, 0, 98, 15.3694775, 75.1243937, 10, 0
FNCE, 77977173, 10, 1, 98, 15.3694025, 75.1246646, 10, 0
FNCE, 77977178, 10, 2, 98, 15.3694775, 75.1248684, 10, 0
FNCE, 77977184, 10, 3, 98, 15.3696456, 75.1249086, 10, 0
FNCE, 77977189, 10, 4, 98, 15.3699042, 75.1248443, 10, 0
FNCE, 77977194, 10, 5, 98, 15.3702533, 75.1247826, 10, 0
FNCE, 77977200, 10, 6, 98, 15.3703154, 75.1244822, 10, 0
FNCE, 77977205, 10, 7, 98, 15.3700982, 75.124281, 10, 0
FNCE, 77977211, 10, 8, 98, 15.3698292, 75.1241469, 10, 0
FNCE, 77977216, 10, 9, 98, 15.3695111, 75.1241147, 10, 0
MSG, 77977225, Frame: QUAD/X
MODE, 77977229, Stabilize, 0, 1
MSG, 77977238, GPS 1: probing for u-blox at 230400 baud
MSG, 77977248, u-blox 1 HW: 00190000 SW: EXT CORE 4.04 (7f89f7)
GPS, 77989705, 0, 3, 129602400, 2380, 6, 3.17, 15.3695464, 75.1235762, 590.39, 0.559, 154.7735, -0.376, 0, 1
GPA, 77989705, 0, 4.73, 11.23, 19.28, 1.22, 0, 1, 77969, 200, 512.38, 0, 0
POWR, 77989720, 4.934088, 0, 1, 1, 6
MCU, 77989720, 36.6998, 3.348254, 3.341795, 3.354456
BAT, 77989732, 0, 15.91274, 15.93841, 0.6215809, 16.27873, 0.2618238, 0, 0.04129842, 99, 1, 0
MAG, 77989743, 0, 2177, -934, 0, -382, 367, 647, 0, 0, 0, 1, 77989742
MAG, 77989743, 1, -27, 458, 175, 59, 22, -40, 0, 0, 0, 1, 77989740
SURF, 77989763, 0, 2, 0, 0, 0.01281053
SURF, 77989786, 1, 2, 0, 0, 0.01281053
BARO, 77989818, 0, 0.105896, 0.105896, 93550.12, 36.42, -0.011058, 77989, 0, 35, 1
CTUN, 77989852, 0, 0, 0, 0.431117, 0, 0.01413079, 0.1, NaN, 0, -57.44526, 0, 1
ATT, 77989910, 0.0002399535, -4.477209, 0.0002510327, 2.486431, 279.9876, 279.9876, 3
ANG, 77988775, 0.0002399535, -4.477209, 0.0002510327, 2.486431, 279.9876, 279.9876, 0.002499
RATE, 77988789, 20.10464, 0.007986358, 0.04724227, -11.25368, -0.08181472, -0.02635172, 0.2343966, 0.8376253, -0.001758332, -3.329182, 0.4756927, 0, 0
PIDR, 77989926, 0.3509082, 0.0001393883, 0.3507688, 0.04735379, 0, -0.0001115177, 0, 0, 1, 3.883006, 9
PIDP, 77989930, -0.196417, -0.001427936, -0.1949891, -0.02632353, 0, -2.819012E-05, 0, 0, 1, 1.971345, 9
PIDY, 77989934, 0.004094739, 0.01461932, -0.009768509, -0.001758332, 0, 0, 0, 0, 1, 0.007777659, 9
PIDA, 77989938, -3.329182, -3.329182, 0, 0, -431.1174, 0, 0, 0, 1, 0, 13
XKF4, 77988901, 0, 0, 0, 0, 1.33, 0, 0.008050852, 0, 0, 0, 50, 67751, 159, 0
XKF1, 77988901, 0, -4.47, 2.48, 279.98, 0.003607365, -0.005416445, -0.01331247, -0.008239016, 0, 0, -0.01413079, -0.55, -0.36, -0.83, 0
XKF2, 77988901, 0, 0, 0, -0.07, 0, 0, 1000, -18, -1000, 0, 0, 0, 0, 0, 0
XKF3, 77988901, 0, 0, 0, 0, 0, 0, 0.07, 0, 0, 0, -115, 0, 0, 1.31364E-05
XKF5, 77988901, 0, 0, 0, 0, 0, 0.06, 0.04, 0, 0, 0.5, 0.006177699, 0.0009012145, 0.002592007
XKFS, 77988901, 0, 0, 0, 0, 0, 0, 0, 0, 1
XKQ, 77988901, 0, 0.7657548, -0.01597536, 0.0417116, -0.6415797
XKF4, 77988901, 1, 0, 0, 0, 1.33, 0, 0.008058639, 0, 0, 0, 50, 67751, 159, 0
XKF1, 77988901, 1, -4.52, 2.56, 279.92, 0.002524443, 0.0421088, -0.01558453, -0.01093743, 0, 0, -0.01605054, -0.42, 0.26, -0.8, 0
XKF2, 77988901, 1, 0, 0, -0.01, 0, 0, 1000, -18, -1000, 0, 0, 0, 0, 0, 0
XKF3, 77988901, 1, 0, 0, 0, 0, 0.04, 0.07, 0, 0, 0, -115.07, 0, 9.972234E-05, 1.284097E-05
XKFS, 77988901, 1, 0, 0, 0, 0, 0, 0, 0, 1
XKQ, 77988901, 1, 0.7654225, -0.01582327, 0.04254974, -0.6419249
AHR2, 77990038, -4.43, 3.12, 286.96, 0.08, 15.3695463, 75.1235766, 0.8033928, -0.01491519, 0.044923, -0.5935651
POS, 77990043, 15.3695466, 75.123576, 590.31, 0.105896, 0.01413079
MOTB, 77990048, 1, 1, 1, 0.0431117, 0, 2
RCIN, 77990053, 1495, 1495, 982, 1938, 982, 2006, 1495, 1495, 982, 1495, 982, 982, 1495, 1495
RCI2, 77990057, 1495, 1495, 0, 1
RCOU, 77990063, 1000, 1000, 1000, 1000, 0, 0, 0, 0, 1495, 0, 0, 0, 0, 0
RCO2, 77990067, 0, 0, 0, 0
VIBE, 77990071, 0, 0.03826235, 0.04185212, 0.03691568, 0
VIBE, 77990071, 1, 0.08111775, 0.0815275, 0.07859509, 0
CTRL, 77990079, 0.04748238, 0.002161791, 0.02641114, 0.001132987, 0.001749198
DCM, 77991443, -4.438787, 3.122086, 286.9718, 0.08568899, 0.8366374, 0, 0, 0
EAHR, 77991462, 0, 0, 0, 0, 0, 0, 0, 0, 0, 0
FILE, @SYS/uarts.txt, 0, 64, UARTV1\nSERIAL0 OTG1  TX =       0 RX =       0 TXBD=     0 RXBD=
IMU, 78009246, 0, -0.01007226, -0.008036101, 0.0001015405, 0.4405824, 0.7867658, -9.838196, 0, 0, 44.80676, 1, 1, 2022, 2022
IMU, 78009246, 1, -0.008813977, 0.002211865, 0.001363877, 0.4472908, 0.7882621, -9.766476, 0, 0, 45, 1, 1, 1999, 2045
FILE, @SYS/uarts.txt, 64, 64,      0 FE=0 OE=0 NE=0 FlowCtrl=0\nSERIAL1 UART7 TX*=    2359 RX*=
FILE, @SYS/uarts.txt, 128, 64,    12448 TXBD=   304 RXBD=  1608 FE=0 OE=0 NE=0 FlowCtrl=0\nSERIA
FILE, @SYS/uarts.txt, 192, 64, L2 UART5 TX*=    2029 RX*=       0 TXBD=   262 RXBD=     0 FE=0 
SURF, 78039793, 0, 2, 0, 0, 0.012875
SURF, 78039806, 1, 2, 0, 0, 0.012875
FILE, @SYS/uarts.txt, 256, 64, OE=0 NE=0 FlowCtrl=0\nSERIAL3 UART1 TX*=    1752 RX*=   49373 TXB
IMU, 78049187, 0, -0.005589046, -0.008128001, -0.001574179, 0.4082749, 0.7648136, -9.84311, 0, 0, 44.32367, 1, 1, 2022, 2022
IMU, 78049187, 1, -0.00363791, 0.003757054, -0.002235305, 0.4184762, 0.7706028, -9.78715, 0, 0, 45, 1, 1, 1999, 2045
STAK, 78058202, 1, 1, 496, 288, idle
FILE, @SYS/uarts.txt, 320, 64, D=   226 RXBD=  6378 FE=146 OE=0 NE=166 FlowCtrl=0\nSERIAL4 UART8
FILE, @SYS/uarts.txt, 384, 64,  TX*=       0 RX*=       0 TXBD=     0 RXBD=     0 FE=0 OE=0 NE=
FILE, @SYS/uarts.txt, 448, 64, 0 FlowCtrl=0\nSERIAL5 UART2 TX =       0 RX =       0 TXBD=     0
POWR, 78089551, 4.936203, 0, 1, 1, 6
MCU, 78089551, 36.64016, 3.348817, 3.339134, 3.354738
BAT, 78089590, 0, 15.95577, 15.98369, 0.6759578, 16.29748, 0.2621229, 0, 0.04129842, 99, 1, 0
MAG, 78089602, 0, 2285, -559, 304, -382, 367, 647, 0, 0, 0, 1, 78089601
MAG, 78089602, 1, -28, 460, 170, 59, 22, -40, 0, 0, 0, 1, 78089599
SURF, 78089646, 0, 2, 0, 0, 0.0129602
SURF, 78089655, 1, 2, 0, 0, 0.0129602
BARO, 78089681, 0, 0.07940674, 0.07940674, 93550.4, 36.42, 0.1111984, 78089, 0, 35, 1
CTUN, 78089694, 0, 0, 0, 0.431117, 0, 0.01524347, 0.07, NaN, 0, -57.36422, 0, 1
ATT, 78089752, 0.0002399535, -4.474486, 0.0002510327, 2.485676, 280.2531, 280.2531, 3
ANG, 78088776, 0.0002399535, -4.474486, 0.0002510327, 2.485676, 280.2531, 280.2531, 0.0025
RATE, 78088789, 20.0925, -0.08609282, 0.04753013, -11.25031, -0.06107395, -0.02613167, 0.2351377, 0.8166256, -0.001763376, -3.329182, -0.9636879, 0, 0
PIDR, 78089770, 0.3506796, -0.001502603, 0.3521822, 0.04754459, 0, -1.446618E-05, 0, 0, 1, 3.513047, 9
PIDP, 78089797, -0.1963911, -0.001065942, -0.1953252, -0.0263689, 0, 0.000237236, 0, 0, 1, 1.783522, 9
PIDY, 78089801, 0.004099148, 0.01425281, -0.009796535, -0.001763376, 0, 0, 0, 0, 1, 0.007036629, 9
PIDA, 78089834, -3.329182, -3.329182, 0, 0, -431.1174, 0, 0, 0, 1, 0, 13
XKF4, 78088953, 0, 0, 0, 0, 1.18, 0, 0.008123178, 0, 0, 0, 50, 67751, 143, 0
XKF1, 78088953, 0, -4.47, 2.48, 280.25, 0.00387908, -0.006031957, -0.0132277, -0.01497252, 0, 0, -0.01524347, -0.55, -0.36, -0.84, 0
XKF2, 78088953, 0, 0, 0, -0.07, 0, 0, 1000, -18, -1000, 0, 0, 0, 0, 0, 0
XKF3, 78088953, 0, 0, 0, 0, 0, 0, 0.09, 0, 0, 0, -102.27, 0, 0, 2.191068E-05
XKF5, 78088953, 0, 0, 0, 0, 0, 0.06, 0.04, 0, 0, 0.5, 0.006177044, 0.0008709445, 0.00184065
XKFS, 78088953, 0, 0, 0, 0, 0, 0, 0, 0, 1
XKQ, 78088953, 0, 0.7672397, -0.01605796, 0.04165422, -0.6398049
XKF4, 78088953, 1, 0, 0, 0, 1.18, 0, 0.008131239, 0, 0, 0, 50, 67751, 143, 0
XKF1, 78088953, 1, -4.52, 2.56, 280.19, 0.002157893, 0.04217261, -0.01568976, -0.01731647, 0, 0, -0.01741872, -0.42, 0.26, -0.8, 0
XKF2, 78088953, 1, 0, 0, -0.01, 0, 0, 1000, -18, -1000, 0, 0, 0, 0, 0, 0
XKF3, 78088953, 1, 0, 0, 0, 0, 0.04, 0.09, 0, 0, 0, -102.33, 0, 9.972234E-05, 2.140778E-05
XKFS, 78088953, 1, 0, 0, 0, 0, 0, 0, 0, 1
XKQ, 78088953, 1, 0.7669097, -0.01589751, 0.04248823, -0.6401497
AHR2, 78089922, -4.69, 3.23, 287.51, 0.09999999, 15.3695454, 75.1235766, 0.8062208, -0.01630748, 0.04697251, -0.5895216
POS, 78089927, 15.3695464, 75.1235762, 590.39, 0.07940674, 0.01524347
MOTB, 78089932, 1, 1, 1, 0.0431117, 0, 2
RCIN, 78089938, 1495, 1495, 982, 1900, 982, 2006, 1495, 1495, 982, 1495, 982, 982, 1495, 1495
RCI2, 78089942, 1495, 1495, 0, 1
RCOU, 78089948, 1000, 1000, 1000, 1000, 0, 0, 0, 0, 1495, 0, 0, 0, 0, 0
RCO2, 78089952, 0, 0, 0, 0
VIBE, 78089956, 0, 0.03135388, 0.03704637, 0.03988373, 0
VIBE, 78089956, 1, 0.07830847, 0.0881299, 0.1207209, 0
CTRL, 78089965, 0.04744144, 0.001790964, 0.02639995, 0.000935049, 0.001762125
IMU, 78089975, 0, -0.01111931, -0.007360935, -0.0004945342, 0.4360716, 0.754802, -9.830498, 0, 0, 44.80676, 1, 1, 2022, 2022
IMU, 78089975, 1, -0.008625592, 0.002736664, -6.341369E-05, 0.4426937, 0.7480872, -9.791056, 0, 0, 45, 1, 1, 1999, 2045
DCM, 78091434, -4.701297, 3.243117, 287.5259, 0.08568899, 0.8684684, 0, 0, 0
EAHR, 78091452, 0, 0, 0, 0, 0, 0, 0, 0, 0, 0
FILE, @SYS/uarts.txt, 512, 64,  RXBD=     0 FE=0 OE=0 NE=0 FlowCtrl=0\nSERIAL6 UART3 TX =       
FILE, @SYS/uarts.txt, 576, 64, 0 RX =       0 TXBD=     0 RXBD=     0 FE=0 OE=0 NE=0 FlowCtrl=0
FILE, @SYS/uarts.txt, 640, 64, \nSERIAL7 OTG2  TX =       0 RX =       0 TXBD=     0 RXBD=     0
FILE, @SYS/uarts.txt, 704, 64,  FE=0 OE=0 NE=0 FlowCtrl=0\nIOMCU   UART6 TX*=  609806 RX*=  3813
IMU, 78129249, 0, -0.01156101, -0.006421445, -6.213417E-05, 0.4200736, 0.7661566, -9.837505, 0, 0, 44.80676, 1, 1, 2022, 2022
IMU, 78129249, 1, -0.009424929, 0.004291825, 0.0006358657, 0.4541817, 0.7851294, -9.759982, 0, 0, 45, 1, 1, 1999, 2045
SURF, 78139724, 0, 2, 0, 0, 0.01307169
SURF, 78139734, 1, 2, 0, 0, 0.01307169
FILE, @SYS/uarts.txt, 768, 53, 08 TXBD= 23295 RXBD= 49264 FE=0 OE=0 NE=0 FlowCtrl=0\n
STAK, 78159284, 2, 60, 1200, 880, UART_RX
FILE, @SYS/memory.txt, 0, 64, MemInfoV1\nSTART=0x24000000 LEN=512k FREE=  3256 LRG=  1152 TYPE=
IMU, 78169191, 0, -0.005512131, -0.01110391, -0.001636518, 0.4382674, 0.7551021, -9.819871, 0, 0, 44.32367, 1, 1, 2022, 2022
IMU, 78169191, 1, -0.002447027, 0.0005703569, -0.0004563389, 0.4565019, 0.7639149, -9.747889, 0, 0, 45, 1, 1, 1999, 2045
FILE, @SYS/memory.txt, 64, 64, 4\nSTART=0x30000000 LEN=256k FREE=262136 LRG=262136 TYPE=8\nSTART=
FILE, @SYS/memory.txt, 128, 64, 0x20000000 LEN=128k FREE=112544 LRG=112544 TYPE=2\nSTART=0x000004
GPS, 78189684, 0, 3, 129602600, 2380, 6, 3.17, 15.3695472, 75.1235751, 590.12, 0.6720001, 154.7735, -0.383, 0, 1
GPA, 78189684, 0, 4.73, 11.23, 19.29, 1.37, 0, 1, 78169, 200, 512.11, 0, 0
POWR, 78189699, 4.943152, 0, 1, 1, 6
MCU, 78189699, 36.64016, 3.348817, 3.342355, 3.355162
BAT, 78189729, 0, 15.95004, 15.97701, 0.6530109, 16.31564, 0.2624127, 0, 0.04129842, 99, 1, 0
MAG, 78189741, 0, 2461, -474, 406, -382, 367, 647, 0, 0, 0, 1, 78189739
MAG, 78189741, 1, -28, 460, 168, 59, 22, -40, 0, 0, 0, 1, 78189738
SURF, 78189761, 0, 2, 0, 0, 0.01321282
SURF, 78189773, 1, 2, 0, 0, 0.01321282
BARO, 78189797, 0, 0.04406738, 0.04406738, 93550.8, 36.42, 0.1930237, 78189, 0, 35, 1
CTUN, 78189809, 0, 0, 0, 0.431117, 0, 0.01674028, 0.04, NaN, 0, -57.36422, 0, 1
ATT, 78189950, 0.0002399535, -4.468659, 0.0002510327, 2.481056, 280.5198, 280.5197, 3
ANG, 78188777, 0.0002399535, -4.468659, 0.0002510327, 2.481056, 280.5198, 280.5197, 0.00249
RATE, 78188789, 20.06642, 0.1698882, 0.04738469, -11.22914, -0.1880529, -0.02653627, 0.2337642, 0.769025, -0.00176534, -3.329182, 0.7621765, 0, 0
PIDR, 78189967, 0.3502383, 0.002965108, 0.3472732, 0.04688188, 0, 0.0005028066, 0, 0, 1, 3.178335, 9
PIDP, 78189971, -0.1959632, -0.003282142, -0.1926811, -0.02601195, 0, -0.0005243255, 0, 0, 1, 1.613593, 9
PIDY, 78189975, 0.004135379, 0.01342202, -0.009807441, -0.00176534, 0, 0, 0, 0, 1, 0.006366203, 9
PIDA, 78189979, -3.329182, -3.329182, 0, 0, -431.1174, 0, 0, 0, 1, 0, 13
XKF4, 78188963, 0, 0, 0, 0, 1.06, 0, 0.008196589, 0, 0, 0, 50, 67751, 143, 0
XKF1, 78188963, 0, -4.46, 2.48, 280.51, 0.003479036, -0.005891733, -0.01300933, -0.01925474, 0, 0, -0.01674028, -0.55, -0.36, -0.85, 0
XKF2, 78188963, 0, 0, 0, -0.07, 0, 0, 1000, -18, -1000, 0, 0, 0, 0, 0, 0
XKF3, 78188963, 0, 0, 0, 0, 0, 0, 0.06, 0, 0, 0, -91.93, 0, 0, 1.046793E-05
XKF5, 78188963, 0, 0, 0, 0, 0, 0.06, 0.04, 0, 0, 0.5, 0.006176183, 0.0008601478, 0.001860603
XKFS, 78188963, 0, 0, 0, 0, 0, 0, 0, 0, 1
XKQ, 78188963, 0, 0.7687269, -0.01614153, 0.04155336, -0.6380217
XKF4, 78188963, 1, 0, 0, 0, 1.06, 0, 0.008204157, 0, 0, 0, 50, 67751, 143, 0
XKF1, 78188963, 1, -4.51, 2.56, 280.46, 0.002603129, 0.04194145, -0.01484947, -0.02068878, 0, 0, -0.01914328, -0.42, 0.26, -0.81, 0
XKF2, 78188963, 1, 0, 0, -0.01, 0, 0, 1000, -18, -1000, 0, 0, 0, 0, 0, 0
XKF3, 78188963, 1, 0, 0, 0, 0, 0.05, 0.06, 0, 0, 0, -91.98, 0, 9.972234E-05, 1.005347E-05
XKFS, 78188963, 1, 0, 0, 0, 0, 0, 0, 0, 1
XKQ, 78188963, 1, 0.76841, -0.01594114, 0.04239002, -0.6383534
AHR2, 78190049, -4.95, 3.35, 288.07, 0.07, 15.369545, 75.1235767, 0.8090188, -0.01774256, 0.04904695, -0.5854641
POS, 78190054, 15.3695464, 75.1235762, 590.39, 0.04406738, 0.01674028
MOTB, 78190058, 1, 1, 1, 0.0431117, 0, 2
RCIN, 78190064, 1495, 1495, 982, 1888, 982, 2006, 1495, 1495, 982, 1495, 982, 982, 1495, 1495
RCI2, 78190068, 1495, 1495, 0, 1
RCOU, 78190074, 1000, 1000, 1000, 1000, 0, 0, 0, 0, 1495, 0, 0, 0, 0, 0
RCO2, 78190077, 0, 0, 0, 0
VIBE, 78190082, 0, 0.03691469, 0.03517261, 0.04292662, 0
VIBE, 78190082, 1, 0.07483262, 0.08576912, 0.09948592, 0
CTRL, 78190093, 0.04737832, 0.001485409, 0.02633865, 0.0007876852, 0.001780644
DCM, 78191392, -4.955575, 3.360373, 288.076, 0.1252527, 0.8923995, 0, 0, 0
EAHR, 78191411, 0, 0, 0, 0, 0, 0, 0, 0, 0, 0
FILE, @SYS/memory.txt, 192, 64, 00 LEN= 63k FREE= 64504 LRG= 64504 TYPE=2\nSTART=0x30040000 LEN= 
IMU, 78209233, 0, -0.008704162, -0.008043248, -0.0008316984, 0.4080399, 0.8063253, -9.840621, 0, 0, 44.80676, 1, 1, 2022, 2022
IMU, 78209233, 1, -0.00524222, 0.002965464, -0.0003988627, 0.4198444, 0.8230249, -9.776553, 0, 0, 45, 1, 1, 1999, 2045
FILE, @SYS/memory.txt, 256, 64, 32k FREE= 32760 LRG= 32760 TYPE=8\nSTART=0x38000000 LEN= 64k FREE
FILE, @SYS/memory.txt, 320, 26, = 56808 LRG= 56152 TYPE=1\n
SURF, 78239861, 0, 2, 0, 0, 0.01338507
SURF, 78239870, 1, 2, 0, 0, 0.01338507
FILE, @SYS/threads.txt, 0, 64, ThreadsV2\nISR           PRI=255 sp=0x24000000 STACK=1308/1536\nAr
IMU, 78249222, 0, -0.008202, -0.01051593, -3.237453E-05, 0.4304229, 0.7383488, -9.838728, 0, 0, 44.80676, 1, 1, 2022, 2022
IMU, 78249222, 1, -0.006983265, 0.0002219411, 0.001039079, 0.4271751, 0.7296585, -9.784872, 0, 0, 45, 1, 1, 1999, 2045
FILE, @SYS/threads.txt, 64, 64, duCopter    PRI=182 sp=0x24000600 STACK=4040/7168\nidle          
STAK, 78259730, 3, 60, 752, 480, OTG1
FILE, @SYS/threads.txt, 128, 64, PRI=  1 sp=0x240214B0 STACK=288/496\nUART_RX       PRI= 60 sp=0x2
FILE, @SYS/threads.txt, 192, 64, 407B0E8 STACK=880/1200\nOTG1          PRI= 60 sp=0x2407A1A0 STACK
POWR, 78289545, 4.931671, 0, 1, 1, 6
MCU, 78289545, 36.64016, 3.348817, 3.341234, 3.356151
BAT, 78289558, 0, 15.93746, 15.96463, 0.6578321, 16.33389, 0.2627034, 0, 0.04129842, 99, 1, 0
MAG, 78289570, 0, 2247, -364, 220, -382, 367, 647, 0, 0, 0, 1, 78289569
MAG, 78289570, 1, -29, 458, 172, 59, 22, -40, 0, 0, 0, 1, 78289567
SURF, 78289591, 0, 2, 0, 0, 0.01358757
SURF, 78289600, 1, 2, 0, 0, 0.01358757
BARO, 78289626, 0, -0.1705933, -0.1705933, 93553.23, 36.42, -0.001869201, 78289, 0, 35, 1
CTUN, 78289639, 0, 0, 0, 0.431117, 0, 0.0183267, -0.17, NaN, 0, -57.63874, 0, 1
ATT, 78289716, 0.0002399534, -4.453446, 0.0002510326, 2.47063, 280.7872, 280.7872, 3
ANG, 78288777, 0.0002399534, -4.453446, 0.0002510326, 2.47063, 280.7872, 280.7872, 0.002501
RATE, 78288791, 19.9982, -0.005739653, 0.04822827, -11.18221, -0.000522883, -0.02714841, 0.2400597, 0.7879656, -0.001789758, -3.329182, -0.1626015, 0, 0
PIDR, 78289751, 0.3489267, -0.0001001759, 0.3490269, 0.04711863, 0, 0.001109643, 0, 0, 1, 2.875517, 9
PIDP, 78289755, -0.195067, -9.12603E-06, -0.1950579, -0.02633282, 0, -0.0008155961, 0, 0, 1, 1.459857, 9
PIDY, 78289761, 0.004185852, 0.01375259, -0.0099431, -0.001789758, 0, 0, 0, 0, 1, 0.005759656, 9
PIDA, 78289765, -3.329182, -3.329182, 0, 0, -431.1174, 0, 0, 0, 1, 0, 13
XKF4, 78288945, 0, 0, 0, 0, 1.02, 0, 0.008269216, 0, 0, 0, 50, 67751, 143, 0
XKF1, 78288945, 0, -4.45, 2.47, 280.78, 0.004346654, -0.006212059, -0.01301568, -0.02009626, 0, 0, -0.0183267, -0.55, -0.35, -0.85, 0
XKF2, 78288945, 0, 0, 0, -0.07, 0, 0, 1000, -18, -1000, 0, 0, 0, 0, 0, 0
XKF3, 78288945, 0, 0, 0, 0, 0, 0, 0.02, 0, 0, 0, -88.69, 0, 0, 1.879042E-06
XKF5, 78288945, 0, 0, 0, 0, 0, 0.06, 0.04, 0, 0, 0.5, 0.006175521, 0.0008692103, 0.001826047
XKFS, 78288945, 0, 0, 0, 0, 0, 0, 0, 0, 1
XKQ, 78288945, 0, 0.7702155, -0.01619423, 0.04136112, -0.6362351
XKV1, 78288945, 0, 0.0001694705, 8.522328E-06, 7.800631E-06, 0.0002353331, 0.07187895, 0.07205044, 0.02068215, 0.19372, 0.1936486, 0.2545297, 4.56441E-11, 4.788956E-11
XKV2, 78288945, 0, 5.905338E-10, 6.187437E-06, 6.187421E-06, 6.192376E-08, 0, 0, 0, 0, 0, 0, 0, 0
XKF4, 78288945, 1, 0, 0, 0, 1.02, 0, 0.008276086, 0, 0, 0, 50, 67751, 143, 0
XKF1, 78288945, 1, -4.49, 2.55, 280.73, 0.003502037, 0.0427574, -0.01501093, -0.02155674, 0, 0, -0.02092842, -0.42, 0.26, -0.81, 0
XKF2, 78288945, 1, 0, 0, -0.01, 0, 0, 1000, -18, -1000, 0, 0, 0, 0, 0, 0
XKF3, 78288945, 1, 0, 0, 0, 0, 0.05, 0.02, 0, 0, 0, -88.73, 0, 9.972234E-05, 1.68124E-06
XKFS, 78288945, 1, 0, 0, 0, 0, 0, 0, 0, 1
XKQ, 78288945, 1, 0.7699156, -0.01600226, 0.04218643, -0.6365486
AHR2, 78289917, -5.03, 3.1, 288.61, 0.04, 15.3695461, 75.1235744, 0.8117961, -0.01990386, 0.04762673, -0.5816551
POS, 78289922, 15.3695472, 75.1235751, 590.12, -0.1705933, 0.0183267
MOTB, 78289927, 1, 1, 1, 0.0431117, 0, 2
RCIN, 78289933, 1495, 1495, 982, 1888, 982, 2006, 1495, 1495, 982, 1495, 982, 982, 1495, 1495
RCI2, 78289937, 1495, 1495, 0, 1
RCOU, 78289943, 1000, 1000, 1000, 1000, 0, 0, 0, 0, 1495, 0, 0, 0, 0, 0
RCO2, 78289947, 0, 0, 0, 0
VIBE, 78289951, 0, 0.03964505, 0.04617936, 0.04256598, 0
VIBE, 78289951, 1, 0.08110568, 0.09754013, 0.092438, 0
CTRL, 78289959, 0.04720505, 0.001248454, 0.02622114, 0.0006788672, 0.00178712
IMU, 78289970, 0, -0.009703004, -0.00628492, -0.00118743, 0.4329756, 0.7878491, -9.836046, 0, 0, 44.80676, 1, 1, 2022, 2022
IMU, 78289970, 1, -0.008678358, 0.004285273, -0.0001271265, 0.4372478, 0.7981985, -9.770066, 0, 0, 45, 1, 1, 1999, 2045
FILE, @SYS/threads.txt, 256, 64, =480/752\nmonitor       PRI=183 sp=0x2401CE20 STACK=1096/1456\ntim
DCM, 78291386, -5.042126, 3.099914, 288.6252, 0.1252527, 0.9104315, 0, 0, 0
EAHR, 78291410, 0, 0, 0, 0, 0, 0, 0, 0, 0, 0
FILE, @SYS/threads.txt, 320, 64, er         PRI=181 sp=0x2401E3E0 STACK=1520/1968\nrcout         P
FILE, @SYS/threads.txt, 384, 64, RI=181 sp=0x2401DA00 STACK=656/944\nrcin          PRI=177 sp=0x24
FILE, @SYS/threads.txt, 448, 64, 01D410 STACK=816/1456\nio            PRI= 58 sp=0x2401C430 STACK=
IMU, 78329211, 0, -0.009539531, -0.008715464, -0.0001833758, 0.4117646, 0.7143492, -9.853622, 0, 0, 44.80676, 1, 1, 2022, 2022
IMU, 78329211, 1, -0.008062149, 0.002145083, 0.0007846333, 0.4281069, 0.7241844, -9.795183, 0, 0, 45, 1, 1, 1999, 2045
FILE, @SYS/threads.txt, 512, 64, 1576/2480\nstorage       PRI= 59 sp=0x2401DDF0 STACK=936/1456\nUAR
SURF, 78339766, 0, 2, 0, 0, 0.01381898
SURF, 78339803, 1, 2, 0, 0, 0.01381898
FILE, @SYS/threads.txt, 576, 64, T7         PRI= 60 sp=0x24078FF8 STACK=344/752\nUART5         PRI
FILE, @SYS/threads.txt, 640, 64, = 60 sp=0x240784B0 STACK=240/752\nUART1         PRI= 60 sp=0x2407
STAK, 78365543, 4, 183, 1456, 1096, monitor
IMU, 78369231, 0, -0.01149473, -0.006727763, 0.000574462, 0.4145681, 0.7887534, -9.850513, 0, 0, 44.32367, 1, 1, 2022, 2022
IMU, 78369231, 1, -0.008870753, 0.004154336, 0.001254675, 0.427642, 0.7985741, -9.785047, 0, 0, 45, 1, 1, 1999, 2045
FILE, @SYS/threads.txt, 704, 64, 78E8 STACK=336/752\nUART8         PRI= 60 sp=0x24076D20 STACK=408
FILE, @SYS/threads.txt, 768, 64, /752\nOTG2          PRI= 60 sp=0x24075DD8 STACK=480/752\nUART6    
GPS, 78389678, 0, 3, 129602800, 2380, 6, 3.17, 15.3695468, 75.1235751, 590.21, 0.558, 154.7735, -0.702, 0, 1
GPA, 78389678, 0, 4.73, 11.24, 19.31, 1.28, 0, 1, 78369, 200, 512.2, 0, 0
POWR, 78389692, 4.932074, 0, 1, 1, 6
MCU, 78389692, 36.66004, 3.348676, 3.341514, 3.354597
BAT, 78389704, 0, 15.93993, 15.96616, 0.6351294, 16.35156, 0.2629851, 0, 0.04129842, 99, 1, 0
MAG, 78389716, 0, 1818, -242, 5, -382, 367, 647, 0, 0, 0, 1, 78389715
MAG, 78389716, 1, -31, 458, 173, 59, 22, -40, 0, 0, 0, 1, 78389713
SURF, 78389734, 0, 2, 0, 0, 0.01406197
SURF, 78389758, 1, 2, 0, 0, 0.01406197
BARO, 78389791, 0, 0.02935791, 0.02935791, 93550.97, 36.42, -0.3953171, 78389, 0, 35, 1
CTUN, 78389825, 0, 0, 0, 0.431117, 0, 0.01900066, 0.02, NaN, 0, -57.63874, 0, 1
ATT, 78389876, 0.0002399535, -4.452211, 0.0002510326, 2.468777, 281.058, 281.058, 3
ANG, 78388778, 0.0002399535, -4.45221, 0.0002510326, 2.468777, 281.058, 281.058, 0.00249
RATE, 78388793, 19.99272, -0.2311588, 0.04799218, -11.17355, 0.05900904, -0.02678116, 0.2375925, 0.9054279, -0.001938616, -3.329182, 0.5560875, 0, 0
PIDR, 78389897, 0.3487622, -0.004034482, 0.3527967, 0.04762755, 0, 0.0003646221, 0, 0, 1, 2.601547, 9
PIDP, 78389901, -0.1948949, 0.001029902, -0.1959248, -0.02644985, 0, -0.0003313159, 0, 0, 1, 1.320767, 9
PIDY, 78389905, 0.004209483, 0.0158027, -0.01077009, -0.001938616, 0, 0, 0, 0, 1, 0.005210896, 9
PIDA, 78389909, -3.329182, -3.329182, 0, 0, -431.1174, 0, 0, 0, 1, 0, 13
XKF4, 78388952, 0, 0, 0, 0, 1, 0, 0.008339844, 0, 0, 0, 50, 67751, 143, 0
XKF1, 78388952, 0, -4.45, 2.46, 281.05, 0.004251362, -0.006071964, -0.01294675, -0.01226254, 0, 0, -0.01900066, -0.55, -0.35, -0.86, 0
XKF2, 78388952, 0, 0, 0, -0.07, 0, 0, 1000, -18, -1000, 0, 0, 0, 0, 0, 0
XKF3, 78388952, 0, 0, 0, 0, 0, 0, -0.18, 0, 0, 0, -87.06, 0, 0, 8.758182E-05
XKF5, 78388952, 0, 0, 0, 0, 0, 0.06, 0.04, 0, 0, 0.5, 0.006175751, 0.001180903, 0.002652559
XKFS, 78388952, 0, 0, 0, 0, 0, 0, 0, 0, 1
XKQ, 78388952, 0, 0.7717171, -0.0162939, 0.04130343, -0.6344141
XKF4, 78388952, 1, 0, 0, 0, 1.01, 0, 0.008346545, 0, 0, 0, 50, 67751, 143, 0
XKF1, 78388952, 1, -4.49, 2.56, 281, 0.003697284, 0.04277321, -0.01480294, -0.0134496, 0, 0, -0.02177492, -0.42, 0.26, -0.82, 0
XKF2, 78388952, 1, 0, 0, -0.01, 0, 0, 1000, -18, -1000, 0, 0, 0, 0, 0, 0
XKF3, 78388952, 1, 0, 0, 0, 0, 0.06, -0.19, 0, 0, 0, -87.11, 0, 0.000139826, 8.912427E-05
XKFS, 78388952, 1, 0, 0, 0, 0, 0, 0, 0, 1
XKQ, 78388952, 1, 0.7714202, -0.0160699, 0.04218757, -0.6347227
AHR2, 78390048, -5.14, 2.85, 289.18, -0.17, 15.3695456, 75.1235741, 0.8146061, -0.02213273, 0.04626908, -0.5777423
POS, 78390053, 15.3695472, 75.1235751, 590.12, 0.02935791, 0.01900066
MOTB, 78390058, 1, 1, 1, 0.0431117, 0, 2
RCIN, 78390064, 1495, 1495, 982, 1890, 982, 2006, 1495, 1495, 982, 1495, 982, 982, 1495, 1495
RCI2, 78390068, 1495, 1495, 0, 1
RCOU, 78390074, 1000, 1000, 1000, 1000, 0, 0, 0, 0, 1495, 0, 0, 0, 0, 0
RCO2, 78390077, 0, 0, 0, 0
VIBE, 78390082, 0, 0.03176991, 0.03833719, 0.03543361, 0
VIBE, 78390082, 1, 0.07419848, 0.086516, 0.09626466, 0
CTRL, 78390090, 0.04717981, 0.001056889, 0.02619254, 0.0005847401, 0.001801912
DCM, 78391441, -5.146081, 2.84841, 289.1881, 0.1569951, 0.9236971, 0, 0, 0
EAHR, 78391463, 0, 0, 0, 0, 0, 0, 0, 0, 0, 0
FILE, @SYS/threads.txt, 832, 64,      PRI=181 sp=0x24074F58 STACK=344/752\nIOMCU         PRI=183 s
FILE, @SYS/threads.txt, 896, 64, p=0x2406AB30 STACK=920/1456\nlog_io        PRI= 59 sp=0x2406B2C0 
IMU, 78409218, 0, -0.01330585, -0.005156672, -0.000956996, 0.4559767, 0.7470724, -9.830911, 0, 0, 44.32367, 1, 1, 2022, 2022
IMU, 78409218, 1, -0.01027519, 0.005329525, -0.001111549, 0.474196, 0.7530158, -9.763255, 0, 0, 45, 1, 1, 1999, 2045
FILE, @SYS/threads.txt, 960, 64, STACK=752/2016\nI2C1          PRI=176 sp=0x2406BBD0 STACK=984/145
RAD, 78424220, 65, 0, 100, 90, 0, 0, 0
FILE, @SYS/threads.txt, 1024, 64, 6\nI2C0          PRI=176 sp=0x2406C4A0 STACK=984/1456\nSPI1       
FILE, @SYS/threads.txt, 1088, 40,    PRI=181 sp=0x24070FC0 STACK=824/1456\n
SURF, 78439757, 0, 2, 0, 0, 0.01430313
SURF, 78439767, 1, 2, 0, 0, 0.01430313
IMU, 78449190, 0, -0.01166267, -0.006940583, -0.0004560054, 0.4028058, 0.77471, -9.840217, 0, 0, 44.80676, 1, 1, 2022, 2022
IMU, 78449190, 1, -0.008309348, 0.00717893, 0.0007138919, 0.406007, 0.7660469, -9.764902, 0, 0, 45, 1, 1, 1999, 2045
FILE, @SYS/timers.txt, 0, 64, TIMERV1\nTIM5  CLK= 200Mhz MODE=  PWM FREQ=       7 TGT=       8\n
STAK, 78460759, 5, 181, 1968, 1520, timer
FILE, @SYS/timers.txt, 64, 64, TIM4  CLK= 200Mhz MODE=  PWM FREQ=       7 TGT=       8\nTIM1  CL
FILE, @SYS/timers.txt, 128, 48, K= 200Mhz MODE=  PWM FREQ=       7 TGT=       8\n
POWR, 78489552, 4.934491, 0, 1, 1, 6
MCU, 78489552, 36.64016, 3.348676, 3.341655, 3.353326
BAT, 78489579, 0, 15.93554, 15.96148, 0.627989, 16.36898, 0.2632628, 0, 0.04129842, 99, 1, 0
MAG, 78489602, 0, 1536, -263, 28, -382, 367, 647, 0, 0, 0, 1, 78489601
MAG, 78489602, 1, -33, 458, 173, 59, 22, -40, 0, 0, 0, 1, 78489600
SURF, 78489639, 0, 2, 0, 0, 0.01454646
SURF, 78489648, 1, 2, 0, 0, 0.01454646
BARO, 78489668, 0, 0.03814697, 0.03814697, 93550.87, 36.43, -0.5001068, 78489, 0, 35, 1
CTUN, 78489680, 0, 0, 0, 0.431117, 0, 0.01963152, 0.03, NaN, 0, -57.54618, 0, 1
ATT, 78489737, 0.0002399534, -4.461596, 0.0002510326, 2.471923, 281.327, 281.327, 3
ANG, 78488786, 0.0002399534, -4.461596, 0.0002510326, 2.471923, 281.327, 281.327, 0.00251
RATE, 78488799, 20.03463, -0.1429442, 0.04761115, -11.1883, 0.005504598, -0.0265567, 0.2415079, 0.8776335, -0.00194627, -3.329182, 0.33741, 0, 0
PIDR, 78489754, 0.3496086, -0.002494847, 0.3521034, 0.04753397, 0, 7.718046E-05, 0, 0, 1, 2.353663, 9
PIDP, 78489761, -0.1952585, 9.607337E-05, -0.1953546, -0.02637287, 0, -0.0001838245, 0, 0, 1, 1.19492, 9
PIDY, 78489764, 0.004168101, 0.0153176, -0.01081261, -0.00194627, 0, 0, 0, 0, 1, 0.004714386, 9
PIDA, 78489768, -3.329182, -3.329182, 0, 0, -431.1174, 0, 0, 0, 1, 0, 13
XKF4, 78488957, 0, 0, 0, 0, 0.99, 0, 0.008412833, 0, 0, 0, 50, 67751, 143, 0
XKF1, 78488957, 0, -4.46, 2.47, 281.32, 0.004419483, -0.006872613, -0.01285495, -0.005434498, 0, 0, -0.01963152, -0.54, -0.35, -0.86, 0
XKF2, 78488957, 0, 0, 0, -0.07, 0, 0, 1000, -18, -1000, 0, 0, 0, 0, 0, 0
XKF3, 78488957, 0, 0, 0, 0, 0, 0, 0.01, 0, 0, 0, -85.63, 0, 0, 4.255195E-07
XKF5, 78488957, 0, 0, 0, 0, 0, 0.06, 0.04, 0, 0, 0.5, 0.006175862, 0.00107986, 0.00209264
XKFS, 78488957, 0, 0, 0, 0, 0, 0, 0, 0, 1
XKQ, 78488957, 0, 0.7732025, -0.0164367, 0.04133809, -0.6325969
XKF4, 78488957, 1, 0, 0, 0, 0.99, 0, 0.008420312, 0, 0, 0, 50, 67751, 143, 0
XKF1, 78488957, 1, -4.5, 2.56, 281.27, 0.003770831, 0.04329208, -0.01459671, -0.006452537, 0, 0, -0.02251936, -0.42, 0.26, -0.83, 0
XKF2, 78488957, 1, 0, 0, -0.01, 0, 0, 1000, -18, -1000, 0, 0, 0, 0, 0, 0
XKF3, 78488957, 1, 0, 0, 0, 0, 0.06, 0.01, 0, 0, 0, -85.69, 0, 0.0001617343, 4.375937E-07
XKFS, 78488957, 1, 0, 0, 0, 0, 0, 0, 0, 1
XKQ, 78488957, 1, 0.7729112, -0.01619227, 0.04222272, -0.6329008
AHR2, 78489912, -4.97, 3.17, 289.74, 0.02, 15.369546, 75.1235757, 0.8174754, -0.01955437, 0.04758082, -0.5736616
POS, 78489917, 15.3695468, 75.1235751, 590.21, 0.03814697, 0.01963152
MOTB, 78489922, 1, 1, 1, 0.0431117, 0, 2
RCIN, 78489928, 1495, 1495, 982, 1890, 982, 2006, 1495, 1495, 982, 1495, 982, 982, 1495, 1495
RCI2, 78489932, 1495, 1495, 0, 1
RCOU, 78489938, 1000, 1000, 1000, 1000, 0, 0, 0, 0, 1495, 0, 0, 0, 0, 0
RCO2, 78489941, 0, 0, 0, 0
VIBE, 78489946, 0, 0.02971773, 0.02377558, 0.02546723, 0
VIBE, 78489946, 1, 0.07060073, 0.07009816, 0.08126098, 0
CTRL, 78489954, 0.0472787, 0.0008788044, 0.02622882, 0.0004900755, 0.001836768
IMU, 78489964, 0, -0.0120916, -0.006165618, 0.0001722017, 0.4302692, 0.7655718, -9.843, 0, 0, 44.80676, 1, 1, 2022, 2022
IMU, 78489964, 1, -0.009952064, 0.006897047, 0.002075577, 0.4218299, 0.7775092, -9.788067, 0, 0, 45, 1, 1, 1999, 2045
DCM, 78491435, -4.969301, 3.18093, 289.7509, 0.1569951, 0.9353362, 0, 0, 0
EAHR, 78491454, 0, 0, 0, 0, 0, 0, 0, 0, 0, 0
FILE, @ROMFS/hwdef.dat, 0, 64, MCU STM32H7xx STM32H743xx\nOSCILLATOR_HZ 16000000\nSTM32_ST_USE_TI
FILE, @ROMFS/hwdef.dat, 64, 64, MER 2\nUSB_VENDOR 0x3162\nUSB_PRODUCT 0x0053\nUSB_STRING_MANUFACTUR
IMU, 78529201, 0, -0.01166752, -0.005527144, -0.001605093, 0.4439903, 0.7609918, -9.838055, 0, 0, 44.80676, 1, 1, 2022, 2022
IMU, 78529201, 1, -0.01121685, 0.002347208, -0.002214494, 0.4555322, 0.7713159, -9.796407, 0, 0, 45, 1, 1, 1999, 2045
FILE, @ROMFS/hwdef.dat, 128, 64, ER "Holybro"\nAPJ_BOARD_ID 56\nFLASH_RESERVE_START_KB 128\nenv USE_
SURF, 78539740, 0, 2, 0, 0, 0.01479476
SURF, 78539750, 1, 2, 0, 0, 0.01479476
FILE, @ROMFS/hwdef.dat, 192, 64, ALT_RAM_MAP 1\nFLASH_SIZE_KB 2048\nenv OPTIMIZE -O2\nSERIAL_ORDER O
FILE, @ROMFS/hwdef.dat, 256, 64, TG1 UART7 UART5 USART1 UART8 USART2 USART3 OTG2\nPA11 OTG_FS_DM O
STAK, 78561696, 6, 181, 944, 656, rcout
FILE, @ROMFS/hwdef.dat, 320, 64, TG1\nPA12 OTG_FS_DP OTG1\nPA9 VBUS INPUT OPENDRAIN\nPA13 JTMS-SWDIO
IMU, 78569193, 0, -0.01242101, -0.007314109, 0.0002107538, 0.4060636, 0.7656403, -9.840542, 0, 0, 44.80676, 1, 1, 2022, 2022
IMU, 78569193, 1, -0.009648249, 0.005216882, 0.001286876, 0.4208051, 0.7812777, -9.782474, 0, 0, 45, 1, 1, 1999, 2045
FILE, @ROMFS/hwdef.dat, 384, 64,  SWD\nPA14 JTCK-SWCLK SWD\nPE8  UART7_TX UART7\nPE7  UART7_RX UART7
GPS, 78589690, 0, 3, 129603000, 2380, 6, 3.17, 15.3695463, 75.1235749, 590.25, 0.799, 154.7735, -0.541, 0, 1
GPA, 78589690, 0, 4.73, 11.25, 19.33, 1.35, 0, 1, 78569, 200, 512.24, 0, 0
POWR, 78589704, 4.931469, 0, 1, 1, 6
MCU, 78589704, 36.66004, 3.349239, 3.341374, 3.355303
BAT, 78589735, 0, 15.94433, 15.97034, 0.6298198, 16.3865, 0.2635422, 0, 0.04129842, 99, 1, 0
MAG, 78589746, 0, 1305, -315, 28, -382, 367, 647, 0, 0, 0, 1, 78589745
MAG, 78589746, 1, -36, 456, 174, 59, 22, -40, 0, 0, 0, 1, 78589743
SURF, 78589764, 0, 2, 0, 0, 0.01505153
SURF, 78589773, 1, 2, 0, 0, 0.01505153
BARO, 78589798, 0, 0.07061768, 0.07061768, 93550.49, 36.43, -0.08558273, 78589, 0, 35, 1
CTUN, 78589811, 0, 0, 0, 0.431117, 0, 0.02051089, 0.07, NaN, 0, -57.54618, 0, 1
ATT, 78589933, 0.0002399534, -4.472796, 0.0002510326, 2.47755, 281.5962, 281.5962, 3
ANG, 78588781, 0.0002399534, -4.472796, 0.0002510326, 2.47755, 281.5962, 281.5962, 0.002505
RATE, 78588794, 20.08492, -0.1733791, 0.04785921, -11.21372, 0.005216157, -0.02668528, 0.238038, 0.9024133, -0.001930377, -3.329182, 0.5260468, 0, 0
PIDR, 78589950, 0.3504409, -0.003026037, 0.3534669, 0.04771803, 0, 0.0001411773, 0, 0, 1, 2.129427, 9
PIDP, 78589954, -0.1956492, 9.103911E-05, -0.1957402, -0.02642493, 0, -0.000260343, 0, 0, 1, 1.081079, 9
PIDY, 78589958, 0.004134071, 0.01575008, -0.01072432, -0.001930377, 0, 0, 0, 0, 1, 0.00426524, 9
PIDA, 78589961, -3.329182, -3.329182, 0, 0, -431.1174, 0, 0, 0, 1, 0, 13
XKF4, 78588949, 0, 0, 0, 0, 1.01, 0, 0.008487445, 0, 0, 0, 50, 67751, 143, 0
XKF1, 78588949, 0, -4.47, 2.47, 281.59, 0.004206864, -0.007171665, -0.01261293, -0.006677426, 0, 0, -0.02051089, -0.54, -0.35, -0.87, 0
XKF2, 78588949, 0, 0, 0, -0.07, 0, 0, 1000, -18, -1000, 0, 0, 0, 0, 0, 0
XKF3, 78588949, 0, 0, 0, 0, 0, 0, 0.02, 0, 0, 0, -87.39, 0, 0, 1.044454E-06
XKF5, 78588949, 0, 0, 0, 0, 0, 0.06, 0.04, 0, 0, 0.5, 0.006174739, 0.0009912502, 0.001709188
XKFS, 78588949, 0, 0, 0, 0, 0, 0, 0, 0, 1
XKQ, 78588949, 0, 0.7746854, -0.01657846, 0.04139899, -0.6307724
XKF4, 78588949, 1, 0, 0, 0, 1.01, 0, 0.008494678, 0, 0, 0, 50, 67751, 143, 0
XKF1, 78588949, 1, -4.51, 2.56, 281.54, 0.004436783, 0.04364307, -0.01492224, -0.008199054, 0, 0, -0.02354885, -0.42, 0.27, -0.83, 0
XKF2, 78588949, 1, 0, 0, -0.01, 0, 0, 1000, -18, -1000, 0, 0, 0, 0, 0, 0
XKF3, 78588949, 1, 0, 0, 0, 0, 0.07, 0.01, 0, 0, 0, -87.44, 0, 0.0001619034, 8.538702E-07
XKFS, 78588949, 1, 0, 0, 0, 0, 0, 0, 0, 1
XKQ, 78588949, 1, 0.7744015, -0.01636716, 0.04227372, -0.6310683
AHR2, 78590036, -4.79, 3.5, 290.31, 0.03, 15.3695456, 75.123576, 0.8203539, -0.0168367, 0.04899038, -0.569505
POS, 78590041, 15.3695468, 75.1235751, 590.21, 0.07061768, 0.02051089
MOTB, 78590046, 1, 1, 1, 0.0431117, 0, 2
RCIN, 78590052, 1495, 1495, 982, 1889, 982, 2006, 1495, 1495, 982, 1495, 982, 982, 1495, 1495
RCI2, 78590056, 1495, 1495, 0, 1
RCOU, 78590062, 1000, 1000, 1000, 1000, 0, 0, 0, 0, 1495, 0, 0, 0, 0, 0
RCO2, 78590065, 0, 0, 0, 0
VIBE, 78590070, 0, 0.02576098, 0.01721595, 0.01923488, 0
VIBE, 78590070, 1, 0.06463603, 0.06020872, 0.07574838, 0
CTRL, 78590084, 0.04737978, 0.0007222683, 0.02627425, 0.0004067157, 0.001856743
DCM, 78591417, -4.790384, 3.516543, 290.3223, 0.1895889, 0.9464916, 0, 0, 0
EAHR, 78591477, 0, 0, 0, 0, 0, 0, 0, 0, 0, 0
FILE, @ROMFS/hwdef.dat, 448, 64, \nPE9  UART7_RTS UART7 LOW PULLDOWN\nPE10 UART7_CTS UART7\nPC12 UAR
FILE, @ROMFS/hwdef.dat, 512, 64, T5_TX UART5\nPD2 UART5_RX UART5\nPC8 UART5_RTS UART5 LOW PULLDOWN\n
MAV, 78609204, 1, 105, 595, 0, 2, 0, 0
IMU, 78609233, 0, -0.01124275, -0.005760062, 0.0001504104, 0.4258506, 0.7651466, -9.811433, 0, 0, 44.32367, 1, 1, 2022, 2022
IMU, 78609233, 1, -0.009380374, 0.007501034, -7.057412E-05, 0.4424877, 0.7762772, -9.739877, 0, 0, 45, 1, 1, 1999, 2045
FILE, @ROMFS/hwdef.dat, 576, 64, PC9 UART5_CTS UART5\nPB6  USART1_TX USART1\nPA10 USART1_RX USART1\n
FILE, @ROMFS/hwdef.dat, 640, 64, PE1 UART8_TX UART8\nPE0 UART8_RX UART8\nPD5 USART2_TX USART2\nPA3 U
FILE, @ROMFS/hwdef.dat, 704, 64, SART2_RX USART2\nPD8 USART3_TX USART3\nPD9 USART3_RX USART3\nPC6 US
SURF, 78639750, 0, 2, 0, 0, 0.01531811
SURF, 78639760, 1, 2, 0, 0, 0.01531811
FILE, @ROMFS/hwdef.dat, 768, 64, ART6_TX USART6\nPC7 USART6_RX USART6\nIOMCU_UART USART6\nPC5 BATT_V
IMU, 78649223, 0, -0.008483403, -0.009446449, -0.001488504, 0.4383208, 0.7727041, -9.830553, 0, 0, 44.80676, 1, 1, 2022, 2022
IMU, 78649223, 1, -0.006220902, 0.001578722, 0.0005010999, 0.4518379, 0.7638606, -9.770698, 0, 0, 45, 1, 1, 1999, 2045
FILE, @ROMFS/hwdef.dat, 832, 64, OLTAGE_SENS ADC1 SCALE(1)\nPC4 BATT_CURRENT_SENS ADC1 SCALE(1)\nPB
STAK, 78665801, 7, 177, 1456, 816, rcin
FILE, @ROMFS/hwdef.dat, 896, 64, 1 BATT2_VOLTAGE_SENS ADC1 SCALE(1)\nPA2 BATT2_CURRENT_SENS ADC1 S
FILE, @ROMFS/hwdef.dat, 960, 64, CALE(1)\ndefine HAL_BATT_VOLT_PIN 8\ndefine HAL_BATT_CURR_PIN 4\nde
POWR, 78689594, 4.934088, 0, 1, 1, 6
MCU, 78689594, 36.66004, 3.348817, 3.341234, 3.355162
BAT, 78689607, 0, 15.96282, 15.99054, 0.6609446, 16.40484, 0.2638349, 0, 0.04194422, 99, 1, 0
MAG, 78689618, 0, 1189, -364, -34, -382, 367, 647, 0, 0, 0, 1, 78689617
MAG, 78689618, 1, -35, 457, 177, 59, 22, -40, 0, 0, 0, 1, 78689616
SURF, 78689639, 0, 2, 0, 0, 0.01559825
SURF, 78689648, 1, 2, 0, 0, 0.01559825
BARO, 78689668, 0, -0.03240967, -0.03240967, 93551.66, 36.43, 0.3244018, 78689, 0, 35, 1
CTUN, 78689681, 0, 0, 0, 0.431117, 0, 0.02168488, -0.03, NaN, 0, -57.50282, 0, 1
DU32, 78689697, 7, 6349272
TERR, 78689725, 2, 15.3695463, 75.1235749, 100, 647.7528, -57.50282, 0, 336, 0
ATT, 78689816, 0.0002399533, -4.464819, 0.0002510326, 2.473325, 281.8652, 281.8652, 3
ANG, 78688788, 0.0002399533, -4.464819, 0.0002510326, 2.473325, 281.8652, 281.8652, 0.002501
RATE, 78688803, 20.04919, 0.1239042, 0.04716541, -11.19448, -0.14106, -0.02634684, 0.2384589, 0.8931906, -0.001905147, -3.329182, 1.715755, 0, 0
PIDR, 78689833, 0.3500205, 0.002162537, 0.347858, 0.04696083, 0, 0.0002045801, 0, 0, 1, 1.926531, 9
PIDP, 78689837, -0.1954075, -0.002461961, -0.1929456, -0.02604765, 0, -0.0002991886, 0, 0, 1, 0.9780711, 9
PIDY, 78689840, 0.004161677, 0.01558912, -0.01058415, -0.001905147, 0, 0, 0, 0, 1, 0.00385884, 9
PIDA, 78689844, -3.329182, -3.329182, 0, 0, -431.1174, 0, 0, 0, 1, 0, 13
FMT, 254, 35, IOMC, QHHIIIII, TimeUS,RSErr,Mem,TS,NPkt,Nerr,Nerr2,NDel
IOMC, 78689857, 0, 12896, 78692, 36678, 0, 0, 0
XKF4, 78688960, 0, 0, 0, 0, 1.05, 0, 0.008562686, 0, 0, 0, 50, 67751, 143, 0
XKF1, 78688960, 0, -4.46, 2.47, 281.86, 0.004496509, -0.007157797, -0.01255994, -0.0108304, 0, 0, -0.02168488, -0.54, -0.35, -0.87, 0
XKF2, 78688960, 0, 0, 0, -0.07, 0, 0, 1000, -18, -1000, 0, 0, 0, 0, 0, 0
XKF3, 78688960, 0, 0, 0, 0, 0, 0, 0.05, 0, 0, 0, -90.96, 0, 0, 6.543035E-06
XKF5, 78688960, 0, 0, 0, 0, 0, 0.07, 0.04, 0, 0, 0.5, 0.006174453, 0.0008938307, 0.001493859
XKFS, 78688960, 0, 0, 0, 0, 0, 0, 0, 0, 1
XKQ, 78688960, 0, 0.7761652, -0.01664482, 0.04128759, -0.6289561
XKF4, 78688960, 1, 0, 0, 0, 1.05, 0, 0.008569643, 0, 0, 0, 50, 67751, 143, 0
XKF1, 78688960, 1, -4.5, 2.56, 281.81, 0.004476454, 0.04396417, -0.01455609, -0.01204138, 0, 0, -0.02485465, -0.42, 0.27, -0.84, 0
XKF2, 78688960, 1, 0, 0, -0.01, 0, 0, 1000, -18, -1000, 0, 0, 0, 0, 0, 0
XKF3, 78688960, 1, 0, 0, 0, 0, 0.07, 0.04, 0, 0, 0, -91.01, 0, 0.0001619034, 6.020704E-06
XKFS, 78688960, 1, 0, 0, 0, 0, 0, 0, 0, 1
XKQ, 78688960, 1, 0.775903, -0.01643286, 0.04213445, -0.6292291
AHR2, 78690043, -5.03, 3.33, 290.85, 0.07, 15.3695448, 75.1235746, 0.8230103, -0.01966495, 0.04883227, -0.5655817
POS, 78690047, 15.3695463, 75.1235749, 590.25, -0.03240967, 0.02168488
MOTB, 78690052, 1, 1, 1, 0.0431117, 0, 2
RCIN, 78690058, 1495, 1495, 982, 1915, 982, 2006, 1495, 1495, 982, 1495, 982, 982, 1495, 1495
RCI2, 78690062, 1495, 1495, 0, 1
RCOU, 78690068, 1000, 1000, 1000, 1000, 0, 0, 0, 0, 1495, 0, 0, 0, 0, 0
RCO2, 78690071, 0, 0, 0, 0
VIBE, 78690076, 0, 0.02016457, 0.0203165, 0.02045969, 0
VIBE, 78690076, 1, 0.06705494, 0.05740313, 0.07693577, 0
CTRL, 78690084, 0.04732889, 0.000618198, 0.02624409, 0.0003773294, 0.001874391
IMU, 78690095, 0, -0.00742792, -0.008709355, 0.0002380806, 0.4135452, 0.7766369, -9.856647, 0, 0, 44.80676, 1, 1, 2022, 2022
IMU, 78690095, 1, -0.004408876, 0.001774275, 0.001603156, 0.4302395, 0.7828797, -9.796899, 0, 0, 45, 1, 1, 1999, 2045
UART, 78690178, 1, 20, 182
UART, 78690182, 2, 20, 0
UART, 78690186, 3, 0, 653
UART, 78690190, 100, 8371, 5164
DCM, 78691446, -5.04083, 3.327669, 290.8658, 0.1895889, 0.9565758, 0, 0, 0
EAHR, 78691465, 0, 0, 0, 0, 0, 0, 0, 0, 0, 0
FILE, @ROMFS/hwdef.dat, 1024, 64, fine HAL_BATT_VOLT_SCALE 18.18\ndefine HAL_BATT_CURR_SCALE 36.36\n
FILE, @ROMFS/hwdef.dat, 1088, 64, PA4 VDD_5V_SENS  ADC1 SCALE(2)\nPA5 SPI1_SCK SPI1\nPA6 SPI1_MISO S
FILE, @ROMFS/hwdef.dat, 1152, 64, PI1\nPA7 SPI1_MOSI SPI1\nPC13 ICM42688_CS CS\nPC14 BMI055_G_CS CS\nP
FILE, @ROMFS/hwdef.dat, 1216, 64, C15 BMI055_A_CS CS\nPE4  BMI055_DRDY_A INPUT\nPE5  BMI055_DRDY_G I
IMU, 78729237, 0, -0.01405735, -0.005222392, -0.0006461121, 0.4172757, 0.7341447, -9.84054, 0, 0, 44.80676, 1, 1, 2022, 2022
IMU, 78729237, 1, -0.01210394, 0.0063857, 0.0003095676, 0.4263265, 0.7147409, -9.792346, 0, 0, 45, 1, 1, 1999, 2045
FILE, @ROMFS/hwdef.dat, 1280, 64, NPUT\nPE6  ICM42688_DRDY INPUT\nPD3 SPI2_SCK SPI2\nPC2 SPI2_MISO SP
SURF, 78739769, 0, 2, 0, 0, 0.01589547
SURF, 78739782, 1, 2, 0, 0, 0.01589547
FILE, @ROMFS/hwdef.dat, 1344, 64, I2\nPC3 SPI2_MOSI SPI2\nPD4 FRAM_CS CS\nPA8  TIM1_CH1 TIM1 PWM(1) G
FILE, @ROMFS/hwdef.dat, 1408, 64, PIO(50)\nPE11 TIM1_CH2 TIM1 PWM(2) GPIO(51)\nPE13 TIM1_CH3 TIM1 PW
STAK, 78766770, 8, 58, 2480, 1576, io
IMU, 78769231, 0, -0.01250176, -0.00615912, -0.001133543, 0.4198201, 0.7882226, -9.833606, 0, 0, 44.32367, 1, 1, 2022, 2022
IMU, 78769231, 1, -0.01161242, 0.004490455, -4.053924E-05, 0.4413235, 0.804549, -9.803235, 0, 0, 45, 1, 1, 1999, 2045
FILE, @ROMFS/hwdef.dat, 1472, 64, M(3) GPIO(52)\nPE14 TIM1_CH4 TIM1 PWM(4) GPIO(53)\nPD14 TIM4_CH3 T
FILE, @ROMFS/hwdef.dat, 1536, 64, IM4 PWM(5) GPIO(54)\nPD15 TIM4_CH4 TIM4 PWM(6) GPIO(55)\nPA0  TIM5
GPS, 78789698, 0, 3, 129603200, 2380, 6, 3.17, 15.3695459, 75.1235745, 590.35, 0.393, 154.7735, -0.559, 0, 1
GPA, 78789698, 0, 4.73, 11.26, 19.34, 1.26, 0, 1, 78769, 200, 512.34, 0, 0
POWR, 78789712, 4.943655, 0, 1, 1, 6
MCU, 78789712, 36.67992, 3.348817, 3.341374, 3.354456
BAT, 78789724, 0, 15.96804, 15.99635, 0.6750424, 16.42361, 0.2641347, 0, 0.04194422, 99, 1, 0
MAG, 78789740, 0, 1161, -371, -83, -382, 367, 647, 0, 0, 0, 1, 78789739
MAG, 78789740, 1, -36, 456, 178, 59, 22, -40, 0, 0, 0, 1, 78789738
SURF, 78789760, 0, 2, 0, 0, 0.01620374
SURF, 78789772, 1, 2, 0, 0, 0.01620374
BARO, 78789821, 0, 0.04406738, 0.04406738, 93550.8, 36.43, 0.2371979, 78789, 0, 35, 1
CTUN, 78789834, 0, 0, 0, 0.431117, 0, 0.02262466, 0.04, NaN, 0, -57.50282, 0, 1
ATT, 78789886, 0.0002399534, -4.474091, 0.0002510326, 2.477673, 282.1331, 282.1331, 3
ANG, 78788778, 0.0002399534, -4.474091, 0.0002510326, 2.477673, 282.1331, 282.1331, 0.002502
RATE, 78788797, 20.09091, -0.0008733037, 0.04678528, -11.21431, -0.1107109, -0.0259103, 0.2370767, 0.8351912, -0.001881694, -3.329182, -1.220036, 0, 0
PIDR, 78789920, 0.3507367, -1.524203E-05, 0.350752, 0.04735152, 0, -0.0005662348, 0, 0, 1, 1.742997, 9
PIDP, 78789925, -0.1957825, -0.001932269, -0.1938503, -0.02616979, 0, 0.0002594879, 0, 0, 1, 0.8848934, 9
PIDY, 78789941, 0.004121077, 0.01457684, -0.01045385, -0.001881694, 0, 0, 0, 0, 1, 0.00349122, 9
PIDA, 78789944, -3.329182, -3.329182, 0, 0, -431.1174, 0, 0, 0, 1, 0, 13
XKF4, 78788906, 0, 0, 0, 0, 1.09, 0, 0.008634378, 0, 0, 0, 50, 67751, 143, 0
XKF1, 78788906, 0, -4.47, 2.47, 282.13, 0.004733574, -0.007216913, -0.01178995, -0.01069074, 0, 0, -0.02262466, -0.54, -0.35, -0.88, 0
XKF2, 78788906, 0, 0, 0, -0.07, 0, 0, 1000, -18, -1000, 0, 0, 0, 0, 0, 0
XKF3, 78788906, 0, 0, 0, 0, 0, -0.01, -0.05, 0, 0, 0, -94.35, 0, 0, 7.010908E-06
XKF5, 78788906, 0, 0, 0, 0, 0, 0.07, 0.04, 0, 0, 0.5, 0.006174217, 0.0009874563, 0.001616702
XKFS, 78788906, 0, 0, 0, 0, 0, 0, 0, 0, 1
XKQ, 78788906, 0, 0.7776321, -0.01678035, 0.04132878, -0.6271353
XKV1, 78788906, 0, 0.0001673425, 9.297031E-06, 8.574333E-06, 0.000237424, 0.1273352, 0.1277927, 0.02254442, 0.3149483, 0.3150036, 0.2940055, 4.659034E-11, 4.880096E-11
XKV2, 78788906, 0, 5.836481E-10, 6.187771E-06, 6.187629E-06, 6.192711E-08, 0, 0, 0, 0, 0, 0, 0, 0
XKF4, 78788906, 1, 0, 0, 0, 1.09, 0, 0.00864089, 0, 0, 0, 50, 67751, 143, 0
XKF1, 78788906, 1, -4.51, 2.56, 282.08, 0.004125771, 0.04437391, -0.01443514, -0.01251077, 0, 0, -0.02592502, -0.42, 0.27, -0.84, 0
XKF2, 78788906, 1, 0, 0, -0.01, 0, 0, 1000, -18, -1000, 0, 0, 0, 0, 0, 0
XKF3, 78788906, 1, 0, 0, 0, 0, 0.08, -0.05, 0, 0, 0, -94.41, 0, 0.0001777498, 7.62038E-06
XKFS, 78788906, 1, 0, 0, 0, 0, 0, 0, 0, 1
XKQ, 78788906, 1, 0.7773836, -0.0166025, 0.04217068, -0.6273921
AHR2, 78790054, -5.3, 3.15, 291.4, -0.03, 15.3695441, 75.1235744, 0.8256286, -0.02269991, 0.04878539, -0.5616422
POS, 78790059, 15.3695463, 75.1235749, 590.25, 0.04406738, 0.02262466
