FMT, 128, 89, FMT, BBnNZ, Type,Length,Name,Format,Columns
FMT, 119, 76, UNIT, QbZ, TimeUS,Id,Label
FMT, 118, 44, FMTU, QBNN, TimeUS,FmtType,UnitIds,MultIds
FMT, 120, 20, MULT, Qbd, TimeUS,Id,Mult
FMT, 32, 35, PARM, QNff, TimeUS,Name,Value,Default
FMT, 94, 51, GPS, QBBIHBcLLeffffB, TimeUS,I,Status,GMS,GWk,NSats,HDop,Lat,Lng,Alt,Spd,GCrs,VZ,Yaw,U
FMT, 95, 39, GPA, QBCCCCfBIHeHH, TimeUS,I,VDop,HAcc,VAcc,SAcc,YAcc,VV,SMS,Delta,AEl,RTCMFU,RTCMFD
FMT, 99, 22, UBX1, QBHBBHI, TimeUS,Instance,noisePerMS,jamInd,aPower,agcCnt,config
FMT, 100, 16, UBX2, QBbBbB, TimeUS,Instance,ofsI,magI,ofsQ,magQ
FMT, 96, 42, GRAW, QIHBBddfBbB, TimeUS,WkMS,Week,numSV,sv,cpMes,prMes,doMes,mesQI,cno,lli
FMT, 97, 24, GRXH, QdHbBB, TimeUS,rcvTime,week,leapS,numMeas,recStat
FMT, 98, 41, GRXS, QddfBBBHBBBBB, TimeUS,prMes,cpMes,doMes,gnss,sv,freq,lock,cno,prD,cpD,doD,trk
FMT, 101, 23, SBPH, QIII, TimeUS,CrcError,LastInject,IARhyp
FMT, 102, 67, SBRH, QQQQQQQQ, TimeUS,msg_flag,1,2,3,4,5,6
FMT, 103, 123, SBRM, QQQQQQQQQQQQQQQ, TimeUS,msg_flag,1,2,3,4,5,6,7,8,9,10,11,12,13
FMT, 104, 23, SBRE, QHIiBB, TimeUS,GWk,GMS,ns_residual,level,quality
FMT, 59, 75, MSG, QZ, TimeUS,Message
FMT, 60, 39, RCIN, QHHHHHHHHHHHHHH, TimeUS,C1,C2,C3,C4,C5,C6,C7,C8,C9,C10,C11,C12,C13,C14
FMT, 61, 18, RCI2, QHHHB, TimeUS,C15,C16,OMask,Flags
FMT, 62, 39, RCOU, QHHHHHHHHHHHHHH, TimeUS,C1,C2,C3,C4,C5,C6,C7,C8,C9,C10,C11,C12,C13,C14
FMT, 207, 19, RCO2, QHHHH, TimeUS,C15,C16,C17,C18
FMT, 208, 39, RCO3, QHHHHHHHHHHHHHH, TimeUS,C19,C20,C21,C22,C23,C24,C25,C26,C27,C28,C29,C30,C31,C32
FMT, 63, 19, RSSI, Qff, TimeUS,RXRSSI,RXLQ
FMT, 64, 43, BARO, QBfffcfIffB, TimeUS,I,Alt,AltAMSL,Press,Temp,CRt,SMS,Offset,GndTemp,Health
FMT, 65, 24, BARD, QBfff, TimeUS,I,DynPrX,DynPrY,DynPrZ
FMT, 66, 25, CANF, QBIBBBBBBBBB, TimeUS,Bus,Id,DLC,B0,B1,B2,B3,B4,B5,B6,B7
FMT, 67, 81, CAFD, QBIBQQQQQQQQ, TimeUS,Bus,Id,DLC,D0,D1,D2,D3,D4,D5,D6,D7
FMT, 196, 50, PL, QBBfffffffIIB, TimeUS,Heal,TAcq,pX,pY,vX,vY,mX,mY,mZ,LastMeasMS,EKFOutl,Est
FMT, 68, 24, POWR, QffHHB, TimeUS,Vcc,VServo,Flags,AccFlags,Safety
FMT, 69, 27, MCU, Qffff, TimeUS,MTemp,MVolt,MVmin,MVmax
FMT, 93, 46, CMD, QHHHffffLLfB, TimeUS,CTot,CNum,CId,Prm1,Prm2,Prm3,Prm4,Lat,Lng,Alt,Frame
FMT, 92, 46, MISE, QHHHffffLLfB, TimeUS,CTot,CNum,CId,Prm1,Prm2,Prm3,Prm4,Lat,Lng,Alt,Frame
FMT, 78, 48, MAVC, QBBBBBHffffiifBB, TimeUS,TS,TC,SS,SC,Fr,Cmd,P1,P2,P3,P4,X,Y,Z,Res,WL
FMT, 79, 20, RAD, QBBBBBHH, TimeUS,RSSI,RemRSSI,TxBuf,Noise,RemNoise,RxErrors,Fixed
FMT, 81, 46, CAM, QBHIHLLeeeccC, TimeUS,I,Img,GPSTime,GPSWeek,Lat,Lng,Alt,RelAlt,GPSAlt,R,P,Y
FMT, 82, 46, TRIG, QBHIHLLeeeccC, TimeUS,I,Img,GPSTime,GPSWeek,Lat,Lng,Alt,RelAlt,GPSAlt,R,P,Y
FMT, 83, 48, MNT, QBfffffffff, TimeUS,I,DRoll,Roll,DPitch,Pitch,DYawB,YawB,DYawE,YawE,Dist
FMT, 114, 41, ARSP, QBffcffBBffB, TimeUS,I,Airspeed,DiffPress,Temp,RawPress,Offset,U,H,Hp,TR,Pri
FMT, 88, 41, BAT, QBfffffcfBBB, TimeUS,Inst,Volt,VoltR,Curr,CurrTot,EnrgTot,Temp,Res,RemPct,H,SH
FMT, 89, 40, BCL, QBfHHHHHHHHHHHH, TimeUS,Instance,Volt,V1,V2,V3,V4,V5,V6,V7,V8,V9,V10,V11,V12
FMT, 113, 35, MAG, QBhhhhhhhhhBI, TimeUS,I,MagX,MagY,MagZ,OfsX,OfsY,OfsZ,MOX,MOY,MOZ,Health,S
FMT, 122, 14, MODE, QMBB, TimeUS,Mode,ModeNum,Rsn
FMT, 116, 17, RFND, QBCBBb, TimeUS,Instance,Dist,Stat,Orient,Quality
FMT, 117, 36, DMS, QIIIIBBBBBBBBB, TimeUS,N,Dp,RT,RS,Fa,Fmn,Fmx,Pa,Pmn,Pmx,Sa,Smn,Smx
FMT, 174, 41, BCN, QBBfffffff, TimeUS,Health,Cnt,D0,D1,D2,D3,PosX,PosY,PosZ
FMT, 175, 57, PRX, QBBfffffffffff, TimeUS,Layer,He,D0,D45,D90,D135,D180,D225,D270,D315,DUp,CAn,CDis
FMT, 176, 44, PRXR, QBffffffff, TimeUS,Layer,D0,D45,D90,D135,D180,D225,D270,D315
FMT, 179, 61, PM, QHHHIIHHIIIIIIQ, TimeUS,LR,NLon,NL,MaxT,Mem,Load,ErrL,InE,ErC,SPIC,I2CC,I2CI,Ex,R
FMT, 178, 29, SRTL, QBHHBfff, TimeUS,Active,NumPts,MaxPts,Action,N,E,D
FMT, 170, 48, OABR, QBBHHHBfLLiLLi, TimeUS,Type,Act,DYaw,Yaw,DP,RChg,Mar,DLt,DLg,DAlt,OLt,OLg,OAlt
FMT, 171, 31, OADJ, QBBBBLLLL, TimeUS,State,Err,CurrPoint,TotPoints,DLat,DLng,OALat,OALng
FMT, 172, 37, SA, QBffffffB, TimeUS,State,DVelX,DVelY,DVelZ,MVelX,MVelY,MVelZ,Back
FMT, 173, 21, OAVG, QBBLL, TimeUS,version,point_num,Lat,Lon
FMT, 77, 45, SIM, QccCfLLffff, TimeUS,Roll,Pitch,Yaw,Alt,Lat,Lng,Q1,Q2,Q3,Q4
FMT, 84, 38, TERR, QBLLHffHHf, TimeUS,Status,Lat,Lng,Spacing,TerrH,CHeight,Pending,Loaded,ROfs
FMT, 86, 40, ESC, QBffffcfcf, TimeUS,Instance,RPM,RawRPM,Volt,Curr,Temp,CTot,MotTemp,Err
FMT, 87, 15, EDT2, QBBBB, TimeUS,Instance,Stress,MaxStress,Status
FMT, 85, 46, CSRV, QBfffBfffffB, TimeUS,Id,Pos,Force,Speed,Pow,PosCmd,V,A,MotT,PCBT,Err
FMT, 105, 52, PIDR, QffffffffffB, TimeUS,Tar,Act,Err,P,I,D,FF,DFF,Dmod,SRate,Flags
FMT, 106, 52, PIDP, QffffffffffB, TimeUS,Tar,Act,Err,P,I,D,FF,DFF,Dmod,SRate,Flags
FMT, 107, 52, PIDY, QffffffffffB, TimeUS,Tar,Act,Err,P,I,D,FF,DFF,Dmod,SRate,Flags
FMT, 108, 52, PIDA, QffffffffffB, TimeUS,Tar,Act,Err,P,I,D,FF,DFF,Dmod,SRate,Flags
FMT, 109, 52, PIDS, QffffffffffB, TimeUS,Tar,Act,Err,P,I,D,FF,DFF,Dmod,SRate,Flags
FMT, 110, 52, PIDN, QffffffffffB, TimeUS,Tar,Act,Err,P,I,D,FF,DFF,Dmod,SRate,Flags
FMT, 111, 52, PIDE, QffffffffffB, TimeUS,Tar,Act,Err,P,I,D,FF,DFF,Dmod,SRate,Flags
FMT, 112, 56, DSTL, QBfLLeccfeffff, TimeUS,Stg,THdg,Lat,Lng,Alt,XT,Travel,L1I,Loiter,Des,P,I,D
FMT, 161, 32, ACC, QBQfff, TimeUS,I,SampleUS,AccX,AccY,AccZ
FMT, 162, 32, GYR, QBQfff, TimeUS,I,SampleUS,GyrX,GyrY,GyrZ
FMT, 163, 54, IMU, QBffffffIIfBBHH, TimeUS,I,GyrX,GyrY,GyrZ,AccX,AccY,AccZ,EG,EA,T,GH,AH,GHz,AHz
FMT, 166, 28, VIBE, QBfffI, TimeUS,IMU,VibeX,VibeY,VibeZ,Clip
FMT, 164, 31, ISBH, QHBBHHQf, TimeUS,N,type,instance,mul,smp_cnt,SampleUS,smp_rate
FMT, 165, 207, ISBD, QHHaaa, TimeUS,N,seqno,x,y,z
FMT, 129, 15, RFRH, QI, TimeUS,TF
FMT, 130, 5, RFRF, BB, FTypes,Slow
FMT, 138, 38, RFRN, IIIfIfffBBB, HLat,HLon,HAlt,E2T,AM,TX,TY,TZ,VC,EKT,Flags
FMT, 131, 4, REV2, B, Event
FMT, 132, 15, RSO2, III, Lat,Lon,Alt
FMT, 133, 11, RWA2, ff, Airspeed,uncertainty
FMT, 134, 4, REV3, B, Event
FMT, 135, 15, RSO3, III, Lat,Lon,Alt
FMT, 136, 11, RWA3, ff, Airspeed,Uncertainty
FMT, 137, 16, REY3, ffIB, yawangle,yawangleerr,timestamp_ms,type
FMT, 139, 13, RISH, HBBfBB, LR,PG,PA,LD,AC,GC
FMT, 140, 37, RISI, ffffffffBB, DVX,DVY,DVZ,DAX,DAY,DAZ,DVDT,DADT,Flags,I
FMT, 148, 5, RASH, BB, Primary,NumInst
FMT, 149, 14, RASI, fIBBB, pd,UpdateMS,H,Use,I
FMT, 141, 5, RBRH, BB, Primary,NumInst
FMT, 142, 13, RBRI, IfBB, LastUpdate,Alt,H,I
FMT, 143, 8, RRNH, hhB, GCl,MaxD,NumSensors
FMT, 144, 20, RRNI, fffHBBB, PX,PY,PZ,Dist,Orient,Status,I
FMT, 145, 5, RGPH, BB, NumInst,Primary
FMT, 146, 23, RGPI, ffffBBBB, OX,OY,OZ,Lg,Flags,Stat,NSats,I
FMT, 147, 58, RGPJ, IffffffIiiiffHB, TS,VX,VY,VZ,SA,Y,YA,YT,Lat,Lon,Alt,HA,VA,HD,I
FMT, 153, 14, RMGH, fBBBBBBB, Dec,Avail,NumInst,AutoDec,NumEna,LOE,C,FUsable
FMT, 154, 35, RMGI, IffffffBBBB, LU,OX,OY,OZ,FX,FY,FZ,UFY,H,HSF,I
FMT, 150, 33, RBCH, ffffiiiBB, PX,PY,PZ,AE,OLat,OLng,OAlt,Flags,NumInst
FMT, 151, 25, RBCI, IffffBB, LU,PX,PY,PZ,Dist,H,I
FMT, 152, 21, RVOH, fffIBB, OX,OY,OZ,Del,H,Ena
FMT, 155, 40, ROFH, ffffIffffB, FX,FY,GX,GY,Tms,PX,PY,PZ,HgtOvr,Qual
FMT, 156, 49, REPH, fffffffffIIH, PX,PY,PZ,Q1,Q2,Q3,Q4,PEr,AEr,TS,RT,D
FMT, 157, 19, RSLL, IIfI, Lat,Lng,PosAccSD,TS
FMT, 158, 25, REVH, ffffIH, VX,VY,VZ,Er,TS,D
FMT, 159, 31, RWOH, ffIffff, DA,DT,TS,PX,PY,PZ,R
FMT, 160, 53, RBOH, ffffffffIfffH, Q,DPX,DPY,DPZ,DAX,DAY,DAZ,DT,TS,OX,OY,OZ,D
FMT, 43, 37, XKF0, QBBccCCcccccccc, TimeUS,C,ID,rng,innov,SIV,TR,BPN,BPE,BPD,OFH,OFL,OFN,OFE,OFD
FMT, 44, 56, XKF1, QBccCfffffffccce, TimeUS,C,Roll,Pitch,Yaw,VN,VE,VD,dPD,PN,PE,PD,GX,GY,GZ,OH
FMT, 45, 46, XKF2, QBccccchhhhhhfff, TimeUS,C,AX,AY,AZ,VWN,VWE,MN,ME,MD,MX,MY,MZ,IDX,IDY,IS
FMT, 46, 42, XKF3, QBcccccchhhccff, TimeUS,C,IVN,IVE,IVD,IPN,IPE,IPD,IMX,IMY,IMZ,IYAW,IVT,RErr,ErSc
FMT, 47, 44, XKF4, QBcccccfffHBIHb, TimeUS,C,SV,SP,SH,SM,SVT,errRP,OFN,OFE,FS,TS,SS,GPS,PI
FMT, 48, 41, XKF5, QBBhhhcccCCfff, TimeUS,C,NI,FIX,FIY,AFI,HAGL,offset,RI,rng,Herr,eAng,eVel,ePos
FMT, 49, 36, XKFD, QBffffff, TimeUS,C,IX,IY,IZ,IVX,IVY,IVZ
FMT, 50, 29, XKFM, QBBffff, TimeUS,C,OGNM,GLR,ALR,GDR,ADR
FMT, 51, 20, XKFS, QBBBBBBBBB, TimeUS,C,MI,BI,GI,AI,SS,GPS_GTA,GPS_CHK_WAIT,MAG_FUSION
FMT, 52, 28, XKQ, QBffff, TimeUS,C,Q1,Q2,Q3,Q4
FMT, 53, 48, XKT, QBIffffffff, TimeUS,C,Cnt,IMUMin,IMUMax,EKFMin,EKFMax,AngMin,AngMax,VMin,VMax
FMT, 54, 20, XKTV, QBff, TimeUS,C,TVS,TVD
FMT, 55, 60, XKV1, QBffffffffffff, TimeUS,C,V00,V01,V02,V03,V04,V05,V06,V07,V08,V09,V10,V11
FMT, 56, 60, XKV2, QBffffffffffff, TimeUS,C,V12,V13,V14,V15,V16,V17,V18,V19,V20,V21,V22,V23
FMT, 57, 60, XKY0, QBffffffffffff, TimeUS,C,YC,YCS,Y0,Y1,Y2,Y3,Y4,W0,W1,W2,W3,W4
FMT, 58, 52, XKY1, QBffffffffff, TimeUS,C,IVN0,IVN1,IVN2,IVN3,IVN4,IVE0,IVE1,IVE2,IVE3,IVE4
FMT, 41, 60, NKY0, QBffffffffffff, TimeUS,C,YC,YCS,Y0,Y1,Y2,Y3,Y4,W0,W1,W2,W3,W4
FMT, 42, 52, NKY1, QBffffffffff, TimeUS,C,IVN0,IVN1,IVN2,IVN3,IVN4,IVE0,IVE1,IVE2,IVE3,IVE4
FMT, 70, 45, AHR2, QccCfLLffff, TimeUS,Roll,Pitch,Yaw,Alt,Lat,Lng,Q1,Q2,Q3,Q4
FMT, 71, 19, AOA, Qff, TimeUS,AOA,SSA
FMT, 72, 36, ATT, QffffffB, TimeUS,DesRoll,Roll,DesPitch,Pitch,DesYaw,Yaw,AEKF
FMT, 73, 24, ORGN, QBLLe, TimeUS,Type,Lat,Lng,Alt
FMT, 74, 31, POS, QLLfff, TimeUS,Lat,Lng,Alt,RelHomeAlt,RelOriginAlt
FMT, 76, 35, ATSC, Qffffff, TimeUS,AngPScX,AngPScY,AngPScZ,PDScX,PDScY,PDScZ
FMT, 204, 51, VSTB, Qffffffffff, TimeUS,GyrX,GyrY,GyrZ,AccX,AccY,AccZ,Q1,Q2,Q3,Q4
FMT, 90, 38, MON, QIbIHHHHHII, TimeUS,Dly,Tsk,IErr,IErrCnt,IErrLn,MM,MC,SmLn,SPICnt,I2CCnt
FMT, 91, 47, WDOG, QbIHHHHHHHIBIIn, TimeUS,Tsk,IE,IEC,IEL,MvMsg,MvCmd,SmLn,FL,FT,FA,FP,ICSR,LR,TN
FMT, 210, 20, UART, QBff, TimeUS,I,Tx,Rx
FMT, 115, 21, RPM, QBffB, TimeUS,I,RPM,Qual,H
FMT, 209, 27, FNCE, QBBBLLBf, TimeUS,Tot,Seq,Type,Lat,Lng,Count,Radius
FMT, 177, 33, DSF, QIHIIII, TimeUS,Dp,Blk,Bytes,FMn,FMx,FAv
FMT, 121, 24, RALY, QBBLLhB, TimeUS,Tot,Seq,Lat,Lng,Alt,Flags
FMT, 183, 23, MAV, QBHHHBHH, TimeUS,chan,txp,rxp,rxdp,flags,ss,tf
FMT, 167, 43, VISO, Qffffffff, TimeUS,dt,AngDX,AngDY,AngDZ,PosDX,PosDY,PosDZ,conf
FMT, 168, 58, VISP, QQIffffffffBBb, TimeUS,RTimeUS,CTimeMS,PX,PY,PZ,R,P,Y,PErr,AErr,Rst,Ign,Q
FMT, 169, 42, VISV, QQIffffBBb, TimeUS,RTimeUS,CTimeMS,VX,VY,VZ,VErr,Rst,Ign,Q
FMT, 180, 28, OF, QBffff, TimeUS,Qual,flowX,flowY,bodyX,bodyY
FMT, 182, 21, WENC, Qfbfb, TimeUS,Dist0,Qual0,Dist1,Qual1
FMT, 185, 35, ADSB, QIiiiHHhH, TimeUS,ICAO_address,Lat,Lng,Alt,Heading,Hor_vel,Ver_vel,Squark
FMT, 181, 12, EV, QB, TimeUS,Id
FMT, 186, 18, ARM, QBIBB, TimeUS,ArmState,ArmChecks,Forced,Method
FMT, 184, 13, ERR, QBB, TimeUS,Subsys,ECode
FMT, 187, 35, WINC, QBBBBBfffHfb, TimeUS,Heal,ThEnd,Mov,Clut,Mode,DLen,Len,DRate,Tens,Vcc,Temp
FMT, 188, 47, PSCN, Qfffffffff, TimeUS,DPN,TPN,PN,DVN,TVN,VN,DAN,TAN,AN
FMT, 189, 47, PSCE, Qfffffffff, TimeUS,DPE,TPE,PE,DVE,TVE,VE,DAE,TAE,AE
FMT, 190, 47, PSCD, Qfffffffff, TimeUS,DPD,TPD,PD,DVD,TVD,VD,DAD,TAD,AD
FMT, 191, 35, PSON, Qffffff, TimeUS,TPON,PON,TVON,VON,TAON,AON
FMT, 192, 35, PSOE, Qffffff, TimeUS,TPOE,POE,TVOE,VOE,TAOE,AOE
FMT, 193, 35, PSOD, Qffffff, TimeUS,TPOD,POD,TVOD,VOD,TAOD,AOD
FMT, 194, 35, PSOT, Qffffff, TimeUS,TPOT,POT,TVOT,VOT,TAOT,AOT
FMT, 75, 63, RATE, Qfffffffffffff, TimeUS,RDes,R,ROut,PDes,P,POut,YDes,Y,YOut,ADes,A,AOut,AOutSlew
FMT, 195, 39, ANG, Qfffffff, TimeUS,DesRoll,Roll,DesPitch,Pitch,DesYaw,Yaw,Dt
FMT, 201, 33, STAK, QBBHHN, TimeUS,Id,Pri,Total,Free,Name
FMT, 202, 88, FILE, NIBZ, FileName,Offset,Length,Data
FMT, 197, 78, AISR, QBBBZ, TimeUS,num,total,ID,payload
FMT, 198, 41, AIS1, QBBIBbHbLLHHBBbI, US,typ,rep,mmsi,nav,rot,sog,pos,lon,lat,cog,hed,sec,man,raim,rad
FMT, 199, 38, AIS4, QBIHBBBBBBLLBBI, US,rep,mmsi,year,mth,day,h,m,s,fix,lon,lat,epfd,raim,rad
FMT, 200, 175, AIS5, QBIBINZBHHBBBBZB, US,rep,mmsi,ver,imo,cal,nam,typ,bow,stn,prt,str,fix,dght,dst,dte
FMT, 203, 39, SCR, QNIii, TimeUS,Name,Runtime,Total_mem,Run_mem
FMT, 206, 90, VER, QBHBBBBIZHBB, TimeUS,BT,BST,Maj,Min,Pat,FWT,GH,FWS,APJ,BU,FV
FMT, 205, 32, MOTB, QfffffB, TimeUS,LiftMax,BatVolt,ThLimit,ThrAvMx,ThrOut,FailFlags
FMT, 6, 24, PTUN, QBfff, TimeUS,Param,TunVal,TunMin,TunMax
FMT, 0, 55, CTUN, Qffffffefffhh, TimeUS,ThI,ABst,ThO,ThH,DAlt,Alt,BAlt,DSAlt,SAlt,TAlt,DCRt,CRt
FMT, 1, 14, D16, QBh, TimeUS,Id,Value
FMT, 2, 14, DU16, QBH, TimeUS,Id,Value
FMT, 3, 16, D32, QBi, TimeUS,Id,Value
FMT, 4, 16, DU32, QBI, TimeUS,Id,Value
FMT, 5, 16, DFLT, QBf, TimeUS,Id,Value
FMT, 9, 47, SIDD, Qfffffffff, TimeUS,Time,Targ,F,Gx,Gy,Gz,Ax,Ay,Az
FMT, 10, 40, SIDS, QBfffffff, TimeUS,Ax,Mag,FSt,FSp,TFin,TC,TR,TFout
FMT, 8, 49, GUIP, QBfffbffffff, TimeUS,Type,pX,pY,pZ,Terrain,vX,vY,vZ,aX,aY,aZ
FMT, 11, 44, GUIA, QBffffffff, TimeUS,Type,Roll,Pitch,Yaw,RollRt,PitchRt,YawRt,Thrust,ClimbRt
IMU, 420452534, 0, -0.00016145, -0.006075106, 0.002696597, 0.2819077, -0.1851256, -9.789973, 0, 0, 44.80676, 1, 1, 2022, 2022
IMU, 420452534, 1, -0.0007877265, 0.0006540949, 0.004018443, 0.2944726, -0.1433314, -9.805781, 0, 0, 45, 1, 1, 1998, 2046
FMT, 249, 25, SURF, QBBfff, TimeUS,I,St,D,FD,TO
SURF, 420461675, 0, 2, 0, 0, 0.7235779
SURF, 420461702, 1, 2, 0, 0, 0.7235779
IMU, 420491731, 0, 0.0001615824, -0.006777213, -0.00293319, 0.2838593, -0.2167576, -9.784294, 0, 0, 44.80676, 1, 1, 2022, 2022
IMU, 420491731, 1, -0.0002952008, -0.000190747, -0.003157737, 0.2936665, -0.1933577, -9.801759, 0, 0, 45, 1, 1, 1998, 2046
POWR, 420511711, 4.956345, 0, 1, 1, 6
MCU, 420511711, 38.7674, 3.348113, 3.341655, 3.35375
BAT, 420511725, 0, 15.54373, 15.79733, 1.004233, 142.7155, 2.237674, 0, 0.252523, 95, 1, 0
MAG, 420511737, 0, -166, -202, 147, 102, 25, 42, 0, 0, 0, 1, 420511735
MAG, 420511737, 1, -86, -373, 201, 32, 17, -32, 0, 0, 0, 1, 420511734
SURF, 420511755, 0, 2, 0, 0, 0.7211555
SURF, 420511770, 1, 2, 0, 0, 0.7211555
BARO, 420511790, 0, 0.4337158, 631.8237, 93694.76, 39.21, -0.2215195, 420511, 0, 34.66125, 1
CTUN, 420511799, 0, 0, 0, 0.2570977, 0, 0.6720428, 0.43, NaN, 0, -0.01002145, 0, -1
ATT, 420511856, -20.7046, 1.171685, 22.20734, 1.640765, 119.8123, 119.8123, 3
ANG, 420511265, -20.7046, 1.171685, 22.20734, 1.640765, 119.8123, 119.8123, 0.0025
RATE, 420511278, -100.2135, -0.04099123, -0.2359829, 88.6676, -0.0148615, 0.2090746, 16.93802, -0.2252961, 0.05344095, 0.2550125, -0.485611, 0, 0
PIDR, 420511873, -1.749043, -0.000715432, -1.748327, -0.2360242, 0, 4.129752E-05, 0, 0, 1, 0.6162109, 9
PIDP, 420511877, 1.547518, -0.0002593822, 1.547777, 0.2089499, 0, 0.0001247026, 0, 0, 1, 0.526002, 9
PIDY, 420511881, 0.2956187, -0.003932159, 0.2968942, 0.05344095, 0, 0, 0, 0, 1, 0.02584654, 9
PIDA, 420511885, 0.3880501, 0.3880501, 0, 0, -257.0977, 0, 0, 0, 1, 0, 13
XKF4, 420511379, 0, 0.03, 0, 0, 0.09, 0, 0.006067748, 0.02924588, 0.1796581, 0, 48, 109375, 0, 0
XKY0, 420511379, 0, 180.0007, 15.03952, 215.994, 287.994, 359.994, 71.99396, 143.994, 0.2, 0.2, 0.2, 0.2, 0.2
XKY1, 420511379, 0, 0, 0, 0, 0, 0, 0, 0, 0, 0, 0
XKF1, 420511379, 0, 1.17, 1.64, 119.81, 0.002568267, -0.005132966, 0.01254749, 0.04231545, 0.8730381, -0.08526488, -0.6720428, 0.03, -0.37, 0, 631.39
XKF2, 420511379, 0, 0, 0, 0, 0, 0, 400, -5, 144, 0, 0, 0, 0, 0, 0
XKF3, 420511379, 0, 0.07, 0, 0.04, -0.02, 0.01, -0.12, 0, 0, 0, -8.12, 0, 0, 0.0005443748
XKF5, 420511379, 0, 0, 0, 0, 0, 1.03, 0.35, 0, 0, 0.5, 0.0005369799, 0.006262626, 0.01079753
XKFS, 420511379, 0, 0, 0, 0, 0, 0, 1, 0, 1
XKQ, 420511379, 0, 0.5014672, -0.007260935, 0.01602443, 0.8649978
XKV1, 420511379, 0, 0.0001867594, 4.588935E-06, 4.541874E-06, 5.985703E-05, 0.01271176, 0.01270974, 0.01134188, 0.05186792, 0.05186788, 0.1280566, 3.841183E-11, 3.837996E-11
XKV2, 420511379, 0, 1.080234E-10, 6.170719E-06, 6.170716E-06, 6.176152E-08, 0, 0, 0, 0, 0, 0, 0, 0
XKF4, 420511379, 1, 0.03, 0, 0, 0.09, 0, 0.006067292, -0.06461921, 0.072056, 0, 48, 109375, 0, 0
XKY0, 420511379, 1, 179.9171, 15.03657, 215.9944, 287.9944, 359.9944, 71.9944, 143.9944, 0.2, 0.2, 0.2, 0.2, 0.2
XKY1, 420511379, 1, 0, 0, 0, 0, 0, 0, 0, 0, 0, 0
XKF1, 420511379, 1, 1.07, 1.69, 119.83, -0.004503481, -0.006587233, 0.01336866, 0.04045999, 0.8689576, -0.0872368, -0.6691846, 0.01, 0.06, 0.01, 631.39
XKF2, 420511379, 1, 0, 0, 0, 0, 0, 400, -5, 144, 0, 0, 0, 0, 0, 0
XKF3, 420511379, 1, 0.07, 0, 0.04, -0.03, 0.01, -0.12, 0, 0, 0, -8.1, 0, 0, 0.0004890231
XKFS, 420511379, 1, 0, 0, 0, 0, 0, 1, 0, 1
XKQ, 420511379, 1, 0.5012667, -0.008088115, 0.01550548, 0.8651161
AHR2, 420511983, 1.2, 1.59, 117.89, 632.62, 15.3676623, 75.1254182, 0.5158359, -0.006500119, 0.0161926, 0.8565097
POS, 420511992, 15.3676622, 75.1254184, 632.06, -0.007957138, 0.6720428
MOTB, 420511997, 1, 1, 1, 0.02570977, 0, 2
RCIN, 420512003, 1102, 1927, 1102, 1927, 1758, 2000, 1000, 1000, 2000, 875, 875, 875, 875, 875
RCI2, 420512007, 875, 875, 0, 1
RCOU, 420512013, 1000, 1000, 1000, 1000, 0, 0, 0, 0, 0, 0, 0, 0, 0, 0
RCO2, 420512017, 0, 0, 0, 0
VIBE, 420512021, 0, 0.00914777, 0.01171955, 0.009532624, 0
VIBE, 420512021, 1, 0.05954951, 0.05829432, 0.07251719, 0
FMT, 246, 31, CTRL, Qfffff, TimeUS,RMSRollP,RMSRollD,RMSPitchP,RMSPitchD,RMSYaw
CTRL, 420512032, 0.2360354, 0.0006672348, 0.2089151, 0.0006210571, 0.05332781
FMT, 252, 43, DCM, Qffffffff, TimeUS,Roll,Pitch,Yaw,ErrRP,ErrYaw,VWN,VWE,VWD
DCM, 420513890, 1.206034, 1.595388, 117.9004, 0.005568054, 0.07401827, 0, 0, 0
FMT, 251, 51, EAHR, QffffffLLfI, TimeUS,Roll,Pitch,Yaw,VN,VE,VD,Lat,Lon,Alt,Flg
EAHR, 420513954, 0, 0, 0, 0, 0, 0, 0, 0, 0, 0
MSG, 420514988, ArduCopter V4.6.2 (1ebd4d99)
MSG, 420514996, ChibiOS: 88b84600
VER, 420515003, 10, 5009, 4, 6, 2, 255, 515722649, ArduCopter V4.6.2 (1ebd4d99), 56, 2, 2
MSG, 420515016, Pixhawk6C 003D0048 3133510F 31343630
MSG, 420515024, Param space used: 874/5376
MSG, 420515031, RC Protocol: SBUS
MSG, 420515041, RCOut: PWM:1-16
MSG, 420515046, New mission
CMD, 420516705, 4, 0, 16, 0, 0, 0, 0, 15.3676622, 75.1254184, 632.07, 0
CMD, 420516714, 4, 1, 22, 1, 0, 0, 0, 0, 0, 10, 3
CMD, 420516721, 4, 2, 16, 10, 0, 0, 0, 15.367361, 75.1254623, 10, 3
CMD, 420516728, 4, 3, 20, 0, 0, 0, 0, 0, 0, 0, 0
MSG, 420516732, New rally
MSG, 420516737, New fence
FNCE, 420516747, 14, 0, 98, 15.3679153, 75.1255443, 14, 0
FNCE, 420516752, 14, 1, 98, 15.3678714, 75.1258394, 14, 0
FNCE, 420516758, 14, 2, 98, 15.3676541, 75.1260915, 14, 0
FNCE, 420516763, 14, 3, 98, 15.3674795, 75.1260915, 14, 0
FNCE, 420516768, 14, 4, 98, 15.3673825, 75.1260754, 14, 0
FNCE, 420516774, 14, 5, 98, 15.3673075, 75.12607, 14, 0
FNCE, 420516779, 14, 6, 98, 15.3670748, 75.1260566, 14, 0
FNCE, 420516784, 14, 7, 98, 15.3668963, 75.1258796, 14, 0
FNCE, 420516790, 14, 8, 98, 15.366811, 75.1255792, 14, 0
FNCE, 420516795, 14, 9, 98, 15.3668653, 75.1252922, 14, 0
FNCE, 420516800, 14, 10, 98, 15.3670334, 75.1250857, 14, 0
FNCE, 420516805, 14, 11, 98, 15.3673696, 75.1251125, 14, 0
FNCE, 420516811, 14, 12, 98, 15.3675817, 75.1251393, 14, 0
FNCE, 420516816, 14, 13, 98, 15.3678481, 75.1253163, 14, 0
MSG, 420516825, Frame: QUAD/X
MODE, 420516830, Stabilize, 0, 1
ORGN, 420516834, 0, 15.3676544, 75.1254191, 631.39
ORGN, 420516837, 1, 15.3676622, 75.1254184, 632.07
MSG, 420516846, GPS 1: probing for u-blox at 230400 baud
MSG, 420516855, u-blox 1 HW: 00190000 SW: EXT CORE 4.04 (7f89f7)
IMU, 420531755, 0, 0.0006112205, -0.00615569, -0.001284234, 0.2832627, -0.1929334, -9.789417, 0, 0, 44.80676, 1, 1, 2022, 2022
IMU, 420531755, 1, 0.0009790625, 0.002028055, -0.001930481, 0.2954946, -0.1744953, -9.795999, 0, 0, 45, 1, 1, 1998, 2046
FILE, @SYS/uarts.txt, 0, 64, UARTV1\nSERIAL0 OTG1  TX =       0 RX =       0 TXBD=     0 RXBD=
FILE, @SYS/uarts.txt, 64, 64,      0 FE=0 OE=0 NE=0 FlowCtrl=0\nSERIAL1 UART7 TX*=  799537 RX*=
SURF, 420561603, 0, 2, 0, 0, 0.7187575
SURF, 420561612, 1, 2, 0, 0, 0.7187575
FILE, @SYS/uarts.txt, 128, 64,    84028 TXBD=  8803 RXBD=  1999 FE=0 OE=0 NE=0 FlowCtrl=0\nSERIA
GPS, 420571811, 0, 3, 296835400, 2379, 16, 0.61, 15.3676623, 75.1254182, 629.77, 0.016, 241.6349, -0.022, 0, 1
GPA, 420571811, 0, 1.17, 0.84, 1.67, 0.22, 0, 1, 420557, 200, 551.76, 0, 0
IMU, 420571870, 0, 0.0005732469, -0.006055063, 0.001001092, 0.2814184, -0.1950059, -9.787956, 0, 0, 44.80676, 1, 1, 2022, 2022
IMU, 420571870, 1, 0.001334583, 0.0001901096, 0.001569102, 0.2857518, -0.1698203, -9.804715, 0, 0, 45, 1, 1, 1998, 2046
FILE, @SYS/uarts.txt, 192, 64, L2 UART5 TX*=   10519 RX*=       0 TXBD=   250 RXBD=     0 FE=0 
FILE, @SYS/uarts.txt, 256, 64, OE=0 NE=0 FlowCtrl=0\nSERIAL3 UART1 TX*=    2914 RX*=  283432 TXB
STAK, 420595294, 0, 182, 7168, 4016, ArduCopter
FILE, @SYS/uarts.txt, 320, 64, D=    69 RXBD=  6743 FE=141 OE=0 NE=160 FlowCtrl=0\nSERIAL4 UART8
FILE, @SYS/uarts.txt, 384, 64,  TX*=       0 RX*=       0 TXBD=     0 RXBD=     0 FE=0 OE=0 NE=
POWR, 420611687, 4.953323, 0, 1, 1, 6
MCU, 420611687, 38.74752, 3.348676, 3.341935, 3.354597
BAT, 420611700, 0, 15.56332, 15.82168, 1.023091, 142.7439, 2.238116, 0, 0.252523, 95, 1, 0
MAG, 420611711, 0, -165, -206, 156, 102, 25, 42, 0, 0, 0, 1, 420611710
MAG, 420611711, 1, -86, -372, 198, 32, 17, -32, 0, 0, 0, 1, 420611709
SURF, 420611730, 0, 2, 0, 0, 0.7163898
SURF, 420611738, 1, 2, 0, 0, 0.7163898
BARO, 420611758, 0, 0.5160522, 631.9061, 93693.84, 39.21, -0.1405907, 420611, 0, 34.66125, 1
CTUN, 420611771, 0, 0, 0, 0.2570977, 0, 0.6689399, 0.51, NaN, 0, -0.02032663, 0, -1
ATT, 420611832, -20.70459, 1.17359, 22.20734, 1.640973, 119.8317, 119.8317, 3
ANG, 420611270, -20.70459, 1.17359, 22.20734, 1.640973, 119.8317, 119.8317, 0.002505
RATE, 420611283, -100.2217, -0.005706456, -0.2361269, 88.66719, -0.0312272, 0.2090058, 16.93791, -0.1878192, 0.05336887, 0.2550125, -0.2083778, 0, 0
PIDR, 420611849, -1.749201, -9.959645E-05, -1.749101, -0.2361287, 0, 1.785151E-06, 0, 0, 1, 0.5574983, 9
PIDP, 420611853, 1.547498, -0.0005450174, 1.548043, 0.2089859, 0, 1.994336E-05, 0, 0, 1, 0.4758845, 9
PIDY, 420611871, 0.2955845, -0.003278064, 0.2964937, 0.05336887, 0, 0, 0, 0, 1, 0.02382925, 9
PIDA, 420611890, 0.3880501, 0.3880501, 0, 0, -257.0977, 0, 0, 0, 1, 0, 13
XKF4, 420611413, 0, 0.01, 0, 0.01, 0.08, 0, 0.005984168, 0.02924588, 0.1796581, 0, 48, 109375, 0, 0
XKY0, 420611413, 0, 359.4805, 14.1148, 216.3373, 288.5421, 359.9871, 71.43935, 143.6557, 0.1958183, 0.2016377, 0.2052309, 0.2015488, 0.1957643
XKY1, 420611413, 0, -0.1950824, -0.02560243, 0.05488232, -0.06485538, -0.2193421, -0.113855, -0.1434142, 0.008636498, 0.1321683, 0.0564644
XKF1, 420611413, 0, 1.17, 1.64, 119.83, 0.0006431781, -0.005800311, 0.01333378, 0.02697244, 0.8709369, -0.08668401, -0.6689399, 0.03, -0.37, 0, 631.39
XKF2, 420611413, 0, 0, 0, 0, 0, 0, 400, -5, 144, 0, 0, 0, 0, 0, 0
XKF3, 420611413, 0, -0.01, 0, 0.03, -0.01, 0.01, -0.24, 0, 0, 0, -7.74, 0, 0, 0.0001486468
XKF5, 420611413, 0, 0, 0, 0, 0, 1.03, 0.35, 0, 0, 0.5, 0.0009379065, 0.003147833, 0.009798642
XKFS, 420611413, 0, 0, 0, 0, 0, 0, 1, 0, 1
XKQ, 420611413, 0, 0.5013206, -0.007256889, 0.01603849, 0.8650825
XKF4, 420611413, 1, 0.01, 0, 0.01, 0.08, 0, 0.00598348, -0.06461921, 0.072056, 0, 48, 109375, 0, 0
XKY0, 420611413, 1, 322.6383, 14.98314, 215.9977, 287.9962, 359.9914, 71.98997, 143.9939, 0.1999897, 0.2000296, 0.2000286, 0.1999881, 0.199964
XKY1, 420611413, 1, -0.0901589, -0.08910076, -0.08928534, -0.09045756, -0.09099746, -0.01299716, -0.01245926, -0.01128668, -0.01109988, -0.01215701
XKF1, 420611413, 1, 1.07, 1.68, 119.85, -0.006916985, -0.00658288, 0.01391277, 0.02542015, 0.8667176, -0.08865879, -0.6662213, 0.01, 0.06, 0.01, 631.39
XKF2, 420611413, 1, 0, 0, 0, 0, 0, 400, -5, 144, 0, 0, 0, 0, 0, 0
XKF3, 420611413, 1, -0.02, 0, 0.03, -0.01, 0.01, -0.24, 0, 0, 0, -7.72, 0, 0, 0.0001457374
XKFS, 420611413, 1, 0, 0, 0, 0, 0, 1, 0, 1
XKQ, 420611413, 1, 0.5011066, -0.008018263, 0.01550894, 0.8652095
AHR2, 420612000, 1.2, 1.59, 117.99, 632.5, 15.3676623, 75.1254182, 0.5151533, -0.006491764, 0.01616715, 0.856921
POS, 420612006, 15.3676622, 75.1254183, 632.05, -0.0110601, 0.6689399
MOTB, 420612011, 1, 1, 1, 0.02570977, 0, 2
RCIN, 420612020, 1102, 1927, 1102, 1927, 1758, 2000, 1000, 1000, 2000, 875, 875, 875, 875, 875
RCI2, 420612024, 875, 875, 0, 1
RCOU, 420612030, 1000, 1000, 1000, 1000, 0, 0, 0, 0, 0, 0, 0, 0, 0, 0
RCO2, 420612033, 0, 0, 0, 0
VIBE, 420612038, 0, 0.01024859, 0.01289594, 0.01080775, 0
VIBE, 420612038, 1, 0.06108213, 0.06122703, 0.06941807, 0
CTRL, 420612046, 0.2360584, 0.0005467201, 0.2089057, 0.0005123127, 0.05333902
IMU, 420612102, 0, 0.0005614868, -0.007050959, -0.003337272, 0.2803198, -0.214416, -9.79208, 0, 0, 44.80676, 1, 1, 2022, 2022
IMU, 420612102, 1, 3.808519E-05, -0.002445422, -0.001935026, 0.3087027, -0.1712495, -9.79082, 0, 0, 45, 1, 1, 1998, 2046
DCM, 420613854, 1.203748, 1.592467, 117.9914, 0.01379009, 0.08935071, 0, 0, 0
EAHR, 420613886, 0, 0, 0, 0, 0, 0, 0, 0, 0, 0
FILE, @SYS/uarts.txt, 448, 64, 0 FlowCtrl=0\nSERIAL5 UART2 TX =       0 RX =       0 TXBD=     0
FILE, @SYS/uarts.txt, 512, 64,  RXBD=     0 FE=0 OE=0 NE=0 FlowCtrl=0\nSERIAL6 UART3 TX =       
IMU, 420652511, 0, 0.0009239374, -0.006717655, -0.0002971681, 0.276216, -0.1810396, -9.782633, 0, 0, 44.80676, 1, 1, 2022, 2022
IMU, 420652511, 1, -0.0005377416, -0.0008181404, 0.0001211485, 0.2962027, -0.1556829, -9.8119, 0, 0, 45, 1, 1, 1998, 2046
FILE, @SYS/uarts.txt, 576, 64, 0 RX =       0 TXBD=     0 RXBD=     0 FE=0 OE=0 NE=0 FlowCtrl=0
SURF, 420661594, 0, 2, 0, 0, 0.7140728
SURF, 420661603, 1, 2, 0, 0, 0.7140728
FILE, @SYS/uarts.txt, 640, 64, \nSERIAL7 OTG2  TX =       0 RX =       0 TXBD=     0 RXBD=     0
FILE, @SYS/uarts.txt, 704, 64,  FE=0 OE=0 NE=0 FlowCtrl=0\nIOMCU   UART6 TX*= 3395858 RX*= 21079
RAD, 420677035, 64, 0, 100, 99, 0, 0, 0
FILE, @SYS/uarts.txt, 768, 53, 90 TXBD=  9263 RXBD=  9278 FE=0 OE=0 NE=0 FlowCtrl=0\n
IMU, 420691722, 0, 0.0003713931, -0.005619632, 0.00136136, 0.2843213, -0.2152685, -9.786287, 0, 0, 45.28986, 1, 1, 2022, 2022
IMU, 420691722, 1, -0.0005728425, 0.002994403, 0.00177376, 0.298377, -0.2087105, -9.816796, 0, 0, 45, 1, 1, 1998, 2046
STAK, 420696747, 1, 1, 496, 288, idle
FILE, @SYS/memory.txt, 0, 64, MemInfoV1\nSTART=0x24000000 LEN=512k FREE=  2336 LRG=  1152 TYPE=
POWR, 420711697, 4.963595, 0, 1, 1, 6
MCU, 420711697, 38.70775, 3.348958, 3.341795, 3.355303
BAT, 420711710, 0, 15.5712, 15.82974, 1.023823, 142.7723, 2.238559, 0, 0.252523, 95, 1, 0
MAG, 420711721, 0, -171, -205, 179, 102, 25, 42, 0, 0, 0, 1, 420711720
MAG, 420711721, 1, -84, -374, 200, 32, 17, -32, 0, 0, 0, 1, 420711719
SURF, 420711743, 0, 2, 0, 0, 0.711816
SURF, 420711754, 1, 2, 0, 0, 0.711816
BARO, 420711775, 0, 0.5542603, 631.9443, 93693.4, 39.2, -0.1542854, 420711, 0, 34.66125, 1
CTUN, 420711789, 0, 0, 0, 0.2570977, 0, 0.6667029, 0.55, NaN, 0, -0.02032663, 0, -1
ATT, 420711848, -20.70459, 1.173208, 22.20734, 1.64246, 119.8599, 119.86, 3
ANG, 420711265, -20.70459, 1.173208, 22.20734, 1.64246, 119.8599, 119.8599, 0.002499
RATE, 420711280, -100.2198, -0.006086462, -0.2361552, 88.66077, -0.02197632, 0.2091189, 16.935, -0.07893521, 0.05322336, 0.2550125, -0.3914833, 0, 0
PIDR, 420711864, -1.749179, -0.0001062288, -1.749073, -0.2361248, 0, -3.037557E-05, 0, 0, 1, 0.5043848, 9
PIDP, 420711868, 1.547407, -0.0003835591, 1.54779, 0.2089517, 0, 0.0001671803, 0, 0, 1, 0.4305463, 9
PIDY, 420711875, 0.2955712, -0.001377679, 0.2956854, 0.05322336, 0, 0, 0, 0, 1, 0.02167705, 9
PIDA, 420711878, 0.3880501, 0.3880501, 0, 0, -257.0977, 0, 0, 0, 1, 0, 13
XKF4, 420711368, 0, 0.01, 0, 0, 0.07, 0, 0.006063938, 0.02924588, 0.1796581, 0, 48, 109375, 0, 0
XKY0, 420711368, 0, 359.4766, 14.11483, 216.3334, 288.5382, 359.9832, 71.43548, 143.6519, 0.1958183, 0.2016377, 0.2052309, 0.2015488, 0.1957643
XKY1, 420711368, 0, -0.1950824, -0.02560243, 0.05488232, -0.06485538, -0.2193421, -0.113855, -0.1434142, 0.008636498, 0.1321683, 0.0564644
XKF1, 420711368, 0, 1.17, 1.64, 119.85, -0.0001469272, -0.005839124, 0.01396734, 0.01582806, 0.8700318, -0.08788999, -0.6667029, 0.03, -0.37, 0, 631.39
XKF2, 420711368, 0, 0, 0, 0, 0, 0, 400, -5, 144, 0, 0, 0, 0, 0, 0
XKF3, 420711368, 0, -0.01, 0, 0.03, -0.01, 0.01, -0.16, 0, 0, 0, -6.77, 0, 0, 0.0001022432
XKF5, 420711368, 0, 0, 0, 0, 0, 1.03, 0.35, 0, 0, 0.5, 0.001021972, 0.002734558, 0.009477234
XKFS, 420711368, 0, 0, 0, 0, 0, 0, 1, 0, 1
XKQ, 420711368, 0, 0.5011072, -0.007273742, 0.01604031, 0.865206
XKF4, 420711368, 1, 0.01, 0, 0, 0.07, 0, 0.006062866, -0.06461921, 0.072056, 0, 48, 109375, 0, 0
XKY0, 420711368, 1, 322.6366, 14.98316, 215.9961, 287.9945, 359.9897, 71.98832, 143.9922, 0.1999897, 0.2000296, 0.2000286, 0.1999881, 0.199964
XKY1, 420711368, 1, -0.0901589, -0.08910076, -0.08928534, -0.09045756, -0.09099746, -0.01299716, -0.01245926, -0.01128668, -0.01109988, -0.01215701
XKF1, 420711368, 1, 1.07, 1.68, 119.88, -0.007783914, -0.007029656, 0.01300213, 0.01330696, 0.8657069, -0.08979444, -0.6641783, 0.01, 0.06, 0.01, 631.39
XKF2, 420711368, 1, 0, 0, 0, 0, 0, 400, -5, 144, 0, 0, 0, 0, 0, 0
XKF3, 420711368, 1, -0.02, 0, 0.03, -0.01, 0.01, -0.16, 0, 0, 0, -6.76, 0, 0.0006754519, 0.0001292613
XKFS, 420711368, 1, 0, 0, 0, 0, 0, 1, 0, 1
XKQ, 420711368, 1, 0.5008987, -0.008044848, 0.01549212, 0.8653299
AHR2, 420712010, 1.15, 1.61, 118.07, 632.58, 15.3676623, 75.1254182, 0.5145438, -0.006850325, 0.0158916, 0.8572895
POS, 420712041, 15.3676622, 75.1254183, 632.05, -0.01329712, 0.6667029
MOTB, 420712046, 1, 1, 1, 0.02570977, 0, 2
RCIN, 420712057, 1102, 1927, 1102, 1927, 1758, 2000, 1000, 1000, 2000, 875, 875, 875, 875, 875
RCI2, 420712061, 875, 875, 0, 1
RCOU, 420712068, 1000, 1000, 1000, 1000, 0, 0, 0, 0, 0, 0, 0, 0, 0, 0
RCO2, 420712071, 0, 0, 0, 0
VIBE, 420712075, 0, 0.009672881, 0.01328687, 0.01019297, 0
VIBE, 420712075, 1, 0.06074641, 0.06273776, 0.07414877, 0
CTRL, 420712083, 0.2360865, 0.0004478725, 0.2088999, 0.000426709, 0.05334343
DCM, 420713854, 1.156546, 1.610538, 118.0725, 0.01379009, 0.1055397, 0, 0, 0
EAHR, 420713877, 0, 0, 0, 0, 0, 0, 0, 0, 0, 0
FILE, @SYS/memory.txt, 64, 64, 4\nSTART=0x30000000 LEN=256k FREE=262136 LRG=262136 TYPE=8\nSTART=
FILE, @SYS/memory.txt, 128, 64, 0x20000000 LEN=128k FREE=112544 LRG=112544 TYPE=2\nSTART=0x000004
IMU, 420731733, 0, 0.001100675, -0.006594287, -0.003336537, 0.2814676, -0.1961151, -9.788069, 0, 0, 44.80676, 1, 1, 2022, 2022
IMU, 420731733, 1, 0.0009573151, 0.001588079, -0.003635854, 0.2893113, -0.1621796, -9.813933, 0, 0, 45, 1, 1, 1998, 2046
FILE, @SYS/memory.txt, 192, 64, 00 LEN= 63k FREE= 64504 LRG= 64504 TYPE=2\nSTART=0x30040000 LEN= 
FILE, @SYS/memory.txt, 256, 64, 32k FREE= 32760 LRG= 32760 TYPE=8\nSTART=0x38000000 LEN= 64k FREE
SURF, 420761661, 0, 2, 0, 0, 0.709613
SURF, 420761670, 1, 2, 0, 0, 0.709613
FILE, @SYS/memory.txt, 320, 26, = 56808 LRG= 56152 TYPE=1\n
FMT, 254, 35, IOMC, QHHIIIII, TimeUS,RSErr,Mem,TS,NPkt,Nerr,Nerr2,NDel
IOMC, 420766974, 0, 12896, 420824, 201271, 0, 0, 0
GPS, 420771860, 0, 3, 296835600, 2379, 16, 0.61, 15.3676622, 75.1254182, 629.79, 0.015, 241.6349, -0.006, 0, 1
GPA, 420771860, 0, 1.17, 0.84, 1.67, 0.16, 0, 1, 420757, 200, 551.78, 0, 0
IMU, 420771925, 0, 0.0002957672, -0.005821379, 0.0008588267, 0.2866894, -0.1897188, -9.789663, 0, 0, 45.28986, 1, 1, 2022, 2022
IMU, 420771925, 1, -0.0001805107, 0.002638608, 0.0006987353, 0.2925826, -0.1669532, -9.804938, 0, 0, 45, 1, 1, 1998, 2046
UBX1, 420791949, 0, 77, 21, 1, 2106, 0
UBX2, 420791987, 0, 18, 145, 6, 150
FILE, @SYS/threads.txt, 0, 64, ThreadsV2\nISR           PRI=255 sp=0x24000000 STACK=1260/1536\nAr
STAK, 420797749, 2, 60, 1200, 880, UART_RX
FILE, @SYS/threads.txt, 64, 64, duCopter    PRI=182 sp=0x24000600 STACK=4016/7168\nidle          
POWR, 420811637, 4.970041, 0, 1, 1, 6
MCU, 420811637, 38.70775, 3.348817, 3.340114, 3.354173
BAT, 420811672, 0, 15.57129, 15.83269, 1.035175, 142.8011, 2.239006, 0, 0.252523, 95, 1, 0
MAG, 420811683, 0, -167, -204, 179, 102, 25, 42, 0, 0, 0, 1, 420811682
MAG, 420811683, 1, -85, -373, 200, 32, 17, -32, 0, 0, 0, 1, 420811681
SURF, 420811702, 0, 2, 0, 0, 0.7074653
SURF, 420811711, 1, 2, 0, 0, 0.7074653
BARO, 420811730, 0, 0.3572388, 631.7473, 93695.63, 39.21, -0.09181976, 420811, 0, 34.66125, 1
CTUN, 420811743, 0, 0, 0, 0.2570977, 0, 0.6647937, 0.35, NaN, 0, -0.02032663, 0, -1
ATT, 420811803, -20.70459, 1.171613, 22.20734, 1.641971, 119.8901, 119.8901, 3
ANG, 420811269, -20.70459, 1.171613, 22.20734, 1.641971, 119.8901, 119.8901, 0.002497
RATE, 420811282, -100.2129, -0.005632218, -0.2361218, 88.66244, -0.03992168, 0.209124, 16.93609, 0.05487068, 0.05316139, 0.2550125, -1.004219, 0, 0
PIDR, 420811819, -1.749063, -9.830075E-05, -1.748965, -0.2361103, 0, -1.154486E-05, 0, 0, 1, 0.4563273, 9
PIDP, 420811824, 1.547428, -0.0006967648, 1.548125, 0.2089969, 0, 0.0001270873, 0, 0, 1, 0.3895241, 9
PIDY, 420811827, 0.2956049, 0.0009576741, 0.295341, 0.05316139, 0, 0, 0, 0, 1, 0.01961167, 9
PIDA, 420811831, 0.3880501, 0.3880501, 0, 0, -257.0977, 0, 0, 0, 1, 0, 13
XKF4, 420811387, 0, 0, 0, 0, 0.09, 0, 0.00600019, 0.02924588, 0.1796581, 0, 48, 109375, 0, 0
XKY0, 420811387, 0, 10.80971, 14.09517, 216.3254, 288.7692, 0.1321568, 71.29569, 143.4128, 0.1934506, 0.200859, 0.2071686, 0.203487, 0.1950348
XKY1, 420811387, 0, -0.170859, 0.08274478, 0.2008629, 0.02444918, -0.207323, -0.1676512, -0.2098613, 0.01584887, 0.1996598, 0.08832018
XKF1, 420811387, 0, 1.17, 1.64, 119.89, -0.001300086, -0.005718051, 0.01441855, 0.01322605, 0.8690435, -0.08868978, -0.6647937, 0.03, -0.37, 0, 631.39
XKF2, 420811387, 0, 0, 0, 0, 0, 0, 400, -5, 144, 0, 0, 0, 0, 0, 0
XKF3, 420811387, 0, 0.01, -0.01, 0.01, 0, 0.01, -0.12, 0, 0, 0, -7.97, 0, 0, 3.920848E-05
XKF5, 420811387, 0, 0, 0, 0, 0, 1.03, 0.35, 0, 0, 0.5, 0.001049593, 0.00473311, 0.01165414
XKFS, 420811387, 0, 0, 0, 0, 0, 0, 1, 0, 1
XKQ, 420811387, 0, 0.5008796, -0.007281241, 0.01602422, 0.865338
XKF4, 420811387, 1, 0, 0, 0, 0.09, 0, 0.00599872, -0.06461921, 0.072056, 0, 48, 109375, 0, 0
XKY0, 420811387, 1, 343.0284, 14.44147, 215.9962, 287.9963, 359.9893, 71.98489, 143.9891, 0.1999665, 0.2000318, 0.2000532, 0.200001, 0.1999474
XKY1, 420811387, 1, -0.01599093, -0.01336014, -0.01315908, -0.01566559, -0.01741597, -0.01701476, -0.01637122, -0.01367045, -0.01264447, -0.01471142
XKF1, 420811387, 1, 1.07, 1.69, 119.91, -0.009278295, -0.00694544, 0.01243352, 0.01024894, 0.8645794, -0.0905933, -0.6625502, 0.01, 0.06, 0.01, 631.39
XKF2, 420811387, 1, 0, 0, 0, 0, 0, 400, -5, 144, 0, 0, 0, 0, 0, 0
XKF3, 420811387, 1, 0, -0.01, 0.01, 0, 0.01, -0.11, 0, 0, 0, -7.95, 0, 0.001440957, 3.561833E-05
XKFS, 420811387, 1, 0, 0, 0, 0, 0, 1, 0, 1
XKQ, 420811387, 1, 0.5006841, -0.008068523, 0.01551069, 0.8654535
AHR2, 420811919, 1.13, 1.61, 118.16, 632.62, 15.3676622, 75.1254182, 0.513839, -0.007016722, 0.01571874, 0.8577139
POS, 420811925, 15.3676622, 75.1254183, 632.05, -0.01520626, 0.6647937
MOTB, 420811930, 1, 1, 1, 0.02570977, 0, 2
RCIN, 420811936, 1102, 1927, 1102, 1927, 1758, 2000, 1000, 1000, 2000, 875, 875, 875, 875, 875
RCI2, 420811940, 875, 875, 0, 1
RCOU, 420811946, 1000, 1000, 1000, 1000, 0, 0, 0, 0, 0, 0, 0, 0, 0, 0
RCO2, 420811950, 0, 0, 0, 0
VIBE, 420811954, 0, 0.009057837, 0.01166636, 0.008657552, 0
VIBE, 420811954, 1, 0.06143251, 0.0648229, 0.07467095, 0
CTRL, 420811965, 0.2360958, 0.0003683104, 0.2089077, 0.0003604923, 0.05333638
IMU, 420811976, 0, 0.0005629036, -0.007203183, 0.0008802155, 0.2845912, -0.2080067, -9.784017, 0, 0, 44.80676, 1, 1, 2022, 2022
IMU, 420811976, 1, 0.001467722, 0.001410097, 0.0005954495, 0.3019011, -0.1805363, -9.797029, 0, 0, 45, 1, 1, 1998, 2046
DCM, 420813882, 1.132525, 1.614694, 118.1668, 0.0134825, 0.1162088, 0, 0, 0
EAHR, 420813918, 0, 0, 0, 0, 0, 0, 0, 0, 0, 0
FILE, @SYS/threads.txt, 128, 64, PRI=  1 sp=0x240214B0 STACK=288/496\nUART_RX       PRI= 60 sp=0x2
FILE, @SYS/threads.txt, 192, 64, 407B0E8 STACK=880/1200\nOTG1          PRI= 60 sp=0x2407A1A0 STACK
FILE, @SYS/threads.txt, 256, 64, =480/752\nmonitor       PRI=183 sp=0x2401CE20 STACK=1096/1456\ntim
FILE, @SYS/threads.txt, 320, 64, er         PRI=181 sp=0x2401E3E0 STACK=1520/1968\nrcout         P
IMU, 420852193, 0, 0.0003670208, -0.007122078, -0.003360709, 0.2830371, -0.1911998, -9.792096, 0, 0, 44.80676, 1, 1, 2022, 2022
IMU, 420852193, 1, 0.0005305683, 0.002846838, -0.002573998, 0.2824328, -0.1576026, -9.826799, 0, 0, 45, 1, 1, 1998, 2046
FILE, @SYS/threads.txt, 384, 64, RI=181 sp=0x2401DA00 STACK=656/944\nrcin          PRI=177 sp=0x24
SURF, 420861600, 0, 2, 0, 0, 0.7053817
SURF, 420861609, 1, 2, 0, 0, 0.7053817
FILE, @SYS/threads.txt, 448, 64, 01D410 STACK=808/1456\nio            PRI= 58 sp=0x2401C430 STACK=
FILE, @SYS/threads.txt, 512, 64, 1576/2480\nstorage       PRI= 59 sp=0x2401DDF0 STACK=896/1456\nUAR
FMT, 253, 28, HEAT, Qfbfff, TimeUS,Temp,Targ,P,I,Out
HEAT, 420888773, 44.86715, 45, 6.642532, 15.41807, 22.0606
IMU, 420891916, 0, 0.0005199409, -0.006791006, 0.0002061324, 0.2785528, -0.2037625, -9.787733, 0, 0, 44.80676, 1, 1, 2022, 2022
IMU, 420891916, 1, 0.0005271923, 0.001518874, 0.00173582, 0.297132, -0.1763359, -9.80565, 0, 0, 45, 1, 1, 1998, 2046
STAK, 420897763, 3, 60, 752, 480, OTG1
FILE, @SYS/threads.txt, 576, 64, T7         PRI= 60 sp=0x24078FF8 STACK=232/752\nUART5         PRI
FILE, @SYS/threads.txt, 640, 64, = 60 sp=0x240784B0 STACK=344/752\nUART1         PRI= 60 sp=0x2407
POWR, 420911673, 4.966315, 0, 1, 1, 6
MCU, 420911673, 38.68787, 3.349098, 3.342776, 3.356999
BAT, 420911686, 0, 15.57568, 15.83727, 1.035907, 142.8299, 2.239455, 0, 0.252523, 95, 1, 0
MAG, 420911697, 0, -167, -205, 166, 102, 25, 42, 0, 0, 0, 1, 420911696
MAG, 420911697, 1, -85, -372, 199, 32, 17, -32, 0, 0, 0, 1, 420911695
SURF, 420911715, 0, 2, 0, 0, 0.7033608
SURF, 420911724, 1, 2, 0, 0, 0.7033608
BARO, 420911744, 0, 0.3483887, 631.7384, 93695.71, 39.21, -0.1204109, 420911, 0, 34.66125, 1
CTUN, 420911759, 0, 0, 0, 0.2570977, 0, 0.6628765, 0.34, NaN, 0, -0.01959421, 0, -1
ATT, 420911822, -20.70459, 1.16924, 22.20734, 1.639516, 119.9154, 119.9154, 3
ANG, 420911265, -20.70459, 1.16924, 22.20734, 1.639516, 119.9154, 119.9154, 0.002498
RATE, 420911277, -100.2031, -0.01713354, -0.235965, 88.67251, -0.02638601, 0.2089785, 16.94022, 0.09366708, 0.0532965, 0.2550125, -0.7710457, 0, 0
PIDR, 420911838, -1.748893, -0.0002990367, -1.748594, -0.2360602, 0, 9.522558E-05, 0, 0, 1, 0.412852, 9
PIDP, 420911842, 1.547605, -0.0004605227, 1.548066, 0.2089889, 0, -1.036427E-05, 0, 0, 1, 0.3524133, 9
PIDY, 420911846, 0.2956661, 0.001634799, 0.2960916, 0.0532965, 0, 0, 0, 0, 1, 0.01774322, 9
PIDA, 420911850, 0.3880501, 0.3880501, 0, 0, -257.0977, 0, 0, 0, 1, 0, 13
XKF4, 420911412, 0, 0, 0, 0.01, 0.08, 0, 0.006079384, 0.02924588, 0.1796581, 0, 48, 109375, 0, 0
XKY0, 420911412, 0, 10.80679, 14.0952, 216.3225, 288.7663, 0.1292413, 71.29277, 143.4099, 0.1934506, 0.200859, 0.2071686, 0.203487, 0.1950348
XKY1, 420911412, 0, -0.170859, 0.08274478, 0.2008629, 0.02444918, -0.207323, -0.1676512, -0.2098613, 0.01584887, 0.1996598, 0.08832018
XKF1, 420911412, 0, 1.16, 1.63, 119.91, -0.002535802, -0.004871647, 0.01483206, 0.01370683, 0.8678004, -0.08901881, -0.6628766, 0.03, -0.37, 0, 631.39
XKF2, 420911412, 0, 0, 0, 0, 0, 0, 400, -5, 144, 0, 0, 0, 0, 0, 0
XKF3, 420911412, 0, 0.01, -0.01, 0.01, 0, 0.01, -0.31, 0, 0, 0, -7.36, 0, 0, 0.0002522756
XKF5, 420911412, 0, 0, 0, 0, 0, 1.03, 0.35, 0, 0, 0.5, 0.001013358, 0.003745932, 0.009597997
XKFS, 420911412, 0, 0, 0, 0, 0, 0, 1, 0, 1
XKQ, 420911412, 0, 0.5006883, -0.007276601, 0.01599397, 0.8654493
XKF4, 420911412, 1, 0, 0, 0.01, 0.08, 0, 0.006081137, -0.06461921, 0.072056, 0, 48, 109375, 0, 0
XKY0, 420911412, 1, 343.0246, 14.4415, 215.9924, 287.9926, 359.9856, 71.98113, 143.9854, 0.1999665, 0.2000318, 0.2000532, 0.200001, 0.1999474
XKY1, 420911412, 1, -0.01599093, -0.01336014, -0.01315908, -0.01566559, -0.01741597, -0.01701476, -0.01637122, -0.01367045, -0.01264447, -0.01471142
XKF1, 420911412, 1, 1.07, 1.69, 119.94, -0.01105611, -0.006191232, 0.01200206, 0.01022245, 0.8632592, -0.09092629, -0.6609483, 0.01, 0.06, 0.01, 631.39
XKF2, 420911412, 1, 0, 0, 0, 0, 0, 400, -5, 144, 0, 0, 0, 0, 0, 0
XKF3, 420911412, 1, 0, -0.01, 0.01, 0, 0.01, -0.31, 0, 0, 0, -7.35, 0, 0.001440957, 0.0002486088
XKFS, 420911412, 1, 0, 0, 0, 0, 0, 1, 0, 1
XKQ, 420911412, 1, 0.5004873, -0.008114233, 0.01554022, 0.8655663
AHR2, 420911986, 1.14, 1.6, 118.24, 632.42, 15.3676622, 75.1254182, 0.5132136, -0.006878429, 0.01572596, 0.8580892
POS, 420911994, 15.3676621, 75.1254183, 632.05, -0.01712338, 0.6628766
MOTB, 420911999, 1, 1, 1, 0.02570977, 0, 2
RCIN, 420912005, 1102, 1927, 1102, 1927, 1758, 2000, 1000, 1000, 2000, 875, 875, 875, 875, 875
RCI2, 420912009, 875, 875, 0, 1
RCOU, 420912015, 1000, 1000, 1000, 1000, 0, 0, 0, 0, 0, 0, 0, 0, 0, 0
RCO2, 420912019, 0, 0, 0, 0
VIBE, 420912023, 0, 0.007640359, 0.009654551, 0.008795647, 0
VIBE, 420912023, 1, 0.06327333, 0.06404432, 0.0737661, 0
CTRL, 420912032, 0.2360854, 0.0003041148, 0.2089265, 0.0003008176, 0.05333403
DCM, 420913859, 1.142324, 1.600782, 118.251, 0.0134825, 0.1245326, 0, 0, 0
EAHR, 420913883, 0, 0, 0, 0, 0, 0, 0, 0, 0, 0
FILE, @SYS/threads.txt, 704, 64, 78E8 STACK=344/752\nUART8         PRI= 60 sp=0x24076D20 STACK=408
IMU, 420931776, 0, 8.85261E-05, -0.007204636, 0.0002243826, 0.279936, -0.2019923, -9.789458, 0, 0, 44.80676, 1, 1, 2022, 2022
IMU, 420931776, 1, 0.0005924526, -0.001990471, 0.001174907, 0.3060215, -0.1988348, -9.787868, 0, 0, 45, 1, 1, 1998, 2046
FILE, @SYS/threads.txt, 768, 64, /752\nOTG2          PRI= 60 sp=0x24075DD8 STACK=480/752\nUART6    
FILE, @SYS/threads.txt, 832, 64,      PRI=181 sp=0x24074F58 STACK=336/752\nIOMCU         PRI=183 s
SURF, 420961649, 0, 2, 0, 0, 0.7013839
SURF, 420961659, 1, 2, 0, 0, 0.7013839
FILE, @SYS/threads.txt, 896, 64, p=0x2406AB30 STACK=664/1456\nlog_io        PRI= 59 sp=0x2406B2C0 
GPS, 420971809, 0, 3, 296835800, 2379, 16, 0.61, 15.3676622, 75.1254182, 629.8, 0.041, 241.6349, -0.011, 0, 1
GPA, 420971809, 0, 1.17, 0.84, 1.67, 0.15, 0, 1, 420957, 200, 551.79, 0, 0
IMU, 420971899, 0, 0.0004731994, -0.006808976, -0.00350702, 0.2827565, -0.1987966, -9.789729, 0, 0, 44.80676, 1, 1, 2022, 2022
IMU, 420971899, 1, 0.0006943849, -0.0004895381, -0.001921549, 0.3093247, -0.1800299, -9.809585, 0, 0, 45, 1, 1, 1998, 2046
FILE, @SYS/threads.txt, 960, 64, STACK=728/2016\nI2C1          PRI=176 sp=0x2406BBD0 STACK=984/145
FILE, @SYS/threads.txt, 1024, 64, 6\nI2C0          PRI=176 sp=0x2406C4A0 STACK=984/1456\nSPI1       
FILE, @SYS/threads.txt, 1088, 64,    PRI=181 sp=0x24070FC0 STACK=840/1456\nFTP           PRI= 58 sp
STAK, 420999212, 4, 183, 1456, 1096, monitor
FILE, @SYS/threads.txt, 1152, 28, =0x24032968 STACK=1368/2992\n
POWR, 421011694, 4.956646, 0, 1, 1, 6
MCU, 421011694, 38.70775, 3.348676, 3.341795, 3.355586
BAT, 421011708, 0, 15.56616, 15.82345, 1.01888, 142.8582, 2.239895, 0, 0.252523, 95, 1, 0
MAG, 421011719, 0, -168, -205, 141, 102, 25, 42, 0, 0, 0, 1, 421011718
MAG, 421011719, 1, -86, -373, 200, 32, 17, -32, 0, 0, 0, 1, 421011717
SURF, 421011738, 0, 2, 0, 0, 0.6994473
SURF, 421011746, 1, 2, 0, 0, 0.6994473
BARO, 421011768, 0, 0.6101074, 632.0001, 93692.77, 39.21, -0.3373528, 421011, 0, 34.66125, 1
CTUN, 421011780, 0, 0, 0, 0.2570977, 0, 0.6606884, 0.61, NaN, 0, -0.01959421, 0, -1
ATT, 421011837, -20.7046, 1.168342, 22.20735, 1.636589, 119.9386, 119.9386, 3
ANG, 421011265, -20.7046, 1.168342, 22.20735, 1.636589, 119.9386, 119.9386, 0.0025
RATE, 421011278, -100.1997, 0.02092835, -0.2363196, 88.68485, -0.009829869, 0.2088756, 16.94403, 0.05918026, 0.05341578, 0.2550125, -0.02651215, 0, 0
PIDR, 421011856, -1.748781, 0.0003652687, -1.749147, -0.2361348, 0, -0.0001847591, 0, 0, 1, 0.3735173, 9
PIDP, 421011860, 1.547827, -0.0001715636, 1.547999, 0.2089799, 0, -0.0001043006, 0, 0, 1, 0.3188369, 9
PIDY, 421011864, 0.2957295, 0.001032891, 0.2967543, 0.05341578, 0, 0, 0, 0, 1, 0.01605272, 9
PIDA, 421011868, 0.3880501, 0.3880501, 0, 0, -257.0977, 0, 0, 0, 1, 0, 13
XKF4, 421011368, 0, 0.01, 0, 0.01, 0.08, 0, 0.006049854, 0.02924588, 0.1796581, 0, 48, 109375, 0, 0
XKY0, 421011368, 0, 38.31226, 14.48472, 215.9541, 289.2198, 0.7685294, 71.23778, 142.7246, 0.1872915, 0.195353, 0.2100517, 0.2108015, 0.1965023
XKY1, 421011368, 0, -0.2169277, 0.1178935, 0.2724544, 0.04123288, -0.2640671, -0.2434941, -0.2988195, -0.001633054, 0.2396166, 0.09448662
XKF1, 421011368, 0, 1.16, 1.63, 119.93, -0.003748424, -0.002738764, 0.01492709, 0.01938343, 0.8665825, -0.08838395, -0.6606884, 0.03, -0.37, 0, 631.39
XKF2, 421011368, 0, -0.01, 0, 0, 0, 0, 400, -5, 144, 0, 0, 0, 0, 0, 0
XKF3, 421011368, 0, 0, -0.04, 0.02, 0, 0.01, -0.32, 0, 0, 0, -7.36, 0, 0, 0.0002600565
XKF5, 421011368, 0, 0, 0, 0, 0, 1.02, 0.35, 0, 0, 0.5, 0.0009820854, 0.01078222, 0.01287176
XKFS, 421011368, 0, 0, 0, 0, 0, 0, 1, 0, 1
XKQ, 421011368, 0, 0.5005128, -0.007261655, 0.01597293, 0.8655514
XKV1, 421011368, 0, 0.000186701, 4.561938E-06, 4.515248E-06, 5.991644E-05, 0.0194499, 0.01943979, 0.01155266, 0.04862862, 0.04862859, 0.1406544, 3.836686E-11, 3.833494E-11
XKV2, 421011368, 0, 1.080271E-10, 5.011711E-06, 5.011506E-06, 5.894013E-08, 0, 0, 0, 0, 0, 0, 0, 0
XKF4, 421011368, 1, 0.01, 0, 0.01, 0.08, 0, 0.00605124, -0.06461921, 0.072056, 0, 48, 109375, 0, 0
XKY0, 421011368, 1, 6.766916, 14.2927, 215.989, 287.9963, 359.9835, 71.96826, 143.9716, 0.1998854, 0.2000255, 0.2001304, 0.200055, 0.1999037
XKY1, 421011368, 1, -0.01185719, -0.008655799, -0.009737621, -0.01360757, -0.014918, -0.0458953, -0.04371728, -0.03999978, -0.0398795, -0.04352325
XKF1, 421011368, 1, 1.07, 1.68, 119.96, -0.01213869, -0.002458731, 0.01215292, 0.01656381, 0.8619471, -0.09017991, -0.6590442, 0.01, 0.06, 0.01, 631.39
XKF2, 421011368, 1, 0, 0, 0, 0, 0, 400, -5, 144, 0, 0, 0, 0, 0, 0
XKF3, 421011368, 1, 0, -0.04, 0.02, 0, 0.01, -0.32, 0, 0, 0, -7.34, 0, 0.001440957, 0.0002566385
XKFS, 421011368, 1, 0, 0, 0, 0, 0, 1, 0, 1
XKQ, 421011368, 1, 0.5003205, -0.008067844, 0.01550788, 0.8656638
AHR2, 421011999, 1.14, 1.58, 118.33, 632.41, 15.3676622, 75.1254182, 0.5126012, -0.006752387, 0.01568106, 0.858457
POS, 421012005, 15.3676621, 75.1254183, 632.05, -0.01931158, 0.6606884
MOTB, 421012010, 1, 1, 1, 0.02570977, 0, 2
RCIN, 421012016, 1102, 1927, 1102, 1927, 1758, 2000, 1000, 1000, 2000, 875, 875, 875, 875, 875
RCI2, 421012044, 875, 875, 0, 1
RCOU, 421012051, 1000, 1000, 1000, 1000, 0, 0, 0, 0, 0, 0, 0, 0, 0, 0
RCO2, 421012055, 0, 0, 0, 0
VIBE, 421012064, 0, 0.008067538, 0.00809648, 0.008497346, 0
VIBE, 421012064, 1, 0.06057877, 0.0629878, 0.07709849, 0
CTRL, 421012077, 0.2360756, 0.0002542298, 0.2089488, 0.0002494467, 0.05334283
IMU, 421012087, 0, 0.001028967, -0.006676051, 0.0009372169, 0.2772219, -0.1958635, -9.793963, 0, 0, 44.80676, 1, 1, 2022, 2022
IMU, 421012087, 1, 0.0002422484, 0.0003350778, 0.0001665736, 0.295462, -0.1615821, -9.807584, 0, 0, 45, 1, 1, 1998, 2046
DCM, 421013853, 1.146268, 1.584885, 118.3327, 0.01403725, 0.1317828, 0, 0, 0
EAHR, 421013877, 0, 0, 0, 0, 0, 0, 0, 0, 0, 0
FILE, @SYS/timers.txt, 0, 64, TIMERV1\nTIM5  CLK= 200Mhz MODE=  PWM FREQ=       7 TGT=       8\n
FILE, @SYS/timers.txt, 64, 64, TIM4  CLK= 200Mhz MODE=  PWM FREQ=       7 TGT=       8\nTIM1  CL
IMU, 421052143, 0, 0.0009483863, -0.007082528, -0.0005513019, 0.2801548, -0.1984864, -9.787971, 0, 0, 45.28986, 1, 1, 2022, 2022
IMU, 421052143, 1, -0.001565289, -0.0002091044, 0.001216924, 0.2913542, -0.1696038, -9.800056, 0, 0, 45, 1, 1, 1998, 2046
FILE, @SYS/timers.txt, 128, 48, K= 200Mhz MODE=  PWM FREQ=       7 TGT=       8\n
SURF, 421061668, 0, 2, 0, 0, 0.6975548
SURF, 421061678, 1, 2, 0, 0, 0.6975548
FILE, @ROMFS/hwdef.dat, 0, 64, MCU STM32H7xx STM32H743xx\nOSCILLATOR_HZ 16000000\nSTM32_ST_USE_TI
FILE, @ROMFS/hwdef.dat, 64, 64, MER 2\nUSB_VENDOR 0x3162\nUSB_PRODUCT 0x0053\nUSB_STRING_MANUFACTUR
IMU, 421091950, 0, 0.0013438, -0.006812314, -0.002618073, 0.284215, -0.2010208, -9.78642, 0, 0, 45.28986, 1, 1, 2022, 2022
IMU, 421091950, 1, -0.001526641, -0.001471315, -0.00245014, 0.3051672, -0.1756117, -9.798033, 0, 0, 45, 1, 1, 1998, 2046
STAK, 421099733, 5, 181, 1968, 1520, timer
FILE, @ROMFS/hwdef.dat, 128, 64, ER "Holybro"\nAPJ_BOARD_ID 56\nFLASH_RESERVE_START_KB 128\nenv USE_
POWR, 421111667, 4.954935, 0, 1, 1, 6
MCU, 421111667, 38.70775, 3.348817, 3.341094, 3.354597
BAT, 421111680, 0, 15.56598, 15.82734, 1.034992, 142.8869, 2.240343, 0, 0.252523, 95, 1, 0
MAG, 421111708, 0, -168, -206, 162, 102, 25, 42, 0, 0, 0, 1, 421111707
MAG, 421111708, 1, -85, -373, 198, 32, 17, -32, 0, 0, 0, 1, 421111705
SURF, 421111727, 0, 2, 0, 0, 0.6957138
SURF, 421111742, 1, 2, 0, 0, 0.6957138
BARO, 421111762, 0, 0.3307495, 631.7208, 93695.92, 39.21, -0.2362823, 421111, 0, 34.66125, 1
CTUN, 421111777, 0, 0, 0, 0.2570977, 0, 0.6590318, 0.33, NaN, 0, -0.02959421, 0, -1
ATT, 421111839, -20.7046, 1.168691, 22.20736, 1.631123, 119.9623, 119.9623, 3
ANG, 421111273, -20.7046, 1.168691, 22.20736, 1.631123, 119.9623, 119.9623, 0.002499
RATE, 421111286, -100.202, -0.0105223, -0.2359495, 88.70847, -0.01173488, 0.2090089, 16.9477, -0.04161098, 0.05346332, 0.2550125, -0.5819321, 0, 0
PIDR, 421111855, -1.748869, -0.0001836488, -1.748686, -0.2360726, 0, 0.0001230334, 0, 0, 1, 0.3379275, 9
PIDP, 421111859, 1.548234, -0.0002048123, 1.548439, 0.2090393, 0, -3.030879E-05, 0, 0, 1, 0.2884571, 9
PIDY, 421111863, 0.2958043, -0.0007262486, 0.2970184, 0.05346332, 0, 0, 0, 0, 1, 0.01452317, 9
PIDA, 421111867, 0.3880501, 0.3880501, 0, 0, -257.0977, 0, 0, 0, 1, 0, 13
XKF4, 421111388, 0, 0.01, 0, 0, 0.08, 0, 0.006128374, 0.02924588, 0.1796581, 0, 48, 109375, 0, 0
XKY0, 421111388, 0, 38.30544, 14.48474, 215.9472, 289.213, 0.7617075, 71.23095, 142.7178, 0.1872915, 0.195353, 0.2100517, 0.2108015, 0.1965023
XKY1, 421111388, 0, -0.2169277, 0.1178935, 0.2724544, 0.04123288, -0.2640671, -0.2434941, -0.2988195, -0.001633054, 0.2396166, 0.09448662
XKF1, 421111388, 0, 1.16, 1.63, 119.96, -0.005050784, 0.00152705, 0.01501733, 0.0164908, 0.8652659, -0.08629065, -0.6590318, 0.03, -0.37, 0, 631.39
XKF2, 421111388, 0, -0.01, 0, 0, 0, 0, 400, -5, 144, 0, 0, 0, 0, 0, 0
XKF3, 421111388, 0, 0, -0.04, 0.02, 0, 0.01, -0.06, 0, 0, 0, -7.59, 0, 0, 0.0001489562
XKF5, 421111388, 0, 0, 0, 0, 0, 1.02, 0.35, 0, 0, 0.5, 0.0009805908, 0.008170265, 0.01201116
XKFS, 421111388, 0, 0, 0, 0, 0, 0, 1, 0, 1
XKQ, 421111388, 0, 0.5003338, -0.007222131, 0.01595021, 0.8656555
XKF4, 421111388, 1, 0.01, 0, 0, 0.08, 0, 0.006130438, -0.06461921, 0.072056, 0, 48, 109375, 0, 0
XKY0, 421111388, 1, 6.760488, 14.29272, 215.9825, 287.9899, 359.9771, 71.96181, 143.9652, 0.1998854, 0.2000255, 0.2001304, 0.200055, 0.1999037
XKY1, 421111388, 1, -0.01185719, -0.008655799, -0.009737621, -0.01360757, -0.014918, -0.0458953, -0.04371728, -0.03999978, -0.0398795, -0.04352325
XKF1, 421111388, 1, 1.07, 1.68, 119.98, -0.01361777, 0.001637916, 0.01245977, 0.01467862, 0.8606141, -0.08790495, -0.6576374, 0.01, 0.06, 0.01, 631.39
XKF2, 421111388, 1, 0, 0, 0, 0, 0, 400, -5, 144, 0, 0, 0, 0, 0, 0
XKF3, 421111388, 1, 0, -0.04, 0.02, 0, 0.01, -0.05, 0, 0, 0, -7.57, 0, 0.001562109, 0.0001495174
XKFS, 421111388, 1, 0, 0, 0, 0, 0, 1, 0, 1
XKQ, 421111388, 1, 0.5001264, -0.008063915, 0.0154484, 0.8657771
AHR2, 421111959, 1.14, 1.56, 118.41, 632.68, 15.3676622, 75.1254182, 0.5119703, -0.00663989, 0.01553727, 0.8588369
POS, 421111964, 15.3676621, 75.1254183, 632.04, -0.02096818, 0.6590318
MOTB, 421111972, 1, 1, 1, 0.02570977, 0, 2
RCIN, 421111978, 1102, 1927, 1102, 1927, 1758, 2000, 1000, 1000, 2000, 875, 875, 875, 875, 875
RCI2, 421111981, 875, 875, 0, 1
RCOU, 421111988, 1000, 1000, 1000, 1000, 0, 0, 0, 0, 0, 0, 0, 0, 0, 0
RCO2, 421111991, 0, 0, 0, 0
VIBE, 421111995, 0, 0.008262602, 0.009610538, 0.008414748, 0
VIBE, 421111995, 1, 0.06604327, 0.06464627, 0.0788697, 0
CTRL, 421112004, 0.2360958, 0.0002144486, 0.208985, 0.0002074541, 0.05334753
FILE, @ROMFS/hwdef.dat, 192, 64, ALT_RAM_MAP 1\nFLASH_SIZE_KB 2048\nenv OPTIMIZE -O2\nSERIAL_ORDER O
DCM, 421113882, 1.139914, 1.564653, 118.4167, 0.01403725, 0.1360756, 0, 0, 0
EAHR, 421113918, 0, 0, 0, 0, 0, 0, 0, 0, 0, 0
FILE, @ROMFS/hwdef.dat, 256, 64, TG1 UART7 UART5 USART1 UART8 USART2 USART3 OTG2\nPA11 OTG_FS_DM O
IMU, 421131747, 0, 0.0006474146, -0.007182158, 0.001099962, 0.2765932, -0.1927141, -9.789683, 0, 0, 44.80676, 1, 1, 2022, 2022
IMU, 421131747, 1, 0.0005957855, 0.001256376, 0.001626414, 0.2946834, -0.1795589, -9.790103, 0, 0, 45, 1, 1, 1998, 2046
FILE, @ROMFS/hwdef.dat, 320, 64, TG1\nPA12 OTG_FS_DP OTG1\nPA9 VBUS INPUT OPENDRAIN\nPA13 JTMS-SWDIO
FILE, @ROMFS/hwdef.dat, 384, 64,  SWD\nPA14 JTCK-SWCLK SWD\nPE8  UART7_TX UART7\nPE7  UART7_RX UART7
FILE, @ROMFS/hwdef.dat, 448, 64, \nPE9  UART7_RTS UART7 LOW PULLDOWN\nPE10 UART7_CTS UART7\nPC12 UAR
SURF, 421161611, 0, 2, 0, 0, 0.6939226
SURF, 421161620, 1, 2, 0, 0, 0.6939226
FILE, @ROMFS/hwdef.dat, 512, 64, T5_TX UART5\nPD2 UART5_RX UART5\nPC8 UART5_RTS UART5 LOW PULLDOWN\n
GPS, 421171839, 0, 3, 296836000, 2379, 16, 0.61, 15.3676622, 75.1254182, 629.81, 0.039, 241.6349, -0.042, 0, 1
GPA, 421171839, 0, 1.17, 0.84, 1.66, 0.22, 0, 1, 421157, 200, 551.8, 0, 0
IMU, 421171903, 0, 0.0007767344, -0.005954979, -0.0006504571, 0.2883866, -0.2032436, -9.789065, 0, 0, 44.80676, 1, 1, 2022, 2022
IMU, 421171903, 1, 0.0007243609, 0.0009304785, -0.001663455, 0.2901231, -0.1897439, -9.800341, 0, 0, 45, 1, 1, 1998, 2046
FILE, @ROMFS/hwdef.dat, 576, 64, PC9 UART5_CTS UART5\nPB6  USART1_TX USART1\nPA10 USART1_RX USART1\n
FILE, @ROMFS/hwdef.dat, 640, 64, PE1 UART8_TX UART8\nPE0 UART8_RX UART8\nPD5 USART2_TX USART2\nPA3 U
STAK, 421202206, 6, 181, 944, 656, rcout
POWR, 421211704, 4.955639, 0, 1, 1, 6
MCU, 421211704, 38.68787, 3.348817, 3.341094, 3.355303
BAT, 421211718, 0, 15.56525, 15.82295, 1.020528, 142.9153, 2.240784, 0, 0.252523, 95, 1, 0
MAG, 421211732, 0, -162, -207, 175, 102, 25, 42, 0, 0, 0, 1, 421211731
MAG, 421211732, 1, -86, -372, 197, 32, 17, -32, 0, 0, 0, 1, 421211729
SURF, 421211750, 0, 2, 0, 0, 0.6921741
SURF, 421211759, 1, 2, 0, 0, 0.6921741
BARO, 421211778, 0, 0.4365845, 631.8266, 93694.73, 39.21, 0.09088515, 421211, 0, 34.66125, 1
CTUN, 421211791, 0, 0, 0, 0.2570977, 0, 0.6577553, 0.43, NaN, 0, -0.02922799, 0, -1
ATT, 421211850, -20.7046, 1.16872, 22.20736, 1.630173, 119.9887, 119.9887, 3
ANG, 421211266, -20.7046, 1.16872, 22.20736, 1.630173, 119.9887, 119.9887, 0.002499
RATE, 421211280, -100.2023, 0.006586687, -0.2360834, 88.7125, -0.02441144, 0.2090953, 16.94847, -0.1265175, 0.05339466, 0.2550125, -0.5640984, 0, 0
PIDR, 421211893, -1.748861, 0.0001149594, -1.748976, -0.2361117, 0, 2.837261E-05, 0, 0, 1, 0.3057332, 9
PIDP, 421211897, 1.548332, -0.0004260601, 1.548758, 0.2090824, 0, 1.293167E-05, 0, 0, 1, 0.260976, 9
PIDY, 421211901, 0.2958123, -0.002208147, 0.296637, 0.05339466, 0, 0, 0, 0, 1, 0.01313956, 9
PIDA, 421211904, 0.3880501, 0.3880501, 0, 0, -257.0977, 0, 0, 0, 1, 0, 13
XKF4, 421211414, 0, 0.02, 0, 0.01, 0.08, 0, 0.006134545, 0.02924588, 0.1796581, 0, 48, 109375, 0, 0
XKY0, 421211414, 0, 349.8824, 13.75101, 216.9552, 289.2366, 359.7675, 70.5631, 143.2834, 0.1898071, 0.2070771, 0.2147713, 0.2016863, 0.1866582
XKY1, 421211414, 0, -0.2817888, 0.132611, 0.3194444, 0.03725848, -0.3354906, -0.1968769, -0.2655388, 0.1011536, 0.3932507, 0.2195499
XKF1, 421211414, 0, 1.16, 1.63, 119.98, -0.005650332, 0.003151113, 0.01504711, 0.01331049, 0.8643909, -0.0852856, -0.6577553, 0.03, -0.37, 0, 631.39
XKF2, 421211414, 0, 0, 0, 0, 0, 0, 400, -5, 144, 0, 0, 0, 0, 0, 0
XKF3, 421211414, 0, -0.01, 0.04, 0.05, 0, 0.01, -0.33, 0, 0, 0, -7.19, 0, 0, 0.0003266037
XKF5, 421211414, 0, 0, 0, 0, 0, 1.02, 0.35, 0, 0, 0.5, 0.0009643299, 0.006664158, 0.01253654
XKFS, 421211414, 0, 0, 0, 0, 0, 0, 1, 0, 1
XKQ, 421211414, 0, 0.5001346, -0.007218496, 0.01594463, 0.8657708
XKF4, 421211414, 1, 0.02, 0, 0.01, 0.08, 0, 0.00613605, -0.06461921, 0.072056, 0, 48, 109375, 0, 0
XKY0, 421211414, 1, 315.1115, 14.70667, 215.9903, 287.9792, 359.9548, 71.95094, 143.9728, 0.1999706, 0.2001646, 0.2001311, 0.1999164, 0.1998172
XKY1, 421211414, 1, -0.03015598, -0.02514702, -0.02466423, -0.02937302, -0.03276839, 0.0434702, 0.04459021, 0.04969886, 0.05173777, 0.047889
XKF1, 421211414, 1, 1.07, 1.68, 120.01, -0.01282114, 0.003937983, 0.01267859, 0.01222636, 0.8597615, -0.08672336, -0.6565251, 0.01, 0.06, 0, 631.39
XKF2, 421211414, 1, 0, 0, 0, 0, 0, 400, -5, 144, 0, 0, 0, 0, 0, 0
XKF3, 421211414, 1, -0.02, 0.04, 0.05, 0, 0, -0.33, 0, 0, 0, -7.17, 0, 0.001570528, 0.0003222626
XKFS, 421211414, 1, 0, 0, 0, 0, 0, 1, 0, 1
XKQ, 421211414, 1, 0.4999541, -0.008063952, 0.01543819, 0.8658767
AHR2, 421212015, 1.14, 1.57, 118.49, 632.4, 15.3676622, 75.1254182, 0.5113504, -0.006685378, 0.01556347, 0.8592053
POS, 421212024, 15.3676621, 75.1254184, 632.04, -0.02224473, 0.6577553
MOTB, 421212029, 1, 1, 1, 0.02570977, 0, 2
RCIN, 421212035, 1102, 1927, 1102, 1927, 1758, 2000, 1000, 1000, 2000, 875, 875, 875, 875, 875
RCI2, 421212039, 875, 875, 0, 1
RCOU, 421212045, 1000, 1000, 1000, 1000, 0, 0, 0, 0, 0, 0, 0, 0, 0, 0
RCO2, 421212049, 0, 0, 0, 0
VIBE, 421212066, 0, 0.007650069, 0.00945534, 0.008232703, 0
VIBE, 421212066, 1, 0.06407044, 0.06174396, 0.08069228, 0
CTRL, 421212115, 0.2360966, 0.0001786021, 0.2090022, 0.0001785879, 0.05334155
IMU, 421212136, 0, 0.0007778647, -0.00693274, -0.002321945, 0.2798122, -0.1961149, -9.788587, 0, 0, 44.80676, 1, 1, 2022, 2022
IMU, 421212136, 1, -0.0007507551, -0.0008109633, -0.001358176, 0.2975552, -0.1852732, -9.797916, 0, 0, 45, 1, 1, 1998, 2046
FILE, @ROMFS/hwdef.dat, 704, 64, SART2_RX USART2\nPD8 USART3_TX USART3\nPD9 USART3_RX USART3\nPC6 US
DCM, 421213856, 1.141398, 1.571487, 118.4991, 0.01948368, 0.1351172, 0, 0, 0
EAHR, 421213879, 0, 0, 0, 0, 0, 0, 0, 0, 0, 0
FILE, @ROMFS/hwdef.dat, 768, 64, ART6_TX USART6\nPC7 USART6_RX USART6\nIOMCU_UART USART6\nPC5 BATT_V
FILE, @ROMFS/hwdef.dat, 832, 64, OLTAGE_SENS ADC1 SCALE(1)\nPC4 BATT_CURRENT_SENS ADC1 SCALE(1)\nPB
FILE, @ROMFS/hwdef.dat, 896, 64, 1 BATT2_VOLTAGE_SENS ADC1 SCALE(1)\nPA2 BATT2_CURRENT_SENS ADC1 S
IMU, 421252130, 0, -0.000126487, -0.006150177, 0.0008839378, 0.2828064, -0.1962973, -9.789303, 0, 0, 44.80676, 1, 1, 2022, 2022
IMU, 421252130, 1, 0.0008716873, -0.0008352749, 0.0005311088, 0.2946226, -0.1738943, -9.806801, 0, 0, 45, 1, 1, 1998, 2046
FILE, @ROMFS/hwdef.dat, 960, 64, CALE(1)\ndefine HAL_BATT_VOLT_PIN 8\ndefine HAL_BATT_CURR_PIN 4\nde
SURF, 421261688, 0, 2, 0, 0, 0.6904935
SURF, 421261716, 1, 2, 0, 0, 0.6904935
FILE, @ROMFS/hwdef.dat, 1024, 64, fine HAL_BATT_VOLT_SCALE 18.18\ndefine HAL_BATT_CURR_SCALE 36.36\n
RAD, 421276900, 66, 0, 100, 100, 0, 0, 0
FILE, @ROMFS/hwdef.dat, 1088, 64, PA4 VDD_5V_SENS  ADC1 SCALE(2)\nPA5 SPI1_SCK SPI1\nPA6 SPI1_MISO S
IMU, 421291938, 0, 0.0003595977, -0.00599009, -0.001169984, 0.2789283, -0.2041993, -9.788566, 0, 0, 44.80676, 1, 1, 2022, 2022
IMU, 421291938, 1, 0.0005861524, -6.478147E-06, -0.001426961, 0.2981455, -0.1910559, -9.80989, 0, 0, 45, 1, 1, 1998, 2046
FILE, @ROMFS/hwdef.dat, 1152, 64, PI1\nPA7 SPI1_MOSI SPI1\nPC13 ICM42688_CS CS\nPC14 BMI055_G_CS CS\nP
STAK, 421303010, 7, 177, 1456, 808, rcin
FILE, @ROMFS/hwdef.dat, 1216, 64, C15 BMI055_A_CS CS\nPE4  BMI055_DRDY_A INPUT\nPE5  BMI055_DRDY_G I
POWR, 421311612, 4.968127, 0, 1, 1, 6
MCU, 421311612, 38.66799, 3.348958, 3.341935, 3.354738
BAT, 421311625, 0, 15.58011, 15.84354, 1.04319, 142.9442, 2.241235, 0, 0.252523, 95, 1, 0
MAG, 421311637, 0, -166, -204, 187, 102, 25, 42, 0, 0, 0, 1, 421311635
MAG, 421311637, 1, -85, -373, 197, 32, 17, -32, 0, 0, 0, 1, 421311634
SURF, 421311710, 0, 2, 0, 0, 0.6888856
SURF, 421311734, 1, 2, 0, 0, 0.6888856
BARO, 421311754, 0, 0.3925171, 631.7825, 93695.22, 39.21, 0.0210762, 421311, 0, 34.66125, 1
CTUN, 421311767, 0, 0, 0, 0.2570977, 0, 0.6570665, 0.39, NaN, 0, -0.02959421, 0, -1
ATT, 421311829, -20.7046, 1.16687, 22.20737, 1.6333, 120.0129, 120.0129, 3
ANG, 421311266, -20.7046, 1.16687, 22.20737, 1.6333, 120.0129, 120.0129, 0.0025
RATE, 421311280, -100.1938, -0.03608785, -0.2359855, 88.6987, -0.02500089, 0.2092286, 16.9477, -0.1289131, 0.053369, 0.2550125, -0.4025459, 0, 0
PIDR, 421311845, -1.748715, -0.0006298518, -1.748085, -0.2359915, 0, 5.974602E-06, 0, 0, 1, 0.2766043, 9
