FMT, 128, 89, FMT, BBnNZ, Type,Length,Name,Format,Columns
FMT, 119, 76, UNIT, QbZ, TimeUS,Id,Label
FMT, 118, 44, FMTU, QBNN, TimeUS,FmtType,UnitIds,MultIds
FMT, 120, 20, MULT, Qbd, TimeUS,Id,Mult
FMT, 32, 35, PARM, QNff, TimeUS,Name,Value,Default
FMT, 94, 51, GPS, QBBIHBcLLeffffB, TimeUS,I,Status,GMS,GWk,NSats,HDop,Lat,Lng,Alt,Spd,GCrs,VZ,Yaw,U
FMT, 95, 39, GPA, QBCCCCfBIHeHH, TimeUS,I,VDop,HAcc,VAcc,SAcc,YAcc,VV,SMS,Delta,AEl,RTCMFU,RTCMFD
FMT, 99, 22, UBX1, QBHBBHI, TimeUS,Instance,noisePerMS,jamInd,aPower,agcCnt,config
FMT, 100, 16, UBX2, QBbBbB, TimeUS,Instance,ofsI,magI,ofsQ,magQ
FMT, 96, 42, GRAW, QIHBBddfBbB, TimeUS,WkMS,Week,numSV,sv,cpMes,prMes,doMes,mesQI,cno,lli
FMT, 97, 24, GRXH, QdHbBB, TimeUS,rcvTime,week,leapS,numMeas,recStat
FMT, 98, 41, GRXS, QddfBBBHBBBBB, TimeUS,prMes,cpMes,doMes,gnss,sv,freq,lock,cno,prD,cpD,doD,trk
FMT, 101, 23, SBPH, QIII, TimeUS,CrcError,LastInject,IARhyp
FMT, 102, 67, SBRH, QQQQQQQQ, TimeUS,msg_flag,1,2,3,4,5,6
FMT, 103, 123, SBRM, QQQQQQQQQQQQQQQ, TimeUS,msg_flag,1,2,3,4,5,6,7,8,9,10,11,12,13
FMT, 104, 23, SBRE, QHIiBB, TimeUS,GWk,GMS,ns_residual,level,quality
FMT, 59, 75, MSG, QZ, TimeUS,Message
FMT, 60, 39, RCIN, QHHHHHHHHHHHHHH, TimeUS,C1,C2,C3,C4,C5,C6,C7,C8,C9,C10,C11,C12,C13,C14
FMT, 61, 18, RCI2, QHHHB, TimeUS,C15,C16,OMask,Flags
FMT, 62, 39, RCOU, QHHHHHHHHHHHHHH, TimeUS,C1,C2,C3,C4,C5,C6,C7,C8,C9,C10,C11,C12,C13,C14
FMT, 207, 19, RCO2, QHHHH, TimeUS,C15,C16,C17,C18
FMT, 208, 39, RCO3, QHHHHHHHHHHHHHH, TimeUS,C19,C20,C21,C22,C23,C24,C25,C26,C27,C28,C29,C30,C31,C32
FMT, 63, 19, RSSI, Qff, TimeUS,RXRSSI,RXLQ
FMT, 64, 43, BARO, QBfffcfIffB, TimeUS,I,Alt,AltAMSL,Press,Temp,CRt,SMS,Offset,GndTemp,Health
FMT, 65, 24, BARD, QBfff, TimeUS,I,DynPrX,DynPrY,DynPrZ
FMT, 66, 25, CANF, QBIBBBBBBBBB, TimeUS,Bus,Id,DLC,B0,B1,B2,B3,B4,B5,B6,B7
FMT, 67, 81, CAFD, QBIBQQQQQQQQ, TimeUS,Bus,Id,DLC,D0,D1,D2,D3,D4,D5,D6,D7
FMT, 196, 50, PL, QBBfffffffIIB, TimeUS,Heal,TAcq,pX,pY,vX,vY,mX,mY,mZ,LastMeasMS,EKFOutl,Est
FMT, 68, 24, POWR, QffHHB, TimeUS,Vcc,VServo,Flags,AccFlags,Safety
FMT, 69, 27, MCU, Qffff, TimeUS,MTemp,MVolt,MVmin,MVmax
FMT, 93, 46, CMD, QHHHffffLLfB, TimeUS,CTot,CNum,CId,Prm1,Prm2,Prm3,Prm4,Lat,Lng,Alt,Frame
FMT, 92, 46, MISE, QHHHffffLLfB, TimeUS,CTot,CNum,CId,Prm1,Prm2,Prm3,Prm4,Lat,Lng,Alt,Frame
FMT, 78, 48, MAVC, QBBBBBHffffiifBB, TimeUS,TS,TC,SS,SC,Fr,Cmd,P1,P2,P3,P4,X,Y,Z,Res,WL
FMT, 79, 20, RAD, QBBBBBHH, TimeUS,RSSI,RemRSSI,TxBuf,Noise,RemNoise,RxErrors,Fixed
FMT, 81, 46, CAM, QBHIHLLeeeccC, TimeUS,I,Img,GPSTime,GPSWeek,Lat,Lng,Alt,RelAlt,GPSAlt,R,P,Y
FMT, 82, 46, TRIG, QBHIHLLeeeccC, TimeUS,I,Img,GPSTime,GPSWeek,Lat,Lng,Alt,RelAlt,GPSAlt,R,P,Y
FMT, 83, 48, MNT, QBfffffffff, TimeUS,I,DRoll,Roll,DPitch,Pitch,DYawB,YawB,DYawE,YawE,Dist
FMT, 114, 41, ARSP, QBffcffBBffB, TimeUS,I,Airspeed,DiffPress,Temp,RawPress,Offset,U,H,Hp,TR,Pri
FMT, 88, 41, BAT, QBfffffcfBBB, TimeUS,Inst,Volt,VoltR,Curr,CurrTot,EnrgTot,Temp,Res,RemPct,H,SH
FMT, 89, 40, BCL, QBfHHHHHHHHHHHH, TimeUS,Instance,Volt,V1,V2,V3,V4,V5,V6,V7,V8,V9,V10,V11,V12
FMT, 113, 35, MAG, QBhhhhhhhhhBI, TimeUS,I,MagX,MagY,MagZ,OfsX,OfsY,OfsZ,MOX,MOY,MOZ,Health,S
FMT, 122, 14, MODE, QMBB, TimeUS,Mode,ModeNum,Rsn
FMT, 116, 17, RFND, QBCBBb, TimeUS,Instance,Dist,Stat,Orient,Quality
FMT, 117, 36, DMS, QIIIIBBBBBBBBB, TimeUS,N,Dp,RT,RS,Fa,Fmn,Fmx,Pa,Pmn,Pmx,Sa,Smn,Smx
FMT, 174, 41, BCN, QBBfffffff, TimeUS,Health,Cnt,D0,D1,D2,D3,PosX,PosY,PosZ
FMT, 175, 57, PRX, QBBfffffffffff, TimeUS,Layer,He,D0,D45,D90,D135,D180,D225,D270,D315,DUp,CAn,CDis
FMT, 176, 44, PRXR, QBffffffff, TimeUS,Layer,D0,D45,D90,D135,D180,D225,D270,D315
FMT, 179, 61, PM, QHHHIIHHIIIIIIQ, TimeUS,LR,NLon,NL,MaxT,Mem,Load,ErrL,InE,ErC,SPIC,I2CC,I2CI,Ex,R
FMT, 178, 29, SRTL, QBHHBfff, TimeUS,Active,NumPts,MaxPts,Action,N,E,D
FMT, 170, 48, OABR, QBBHHHBfLLiLLi, TimeUS,Type,Act,DYaw,Yaw,DP,RChg,Mar,DLt,DLg,DAlt,OLt,OLg,OAlt
FMT, 171, 31, OADJ, QBBBBLLLL, TimeUS,State,Err,CurrPoint,TotPoints,DLat,DLng,OALat,OALng
FMT, 172, 37, SA, QBffffffB, TimeUS,State,DVelX,DVelY,DVelZ,MVelX,MVelY,MVelZ,Back
FMT, 173, 21, OAVG, QBBLL, TimeUS,version,point_num,Lat,Lon
FMT, 77, 45, SIM, QccCfLLffff, TimeUS,Roll,Pitch,Yaw,Alt,Lat,Lng,Q1,Q2,Q3,Q4
FMT, 84, 38, TERR, QBLLHffHHf, TimeUS,Status,Lat,Lng,Spacing,TerrH,CHeight,Pending,Loaded,ROfs
FMT, 86, 40, ESC, QBffffcfcf, TimeUS,Instance,RPM,RawRPM,Volt,Curr,Temp,CTot,MotTemp,Err
FMT, 87, 15, EDT2, QBBBB, TimeUS,Instance,Stress,MaxStress,Status
FMT, 85, 46, CSRV, QBfffBfffffB, TimeUS,Id,Pos,Force,Speed,Pow,PosCmd,V,A,MotT,PCBT,Err
FMT, 105, 52, PIDR, QffffffffffB, TimeUS,Tar,Act,Err,P,I,D,FF,DFF,Dmod,SRate,Flags
FMT, 106, 52, PIDP, QffffffffffB, TimeUS,Tar,Act,Err,P,I,D,FF,DFF,Dmod,SRate,Flags
FMT, 107, 52, PIDY, QffffffffffB, TimeUS,Tar,Act,Err,P,I,D,FF,DFF,Dmod,SRate,Flags
FMT, 108, 52, PIDA, QffffffffffB, TimeUS,Tar,Act,Err,P,I,D,FF,DFF,Dmod,SRate,Flags
FMT, 109, 52, PIDS, QffffffffffB, TimeUS,Tar,Act,Err,P,I,D,FF,DFF,Dmod,SRate,Flags
FMT, 110, 52, PIDN, QffffffffffB, TimeUS,Tar,Act,Err,P,I,D,FF,DFF,Dmod,SRate,Flags
FMT, 111, 52, PIDE, QffffffffffB, TimeUS,Tar,Act,Err,P,I,D,FF,DFF,Dmod,SRate,Flags
FMT, 112, 56, DSTL, QBfLLeccfeffff, TimeUS,Stg,THdg,Lat,Lng,Alt,XT,Travel,L1I,Loiter,Des,P,I,D
FMT, 161, 32, ACC, QBQfff, TimeUS,I,SampleUS,AccX,AccY,AccZ
FMT, 162, 32, GYR, QBQfff, TimeUS,I,SampleUS,GyrX,GyrY,GyrZ
FMT, 163, 54, IMU, QBffffffIIfBBHH, TimeUS,I,GyrX,GyrY,GyrZ,AccX,AccY,AccZ,EG,EA,T,GH,AH,GHz,AHz
FMT, 166, 28, VIBE, QBfffI, TimeUS,IMU,VibeX,VibeY,VibeZ,Clip
FMT, 164, 31, ISBH, QHBBHHQf, TimeUS,N,type,instance,mul,smp_cnt,SampleUS,smp_rate
FMT, 165, 207, ISBD, QHHaaa, TimeUS,N,seqno,x,y,z
FMT, 129, 15, RFRH, QI, TimeUS,TF
FMT, 130, 5, RFRF, BB, FTypes,Slow
FMT, 138, 38, RFRN, IIIfIfffBBB, HLat,HLon,HAlt,E2T,AM,TX,TY,TZ,VC,EKT,Flags
FMT, 131, 4, REV2, B, Event
FMT, 132, 15, RSO2, III, Lat,Lon,Alt
FMT, 133, 11, RWA2, ff, Airspeed,uncertainty
FMT, 134, 4, REV3, B, Event
FMT, 135, 15, RSO3, III, Lat,Lon,Alt
FMT, 136, 11, RWA3, ff, Airspeed,Uncertainty
FMT, 137, 16, REY3, ffIB, yawangle,yawangleerr,timestamp_ms,type
FMT, 139, 13, RISH, HBBfBB, LR,PG,PA,LD,AC,GC
FMT, 140, 37, RISI, ffffffffBB, DVX,DVY,DVZ,DAX,DAY,DAZ,DVDT,DADT,Flags,I
FMT, 148, 5, RASH, BB, Primary,NumInst
FMT, 149, 14, RASI, fIBBB, pd,UpdateMS,H,Use,I
FMT, 141, 5, RBRH, BB, Primary,NumInst
FMT, 142, 13, RBRI, IfBB, LastUpdate,Alt,H,I
FMT, 143, 8, RRNH, hhB, GCl,MaxD,NumSensors
FMT, 144, 20, RRNI, fffHBBB, PX,PY,PZ,Dist,Orient,Status,I
FMT, 145, 5, RGPH, BB, NumInst,Primary
FMT, 146, 23, RGPI, ffffBBBB, OX,OY,OZ,Lg,Flags,Stat,NSats,I
FMT, 147, 58, RGPJ, IffffffIiiiffHB, TS,VX,VY,VZ,SA,Y,YA,YT,Lat,Lon,Alt,HA,VA,HD,I
FMT, 153, 14, RMGH, fBBBBBBB, Dec,Avail,NumInst,AutoDec,NumEna,LOE,C,FUsable
FMT, 154, 35, RMGI, IffffffBBBB, LU,OX,OY,OZ,FX,FY,FZ,UFY,H,HSF,I
FMT, 150, 33, RBCH, ffffiiiBB, PX,PY,PZ,AE,OLat,OLng,OAlt,Flags,NumInst
FMT, 151, 25, RBCI, IffffBB, LU,PX,PY,PZ,Dist,H,I
FMT, 152, 21, RVOH, fffIBB, OX,OY,OZ,Del,H,Ena
FMT, 155, 40, ROFH, ffffIffffB, FX,FY,GX,GY,Tms,PX,PY,PZ,HgtOvr,Qual
FMT, 156, 49, REPH, fffffffffIIH, PX,PY,PZ,Q1,Q2,Q3,Q4,PEr,AEr,TS,RT,D
FMT, 157, 19, RSLL, IIfI, Lat,Lng,PosAccSD,TS
FMT, 158, 25, REVH, ffffIH, VX,VY,VZ,Er,TS,D
FMT, 159, 31, RWOH, ffIffff, DA,DT,TS,PX,PY,PZ,R
FMT, 160, 53, RBOH, ffffffffIfffH, Q,DPX,DPY,DPZ,DAX,DAY,DAZ,DT,TS,OX,OY,OZ,D
FMT, 43, 37, XKF0, QBBccCCcccccccc, TimeUS,C,ID,rng,innov,SIV,TR,BPN,BPE,BPD,OFH,OFL,OFN,OFE,OFD
FMT, 44, 56, XKF1, QBccCfffffffccce, TimeUS,C,Roll,Pitch,Yaw,VN,VE,VD,dPD,PN,PE,PD,GX,GY,GZ,OH
FMT, 45, 46, XKF2, QBccccchhhhhhfff, TimeUS,C,AX,AY,AZ,VWN,VWE,MN,ME,MD,MX,MY,MZ,IDX,IDY,IS
FMT, 46, 42, XKF3, QBcccccchhhccff, TimeUS,C,IVN,IVE,IVD,IPN,IPE,IPD,IMX,IMY,IMZ,IYAW,IVT,RErr,ErSc
FMT, 47, 44, XKF4, QBcccccfffHBIHb, TimeUS,C,SV,SP,SH,SM,SVT,errRP,OFN,OFE,FS,TS,SS,GPS,PI
FMT, 48, 41, XKF5, QBBhhhcccCCfff, TimeUS,C,NI,FIX,FIY,AFI,HAGL,offset,RI,rng,Herr,eAng,eVel,ePos
FMT, 49, 36, XKFD, QBffffff, TimeUS,C,IX,IY,IZ,IVX,IVY,IVZ
FMT, 50, 29, XKFM, QBBffff, TimeUS,C,OGNM,GLR,ALR,GDR,ADR
FMT, 51, 20, XKFS, QBBBBBBBBB, TimeUS,C,MI,BI,GI,AI,SS,GPS_GTA,GPS_CHK_WAIT,MAG_FUSION
FMT, 52, 28, XKQ, QBffff, TimeUS,C,Q1,Q2,Q3,Q4
FMT, 53, 48, XKT, QBIffffffff, TimeUS,C,Cnt,IMUMin,IMUMax,EKFMin,EKFMax,AngMin,AngMax,VMin,VMax
FMT, 54, 20, XKTV, QBff, TimeUS,C,TVS,TVD
FMT, 55, 60, XKV1, QBffffffffffff, TimeUS,C,V00,V01,V02,V03,V04,V05,V06,V07,V08,V09,V10,V11
FMT, 56, 60, XKV2, QBffffffffffff, TimeUS,C,V12,V13,V14,V15,V16,V17,V18,V19,V20,V21,V22,V23
FMT, 57, 60, XKY0, QBffffffffffff, TimeUS,C,YC,YCS,Y0,Y1,Y2,Y3,Y4,W0,W1,W2,W3,W4
FMT, 58, 52, XKY1, QBffffffffff, TimeUS,C,IVN0,IVN1,IVN2,IVN3,IVN4,IVE0,IVE1,IVE2,IVE3,IVE4
FMT, 41, 60, NKY0, QBffffffffffff, TimeUS,C,YC,YCS,Y0,Y1,Y2,Y3,Y4,W0,W1,W2,W3,W4
FMT, 42, 52, NKY1, QBffffffffff, TimeUS,C,IVN0,IVN1,IVN2,IVN3,IVN4,IVE0,IVE1,IVE2,IVE3,IVE4
FMT, 70, 45, AHR2, QccCfLLffff, TimeUS,Roll,Pitch,Yaw,Alt,Lat,Lng,Q1,Q2,Q3,Q4
FMT, 71, 19, AOA, Qff, TimeUS,AOA,SSA
FMT, 181, 12, EV, QB, TimeUS,Id
EV, 210293868, 56
FMT, 72, 36, ATT, QffffffB, TimeUS,DesRoll,Roll,DesPitch,Pitch,DesYaw,Yaw,AEKF
FMT, 73, 24, ORGN, QBLLe, TimeUS,Type,Lat,Lng,Alt
FMT, 74, 31, POS, QLLfff, TimeUS,Lat,Lng,Alt,RelHomeAlt,RelOriginAlt
FMT, 76, 35, ATSC, Qffffff, TimeUS,AngPScX,AngPScY,AngPScZ,PDScX,PDScY,PDScZ
FMT, 204, 51, VSTB, Qffffffffff, TimeUS,GyrX,GyrY,GyrZ,AccX,AccY,AccZ,Q1,Q2,Q3,Q4
FMT, 90, 38, MON, QIbIHHHHHII, TimeUS,Dly,Tsk,IErr,IErrCnt,IErrLn,MM,MC,SmLn,SPICnt,I2CCnt
FMT, 91, 47, WDOG, QbIHHHHHHHIBIIn, TimeUS,Tsk,IE,IEC,IEL,MvMsg,MvCmd,SmLn,FL,FT,FA,FP,ICSR,LR,TN
FMT, 210, 20, UART, QBff, TimeUS,I,Tx,Rx
FMT, 115, 21, RPM, QBffB, TimeUS,I,RPM,Qual,H
FMT, 209, 27, FNCE, QBBBLLBf, TimeUS,Tot,Seq,Type,Lat,Lng,Count,Radius
FMT, 177, 33, DSF, QIHIIII, TimeUS,Dp,Blk,Bytes,FMn,FMx,FAv
FMT, 121, 24, RALY, QBBLLhB, TimeUS,Tot,Seq,Lat,Lng,Alt,Flags
FMT, 183, 23, MAV, QBHHHBHH, TimeUS,chan,txp,rxp,rxdp,flags,ss,tf
FMT, 167, 43, VISO, Qffffffff, TimeUS,dt,AngDX,AngDY,AngDZ,PosDX,PosDY,PosDZ,conf
FMT, 168, 58, VISP, QQIffffffffBBb, TimeUS,RTimeUS,CTimeMS,PX,PY,PZ,R,P,Y,PErr,AErr,Rst,Ign,Q
FMT, 169, 42, VISV, QQIffffBBb, TimeUS,RTimeUS,CTimeMS,VX,VY,VZ,VErr,Rst,Ign,Q
FMT, 180, 28, OF, QBffff, TimeUS,Qual,flowX,flowY,bodyX,bodyY
FMT, 182, 21, WENC, Qfbfb, TimeUS,Dist0,Qual0,Dist1,Qual1
FMT, 185, 35, ADSB, QIiiiHHhH, TimeUS,ICAO_address,Lat,Lng,Alt,Heading,Hor_vel,Ver_vel,Squark
FMT, 186, 18, ARM, QBIBB, TimeUS,ArmState,ArmChecks,Forced,Method
FMT, 184, 13, ERR, QBB, TimeUS,Subsys,ECode
FMT, 187, 35, WINC, QBBBBBfffHfb, TimeUS,Heal,ThEnd,Mov,Clut,Mode,DLen,Len,DRate,Tens,Vcc,Temp
FMT, 188, 47, PSCN, Qfffffffff, TimeUS,DPN,TPN,PN,DVN,TVN,VN,DAN,TAN,AN
FMT, 189, 47, PSCE, Qfffffffff, TimeUS,DPE,TPE,PE,DVE,TVE,VE,DAE,TAE,AE
FMT, 190, 47, PSCD, Qfffffffff, TimeUS,DPD,TPD,PD,DVD,TVD,VD,DAD,TAD,AD
FMT, 191, 35, PSON, Qffffff, TimeUS,TPON,PON,TVON,VON,TAON,AON
FMT, 192, 35, PSOE, Qffffff, TimeUS,TPOE,POE,TVOE,VOE,TAOE,AOE
FMT, 193, 35, PSOD, Qffffff, TimeUS,TPOD,POD,TVOD,VOD,TAOD,AOD
FMT, 194, 35, PSOT, Qffffff, TimeUS,TPOT,POT,TVOT,VOT,TAOT,AOT
FMT, 75, 63, RATE, Qfffffffffffff, TimeUS,RDes,R,ROut,PDes,P,POut,YDes,Y,YOut,ADes,A,AOut,AOutSlew
FMT, 195, 39, ANG, Qfffffff, TimeUS,DesRoll,Roll,DesPitch,Pitch,DesYaw,Yaw,Dt
FMT, 201, 33, STAK, QBBHHN, TimeUS,Id,Pri,Total,Free,Name
FMT, 202, 88, FILE, NIBZ, FileName,Offset,Length,Data
FMT, 197, 78, AISR, QBBBZ, TimeUS,num,total,ID,payload
FMT, 198, 41, AIS1, QBBIBbHbLLHHBBbI, US,typ,rep,mmsi,nav,rot,sog,pos,lon,lat,cog,hed,sec,man,raim,rad
FMT, 199, 38, AIS4, QBIHBBBBBBLLBBI, US,rep,mmsi,year,mth,day,h,m,s,fix,lon,lat,epfd,raim,rad
FMT, 200, 175, AIS5, QBIBINZBHHBBBBZB, US,rep,mmsi,ver,imo,cal,nam,typ,bow,stn,prt,str,fix,dght,dst,dte
FMT, 203, 39, SCR, QNIii, TimeUS,Name,Runtime,Total_mem,Run_mem
FMT, 206, 90, VER, QBHBBBBIZHBB, TimeUS,BT,BST,Maj,Min,Pat,FWT,GH,FWS,APJ,BU,FV
FMT, 205, 32, MOTB, QfffffB, TimeUS,LiftMax,BatVolt,ThLimit,ThrAvMx,ThrOut,FailFlags
FMT, 6, 24, PTUN, QBfff, TimeUS,Param,TunVal,TunMin,TunMax
FMT, 0, 55, CTUN, Qffffffefffhh, TimeUS,ThI,ABst,ThO,ThH,DAlt,Alt,BAlt,DSAlt,SAlt,TAlt,DCRt,CRt
FMT, 1, 14, D16, QBh, TimeUS,Id,Value
FMT, 2, 14, DU16, QBH, TimeUS,Id,Value
FMT, 3, 16, D32, QBi, TimeUS,Id,Value
FMT, 4, 16, DU32, QBI, TimeUS,Id,Value
FMT, 5, 16, DFLT, QBf, TimeUS,Id,Value
FMT, 9, 47, SIDD, Qfffffffff, TimeUS,Time,Targ,F,Gx,Gy,Gz,Ax,Ay,Az
FMT, 10, 40, SIDS, QBfffffff, TimeUS,Ax,Mag,FSt,FSp,TFin,TC,TR,TFout
FMT, 8, 49, GUIP, QBfffbffffff, TimeUS,Type,pX,pY,pZ,Terrain,vX,vY,vZ,aX,aY,aZ
FMT, 11, 44, GUIA, QBffffffff, TimeUS,Type,Roll,Pitch,Yaw,RollRt,PitchRt,YawRt,Thrust,ClimbRt
FMT, 252, 43, DCM, Qffffffff, TimeUS,Roll,Pitch,Yaw,ErrRP,ErrYaw,VWN,VWE,VWD
DCM, 210296446, -0.5040129, 2.320518, 218.5102, 0.2766407, 0.1003263, 0, 0, 0
FMT, 251, 51, EAHR, QffffffLLfI, TimeUS,Roll,Pitch,Yaw,VN,VE,VD,Lat,Lon,Alt,Flg
EAHR, 210296504, 0, 0, 0, 0, 0, 0, 0, 0, 0, 0
IMU, 210306903, 0, 0.001649779, 0.000171187, 0.0005851591, -0.1364658, 0.04212423, -9.818658, 0, 0, 44.80676, 1, 1, 2022, 2022
IMU, 210306903, 1, 0.002202632, 0.001616337, -0.0001899688, -0.1153458, -0.09006752, -9.829055, 0, 0, 45, 1, 1, 1999, 2045
POWR, 210331883, 4.940231, 0, 5, 5, 2
MCU, 210331883, 36.42147, 3.348676, 3.340954, 3.355021
BAT, 210331897, 0, 15.71199, 15.77493, 0.5866112, 45.08894, 0.7148747, 0, 0.1073, 98, 1, 0
MAG, 210331910, 0, -307, 305, 142, -382, 367, 647, 0, 0, 0, 1, 210331908
MAG, 210331910, 1, 78, 432, 104, 59, 22, -40, 0, 0, 0, 1, 210331907
FMT, 249, 25, SURF, QBBfff, TimeUS,I,St,D,FD,TO
SURF, 210331932, 0, 2, 0, 0, 0.06194182
SURF, 210331960, 1, 2, 0, 0, 0.06194182
BARO, 210331981, 0, 0.1412354, 0.1412354, 93556.63, 36.22, 0.2104759, 210331, 0, 30.41755, 1
CTUN, 210331995, 0, 0, 0, 0.431117, 0, 0.061312, 0.14, NaN, 0, 31.90808, 0, -1
ATT, 210332074, 0.0003198488, 0.3841472, 0.0001281266, 0.01785454, 219.6964, 219.6882, 3
ANG, 210331335, 0.0003198488, 0.3840621, 0.0001281266, 0.01782703, 219.6964, 219.6964, 0.002506
RATE, 210331349, -1.729094, -0.05650011, -0.003535386, -0.080622, -0.04097901, -6.817353E-05, 0.0002947298, -0.221894, 0.0005659418, 0, -0.1375198, 0, 0
PIDR, 210332116, -0.03021643, -0.000986113, -0.02923032, -0.003946093, 0, 0.0004107069, 0, 0, 1, 0.06136818, 9
PIDP, 210332121, -0.001437544, -0.0007152187, -0.0007223251, -9.751389E-05, 0, 2.934036E-05, 0, 0, 1, 0.0315154, 9
PIDY, 210332125, 5.541217E-06, -0.003872781, 0.003144121, 0.0005659418, 0, 0, 0, 0, 1, 0.001731651, 9
PIDA, 210332130, 0, 0, 0, 0, 0, 0, 0, 0, 0, 0, 0
XKF4, 210331437, 0, 0, 0, 0, 0.04, 0, 0.008657484, 0, 0, 0, 50, 65703, 7, 0
XKF1, 210331437, 0, 0.38, 0.01, 219.68, -0.06278206, -0.04549329, 0.01730125, -0.01317203, 0, 0, -0.06131201, 0, -0.01, 0.18, 0
XKF2, 210331437, 0, 0.01, 0.05, -0.01, 0, 0, 459, 0, 111, 0, 0, 0, 0, 0, 0
XKF3, 210331437, 0, 0, 0, 0, -0.12, -0.08, 0.2, 0, 0, 0, -3.92, 0, 0, 9.847536E-05
XKF5, 210331437, 0, 0, 0, 0, 0, 1.19, 1.13, 0, 0, 0.5, 0.000694964, 0.00142129, 0.003773788
XKFS, 210331437, 0, 0, 0, 0, 0, 0, 0, 0, 1
XKQ, 210331437, 0, -0.3394538, 0.009524263, 0.004603175, 0.9405632
XKF4, 210331437, 1, 0, 0, 0, 0.04, 0, 0.008728752, 0, 0, 0, 50, 65703, 7, 0
XKF1, 210331437, 1, 2.85, 0.7, 219.01, 0.09017994, 0.0152211, -0.01856965, -0.02687873, 0, 0, -0.2057201, -0.01, -0.04, 0.13, 0
XKF2, 210331437, 1, 0, 0.3, -0.01, 0, 0, 460, 0, 110, 0, 0, 0, 0, 0, 0
XKF3, 210331437, 1, 0, 0, 0, 0.12, 0.01, 0.05, 0, 0, 0, -4.2, 0, 0.003535342, 8.058133E-06
XKFS, 210331437, 1, 0, 0, 0, 0, 0, 0, 0, 1
XKQ, 210331437, 1, -0.3339421, -0.003264073, 0.0228587, 0.9423107
AHR2, 210332266, -0.49, 2.52, 218.51, 0.25, 15.3691915, 75.1237011, -0.3298124, -0.01939938, -0.01130668, 0.9437794
POS, 210332289, 15.3691893, 75.123699, 677.61, 0.1412354, 0.06131201
MOTB, 210332297, 1, 1, 1, 0.0431117, 0, 2
RCIN, 210332304, 0, 0, 0, 0, 0, 0, 0, 0, 0, 0, 0, 0, 0, 0
RCI2, 210332308, 0, 0, 0, 1
RCOU, 210332317, 1000, 1000, 1000, 1000, 0, 0, 0, 0, 0, 0, 0, 0, 0, 0
RCO2, 210332321, 0, 0, 0, 0
VIBE, 210332329, 0, 0.03415706, 0.02290769, 0.01599296, 0
VIBE, 210332329, 1, 0.1240575, 0.2695388, 0.120281, 0
FMT, 247, 31, CTRL, Qfffff, TimeUS,RMSRollP,RMSRollD,RMSPitchP,RMSPitchD,RMSYaw
CTRL, 210332341, 0.004069679, 0.0003402789, 0.0002090498, 0.000123372, 0.0005531561
IMU, 210346765, 0, -0.0008805163, -0.0003769156, 0.0002502603, -0.2004891, 0.02695994, -9.80827, 0, 0, 44.80676, 1, 1, 2022, 2022
IMU, 210346765, 1, -0.001653765, 0.001969093, -0.0002823923, -0.1554468, -0.1485622, -9.791424, 0, 0, 45, 1, 1, 1999, 2045
SURF, 210382036, 0, 2, 0, 0, 0.06191107
SURF, 210382046, 1, 2, 0, 0, 0.06191107
MSG, 210384507, ArduCopter V4.6.2 (1ebd4d99)
MSG, 210384515, ChibiOS: 88b84600
VER, 210384521, 10, 5009, 4, 6, 2, 255, 515722649, ArduCopter V4.6.2 (1ebd4d99), 56, 2, 2
MSG, 210384537, Pixhawk6C 003D0048 3133510F 31343630
MSG, 210384546, Param space used: 951/5376
MSG, 210384553, RC Protocol: None
MSG, 210384564, RCOut: PWM:1-16
MSG, 210384569, New mission
IMU, 210386700, 0, 0.00133575, -0.0002068303, 0.000865416, -0.1590547, 0.04383792, -9.813769, 0, 0, 44.80676, 1, 1, 2022, 2022
IMU, 210386700, 1, 0.001280293, -0.001734858, 0.001398966, -0.1057007, -0.1159677, -9.783566, 0, 0, 45, 1, 1, 1999, 2045
CMD, 210386716, 4, 0, 16, 0, 0, 0, 0, 0, 0, 0, 0
CMD, 210386725, 4, 1, 22, 1, 0, 0, 0, 0, 0, 10, 3
CMD, 210386733, 4, 2, 16, 10, 0, 0, 0, 15.367361, 75.1254623, 10, 3
CMD, 210386783, 4, 3, 20, 0, 0, 0, 0, 0, 0, 0, 0
MSG, 210386799, New rally
MSG, 210386816, New fence
FNCE, 210386823, 10, 0, 98, 15.3694775, 75.1243937, 10, 0
FNCE, 210386829, 10, 1, 98, 15.3694025, 75.1246646, 10, 0
FNCE, 210386834, 10, 2, 98, 15.3694775, 75.1248684, 10, 0
FNCE, 210386842, 10, 3, 98, 15.3696456, 75.1249086, 10, 0
FNCE, 210386848, 10, 4, 98, 15.3699042, 75.1248443, 10, 0
FNCE, 210386854, 10, 5, 98, 15.3702533, 75.1247826, 10, 0
FNCE, 210386860, 10, 6, 98, 15.3703154, 75.1244822, 10, 0
FNCE, 210386868, 10, 7, 98, 15.3700982, 75.124281, 10, 0
FNCE, 210386874, 10, 8, 98, 15.3698292, 75.1241469, 10, 0
FNCE, 210386880, 10, 9, 98, 15.3695111, 75.1241147, 10, 0
MSG, 210386890, Frame: QUAD/X
MODE, 210386895, Stabilize, 0, 26
MSG, 210386904, GPS 1: probing for u-blox at 230400 baud
MSG, 210386914, u-blox 1 HW: 00190000 SW: EXT CORE 4.04 (7f89f7)
GPS, 210391845, 0, 3, 132269800, 2380, 6, 1.68, 15.3691899, 75.1236985, 677.42, 0.457, 33.99009, -0.307, 0, 1
GPA, 210391845, 0, 2.96, 7.51, 10.55, 1.73, 0, 1, 210358, 200, 599.41, 0, 0
DCM, 210396450, -0.4624161, 2.895205, 218.5531, 0.2288175, 0.1011951, 0, 0, 0
EAHR, 210396469, 0, 0, 0, 0, 0, 0, 0, 0, 0, 0
IMU, 210426932, 0, -0.0009531204, 2.064529E-05, -0.0003028975, -0.1761906, 0.02223389, -9.816123, 0, 0, 44.80676, 1, 1, 2022, 2022
IMU, 210426932, 1, -0.0012763, -0.0001931548, -0.0005664684, -0.1241166, -0.1322824, -9.818632, 0, 0, 45, 1, 1, 1999, 2045
STAK, 210429380, 20, 181, 1456, 832, SPI1
POWR, 210431835, 4.946374, 0, 5, 5, 2
MCU, 210431835, 36.52087, 3.348113, 3.340254, 3.354173
BAT, 210431852, 0, 15.68187, 15.7393, 0.5351638, 45.10381, 0.7151077, 0, 0.1073, 98, 1, 0
MAG, 210431863, 0, -299, 286, 163, -382, 367, 647, 0, 0, 0, 1, 210431862
MAG, 210431863, 1, 80, 432, 105, 59, 22, -40, 0, 0, 0, 1, 210431860
SURF, 210431908, 0, 2, 0, 0, 0.06191116
SURF, 210431918, 1, 2, 0, 0, 0.06191116
BARO, 210431964, 0, 0.09710693, 0.09710693, 93557.14, 36.23, -0.1332474, 210431, 0, 30.41755, 1
CTUN, 210431984, 0, 0, 0, 0.431117, 0, 0.06300236, 0.09, NaN, 0, 31.71668, 0, -1
ATT, 210432034, 0.0003198488, 0.3845109, 0.0001281265, 0.02206002, 219.7007, 219.6925, 3
ANG, 210431333, 0.0003198488, 0.3844264, 0.0001281265, 0.02203248, 219.7007, 219.7007, 0.002504
RATE, 210431345, -1.730413, -0.04212654, -0.004060856, -0.09952591, 0.004711605, -0.0002270719, 0.0003390007, -0.1890141, 0.0005658903, 0, -0.1299858, 0, 0
PIDR, 210432057, -0.03019223, -0.0007352469, -0.02945698, -0.003976693, 0, -8.416302E-05, 0, 0, 1, 0.06255371, 9
PIDP, 210432062, -0.001666233, 8.223302E-05, -0.001748466, -0.0002360429, 0, 8.971024E-06, 0, 0, 1, 0.03092438, 9
PIDY, 210432066, 5.71312E-06, -0.003298918, 0.003143835, 0.0005658903, 0, 0, 0, 0, 1, 0.001771239, 9
PIDA, 210432071, 0, 0, 0, 0, 0, 0, 0, 0, 0, 0, 0
XKF4, 210431447, 0, 0, 0.02, 0, 0.04, 0, 0.008068507, 0, 0, 0, 50, 65703, 7, 0
XKF1, 210431447, 0, 0.38, 0.02, 219.69, -0.06087642, -0.04367501, 0.01700513, -0.01935243, 0, 0, -0.06300236, 0, -0.01, 0.18, 0
XKF2, 210431447, 0, 0.01, 0.05, -0.01, 0, 0, 459, 0, 111, 0, 0, 0, 0, 0, 0
XKF3, 210431447, 0, 0, 0, 0, -0.12, -0.09, 0.08, 0, 0, 0, -4.04, 0, 0, 9.847536E-05
XKF5, 210431447, 0, 0, 0, 0, 0, 1.2, 1.13, 0, 0, 0.5, 0.000786292, 0.01349863, 0.03715314
XKFS, 210431447, 0, 0, 0, 0, 0, 0, 0, 0, 1
XKQ, 210431447, 0, -0.3394894, 0.009488494, 0.00459406, 0.9405508
XKF4, 210431447, 1, 0, 0.02, 0, 0.04, 0, 0.008145438, 0, 0, 0, 50, 65703, 7, 0
XKF1, 210431447, 1, 2.84, 0.69, 219.02, 0.09026723, 0.01637202, -0.01755106, -0.01723671, 0, 0, -0.206878, -0.01, -0.04, 0.13, 0
XKF2, 210431447, 1, 0, 0.3, -0.01, 0, 0, 460, 0, 110, 0, 0, 0, 0, 0, 0
XKF3, 210431447, 1, 0, 0, 0, 0.13, 0.01, -0.06, 0, 0, 0, -4.24, 0, 0.003535342, 8.058133E-06
XKFS, 210431447, 1, 0, 0, 0, 0, 0, 0, 0, 1
XKQ, 210431447, 1, -0.3340285, -0.003237371, 0.02283732, 0.9422807
AHR2, 210432149, -0.45, 2.88, 218.56, 0.14, 15.3691904, 75.1236989, -0.3301513, -0.02241277, -0.01208543, 0.9435845
POS, 210432154, 15.3691899, 75.1236985, 677.42, 0.09710693, 0.06300236
MOTB, 210432160, 1, 1, 1, 0.0431117, 0, 2
RCIN, 210432167, 0, 0, 0, 0, 0, 0, 0, 0, 0, 0, 0, 0, 0, 0
RCI2, 210432171, 0, 0, 0, 1
RCOU, 210432178, 1000, 1000, 1000, 1000, 0, 0, 0, 0, 0, 0, 0, 0, 0, 0
RCO2, 210432182, 0, 0, 0, 0
VIBE, 210432187, 0, 0.02165765, 0.01944008, 0.01408245, 0
VIBE, 210432187, 1, 0.1330492, 0.3544963, 0.1457569, 0
CTRL, 210432252, 0.004060219, 0.0003038909, 0.0002034482, 0.0001215133, 0.0005494168
IMU, 210466784, 0, 0.0005789012, -0.0004941667, 0.0005222083, -0.1761547, 0.05835573, -9.816007, 0, 0, 44.80676, 1, 1, 2022, 2022
IMU, 210466784, 1, -0.0004221318, -0.004050814, 0.0009953633, -0.1194634, -0.06418324, -9.824168, 0, 0, 45, 1, 1, 1999, 2045
SURF, 210482036, 0, 2, 0, 0, 0.06196445
SURF, 210482049, 1, 2, 0, 0, 0.06196445
DCM, 210496420, -0.4512406, 2.856529, 218.587, 0.2288175, 0.09834573, 0, 0, 0
EAHR, 210496444, 0, 0, 0, 0, 0, 0, 0, 0, 0, 0
IMU, 210507277, 0, 0.0003840737, 0.0005438136, 0.0002826265, -0.1788815, 0.01299629, -9.816816, 0, 0, 44.80676, 1, 1, 2022, 2022
IMU, 210507277, 1, 8.93924E-05, 0.001708853, -0.00053494, -0.1344264, -0.144263, -9.826479, 0, 0, 45, 1, 1, 1999, 2045
STAK, 210530258, 21, 58, 2992, 1488, FTP
POWR, 210531879, 4.941843, 0, 5, 5, 2
MCU, 210531879, 36.46123, 3.348817, 3.340674, 3.355727
BAT, 210531894, 0, 15.71657, 15.77971, 0.5884421, 45.12016, 0.7153648, 0, 0.1073, 98, 1, 0
MAG, 210531905, 0, -310, 309, 132, -382, 367, 647, 0, 0, 0, 1, 210531903
MAG, 210531905, 1, 79, 431, 104, 59, 22, -40, 0, 0, 0, 1, 210531902
SURF, 210531951, 0, 2, 0, 0, 0.06205687
SURF, 210531960, 1, 2, 0, 0, 0.06205687
BARO, 210532000, 0, 0.1647339, 0.1647339, 93556.35, 36.23, -0.4577064, 210531, 0, 30.41755, 1
CTUN, 210532014, 0, 0, 0, 0.431117, 0, 0.06472284, 0.16, NaN, 0, 31.71668, 0, -1
ATT, 210532064, 0.0003198489, 0.3878136, 0.0001281265, 0.03286708, 219.7043, 219.696, 3
ANG, 210531329, 0.0003198489, 0.3877299, 0.0001281265, 0.0328391, 219.7043, 219.7043, 0.0025
RATE, 210531342, -1.745238, 0.07710083, -0.004399908, -0.1481381, -0.01137609, -0.0001444682, 0.0006028846, -0.1748485, 0.0005403949, 0, -0.1980782, 0, 0
PIDR, 210532084, -0.03039024, 0.001345663, -0.0317359, -0.004284347, 0, -0.0001155607, 0, 0, 1, 0.05913948, 9
PIDP, 210532088, -0.002478286, -0.0001985502, -0.002279735, -0.0003077643, 0, 0.0001632961, 0, 0, 1, 0.03109576, 9
PIDY, 210532092, 8.755451E-06, -0.003051682, 0.003002194, 0.0005403949, 0, 0, 0, 0, 1, 0.001815522, 9
PIDA, 210532097, 0, 0, 0, 0, 0, 0, 0, 0, 0, 0, 0
XKF4, 210531456, 0, 0, 0.02, 0, 0.03, 0, 0.007739265, 0, 0, 0, 50, 65703, 7, 0
XKF1, 210531456, 0, 0.38, 0.03, 219.69, -0.05616713, -0.04063175, 0.01640098, -0.02217093, 0, 0, -0.06472284, 0, -0.01, 0.18, 0
XKF2, 210531456, 0, 0.01, 0.05, -0.01, 0, 0, 459, 0, 111, 0, 0, 0, 0, 0, 0
XKF3, 210531456, 0, 0, 0, 0, -0.09, -0.06, 0.03, 0, 0, 0, -2.82, 0, 0, 9.847536E-05
XKF5, 210531456, 0, 0, 0, 0, 0, 1.2, 1.13, 0, 0, 0.5, 0.0007488772, 0.01720502, 0.04829911
XKFS, 210531456, 0, 0, 0, 0, 0, 0, 0, 0, 1
XKQ, 210531456, 0, -0.3395188, 0.009389865, 0.004589441, 0.9405412
XKV1, 210531456, 0, 0.0003055528, 7.451879E-06, 7.486314E-06, 4.428736E-05, 0.04849505, 0.04910462, 0.01477488, 0.2597469, 0.2601859, 0.2606525, 4.479842E-11, 4.469521E-11
XKV2, 210531456, 0, 2.872253E-10, 3.616919E-07, 5.629191E-07, 1.975797E-08, 0, 0, 0, 0, 0, 0, 0, 0
XKF4, 210531456, 1, 0, 0.01, 0.01, 0.03, 0, 0.007819954, 0, 0, 0, 50, 65703, 7, 0
XKF1, 210531456, 1, 2.84, 0.68, 219.03, 0.08812434, 0.01578033, -0.01747942, 0.005249884, 0, 0, -0.2060164, -0.01, -0.03, 0.13, 0
XKF2, 210531456, 1, 0, 0.3, -0.01, 0, 0, 460, 0, 110, 0, 0, 0, 0, 0, 0
XKF3, 210531456, 1, 0, 0, 0, 0.1, 0.01, -0.1, 0, 0, 0, -2.9, 0, 0.003535342, 8.058133E-06
XKFS, 210531456, 1, 0, 0, 0, 0, 0, 0, 0, 1
XKQ, 210531456, 1, -0.3341089, -0.003149881, 0.02284434, 0.9422523
AHR2, 210532237, -0.44, 2.84, 218.59, 0.09, 15.3691907, 75.1236991, -0.3304152, -0.02214396, -0.01186002, 0.9435014
POS, 210532254, 15.3691899, 75.1236985, 677.42, 0.1647339, 0.06472284
MOTB, 210532270, 1, 1, 1, 0.0431117, 0, 2
RCIN, 210532277, 0, 0, 0, 0, 0, 0, 0, 0, 0, 0, 0, 0, 0, 0
RCI2, 210532282, 0, 0, 0, 1
RCOU, 210532291, 1000, 1000, 1000, 1000, 0, 0, 0, 0, 0, 0, 0, 0, 0, 0
RCO2, 210532295, 0, 0, 0, 0
VIBE, 210532304, 0, 0.02106383, 0.01982767, 0.01460332, 0
VIBE, 210532304, 1, 0.1411481, 0.3891877, 0.1495734, 0
CTRL, 210532316, 0.004079918, 0.0002870234, 0.0002362419, 0.0001238294, 0.0005491947
IMU, 210546755, 0, 0.000302747, -0.0002724132, -0.0001820453, -0.1608373, 0.05489333, -9.803789, 0, 0, 44.80676, 1, 1, 2022, 2022
IMU, 210546755, 1, -0.000977822, 0.001611816, 9.816796E-05, -0.1460382, -0.09365322, -9.815834, 0, 0, 45, 1, 1, 1999, 2045
SURF, 210581965, 0, 2, 0, 0, 0.06218706
SURF, 210581975, 1, 2, 0, 0, 0.06218706
IMU, 210586686, 0, 0.0003936588, -0.0004562816, 0.0002846598, -0.1898046, 0.01054884, -9.826834, 0, 0, 44.80676, 1, 1, 2022, 2022
IMU, 210586686, 1, -0.0006017007, -0.001689394, 0.0005091628, -0.09331716, -0.1635618, -9.816364, 0, 0, 45, 1, 1, 1999, 2045
DCM, 210596417, -0.4357089, 2.819888, 218.6264, 0.2288175, 0.09993204, 0, 0, 0
EAHR, 210596442, 0, 0, 0, 0, 0, 0, 0, 0, 0, 0
GPS, 210611871, 0, 3, 132270000, 2380, 6, 1.68, 15.3691899, 75.1236972, 677.12, 0.429, 33.99009, 0.154, 0, 1
GPA, 210611871, 0, 2.96, 7.49, 10.54, 1.6, 0, 1, 210558, 200, 599.11, 0, 0
DU32, 210626882, 7, 4251864
TERR, 210626917, 2, 15.3691899, 75.1236972, 100, 645.7006, 31.41936, 0, 336, 0
IMU, 210626977, 0, -0.0001517034, -0.0003764098, -6.818472E-05, -0.1589645, 0.06700112, -9.814305, 0, 0, 44.80676, 1, 1, 2022, 2022
IMU, 210626977, 1, -0.001558887, -0.0002932467, -0.0003519886, -0.08074527, -0.1177182, -9.799366, 0, 0, 45, 1, 1, 1999, 2045
UART, 210627027, 0, 1989, 45
UART, 210627032, 1, 1867, 207
UART, 210627035, 2, 45, 0
UART, 210627039, 3, 0, 653
UART, 210627044, 7, 2030, 45
UART, 210627048, 100, 8389, 5088
STAK, 210630324, 255, 255, 1536, 1268, ISR
POWR, 210631905, 4.960977, 0, 5, 5, 2
MCU, 210631905, 36.44135, 3.348676, 3.341655, 3.354456
BAT, 210631920, 0, 15.81232, 15.89151, 0.7380244, 45.14067, 0.715689, 0, 0.1073, 98, 1, 0
MAG, 210631931, 0, -326, 288, 126, -382, 367, 647, 0, 0, 0, 1, 210631929
MAG, 210631931, 1, 83, 430, 82, 59, 22, -40, 0, 0, 0, 1, 210631928
SURF, 210631950, 0, 2, 0, 0, 0.0623527
SURF, 210631959, 1, 2, 0, 0, 0.0623527
BARO, 210631980, 0, 0.1294556, 0.1294556, 93556.74, 36.23, -0.4596329, 210631, 0, 30.41755, 1
CTUN, 210631998, 0, 0, 0, 0.431117, 0, 0.06701317, 0.12, NaN, 0, 31.41936, 0, -1
ATT, 210632055, 0.0003198488, 0.3885023, 0.0001281265, 0.04411224, 219.7058, 219.6975, 3
ANG, 210631338, 0.0003198488, 0.3884201, 0.0001281265, 0.04408402, 219.7058, 219.7058, 0.002509
RATE, 210631353, -1.747069, -0.04550012, -0.003704356, -0.1985801, -0.002617455, -0.0005010729, 0.0006874446, -0.1855004, 0.000560153, 0, 0.2353668, 0, 0
PIDR, 210632075, -0.03055813, -0.000794127, -0.029764, -0.00401814, 0, 0.0003137848, 0, 0, 1, 0.05350443, 9
PIDP, 210632079, -0.003378446, -4.568321E-05, -0.003332763, -0.000449923, 0, -5.114987E-05, 0, 0, 1, 0.03123026, 9
PIDY, 210632083, 1.212634E-05, -0.003237594, 0.003111961, 0.000560153, 0, 0, 0, 0, 1, 0.001851763, 9
PIDA, 210632088, 0, 0, 0, 0, 0, 0, 0, 0, 0, 0, 0
XKF4, 210631458, 0, 0, 0.01, 0, 0.04, 0, 0.007538266, 0, 0, 0, 50, 65703, 7, 0
XKF1, 210631458, 0, 0.38, 0.04, 219.69, -0.05009858, -0.03723743, 0.01598449, -0.02457812, 0, 0, -0.06701317, 0, -0.01, 0.18, 0
XKF2, 210631458, 0, 0.01, 0.05, -0.01, 0, 0, 459, 0, 111, 0, 0, 0, 0, 0, 0
XKF3, 210631458, 0, 0, 0, 0, -0.07, -0.05, 0.1, 0, 0, 0, -4.21, 0, 0, 9.847536E-05
XKF5, 210631458, 0, 0, 0, 0, 0, 1.2, 1.13, 0, 0, 0.5, 0.0007600338, 0.0165929, 0.04770001
XKFS, 210631458, 0, 0, 0, 0, 0, 0, 0, 0, 1
XKQ, 210631458, 0, -0.3395308, 0.009295469, 0.004561895, 0.9405379
XKF4, 210631458, 1, 0, 0.01, 0, 0.05, 0, 0.007621411, 0, 0, 0, 50, 65703, 7, 0
XKF1, 210631458, 1, 2.83, 0.67, 219.04, 0.08257581, 0.01526734, -0.01703396, 0.01884775, 0, 0, -0.2048371, -0.01, -0.03, 0.13, 0
XKF2, 210631458, 1, 0, 0.3, -0.01, 0, 0, 460, 0, 110, 0, 0, 0, 0, 0, 0
XKF3, 210631458, 1, 0, 0, 0, 0.08, 0, -0.03, 0, 0, 0, -4.43, 0, 0.003535342, 8.058133E-06
XKFS, 210631458, 1, 0, 0, 0, 0, 0, 0, 0, 1
XKQ, 210631458, 1, -0.3341677, -0.003040896, 0.02279042, 0.9422331
AHR2, 210632196, -0.43, 2.8, 218.63, 0.16, 15.3691901, 75.1236976, -0.3307559, -0.02185176, -0.01165114, 0.9433914
POS, 210632219, 15.3691899, 75.1236972, 677.12, 0.1294556, 0.06701317
MOTB, 210632225, 1, 1, 1, 0.0431117, 0, 2
RCIN, 210632232, 0, 0, 0, 0, 0, 0, 0, 0, 0, 0, 0, 0, 0, 0
RCI2, 210632236, 0, 0, 0, 1
RCOU, 210632244, 1000, 1000, 1000, 1000, 0, 0, 0, 0, 0, 0, 0, 0, 0, 0
RCO2, 210632247, 0, 0, 0, 0
VIBE, 210632253, 0, 0.02041393, 0.02065203, 0.0132639, 0
VIBE, 210632253, 1, 0.1023008, 0.2455182, 0.1089175, 0
CTRL, 210632263, 0.004099043, 0.0002674602, 0.0003026882, 0.0001158582, 0.0005494839
IMU, 210666775, 0, -0.0002921022, -0.0007488949, -5.008917E-05, -0.1868398, 0.008641178, -9.81075, 0, 0, 44.80676, 1, 1, 2022, 2022
IMU, 210666775, 1, 0.001018982, -0.0005896047, -0.001174968, -0.1058295, -0.1601992, -9.820982, 0, 0, 45, 1, 1, 1999, 2045
SURF, 210682011, 0, 2, 0, 0, 0.06258027
SURF, 210682021, 1, 2, 0, 0, 0.06258027
DCM, 210696423, -0.4237733, 2.772874, 218.6421, 0.1924425, 0.08876909, 0, 0, 0
EAHR, 210696447, 0, 0, 0, 0, 0, 0, 0, 0, 0, 0
IMU, 210706896, 0, 0.0002409638, 4.052826E-05, 0.0004350691, -0.1569875, 0.05713179, -9.817981, 0, 0, 44.80676, 1, 1, 2022, 2022
IMU, 210706896, 1, -0.001125844, 0.001556068, -0.0007132827, -0.0811773, -0.1019867, -9.817453, 0, 0, 45, 1, 1, 1999, 2045
STAK, 210731296, 0, 182, 7168, 4000, ArduCopter
POWR, 210731944, 4.973566, 0, 5, 5, 2
MCU, 210731944, 36.48111, 3.348535, 3.341514, 3.356434
BAT, 210731959, 0, 15.84052, 15.92448, 0.7825145, 45.16241, 0.7160335, 0, 0.1073, 98, 1, 0
MAG, 210731970, 0, -336, 274, 127, -382, 367, 647, 0, 0, 0, 1, 210731968
MAG, 210731970, 1, 85, 428, 73, 59, 22, -40, 0, 0, 0, 1, 210731967
SURF, 210731993, 0, 2, 0, 0, 0.06285718
SURF, 210732002, 1, 2, 0, 0, 0.06285718
BARO, 210732025, 0, 0.1618042, 0.1618042, 93556.38, 36.23, -0.1691466, 210732, 0, 30.41755, 1
CTUN, 210732039, 0, 0, 0, 0.431117, 0, 0.06962325, 0.16, NaN, 0, 31.41936, 0, -1
ATT, 210732086, 0.0003198488, 0.3882655, 0.0001281265, 0.05106954, 219.7043, 219.696, 3
ANG, 210731329, 0.0003198488, 0.3881844, 0.0001281265, 0.05104139, 219.7043, 219.7043, 0.0025
RATE, 210731342, -1.747758, -0.06535053, -0.003876125, -0.2300852, -0.05338982, -0.0003432792, 0.0008585953, -0.1683694, 0.0005466171, 0, -0.3615379, 0, 0
PIDR, 210732105, -0.030531, -0.001140582, -0.02939042, -0.003967707, 0, 9.158109E-05, 0, 0, 1, 0.0484072, 9
PIDP, 210732110, -0.003981335, -0.0009318282, -0.003049506, -0.0004116834, 0, 6.840414E-05, 0, 0, 1, 0.03115447, 9
PIDY, 210732114, 1.400544E-05, -0.0029386, 0.003036761, 0.0005466171, 0, 0, 0, 0, 1, 0.001867001, 9
PIDA, 210732118, 0, 0, 0, 0, 0, 0, 0, 0, 0, 0, 0
XKF4, 210731517, 0, 0, 0.01, 0, 0, 0, 0.007408952, 0, 0, 0, 50, 65703, 7, 0
XKF1, 210731517, 0, 0.38, 0.05, 219.69, -0.04521684, -0.03349144, 0.01538795, -0.02966294, 0, 0, -0.06962325, 0, -0.01, 0.18, 0
XKF2, 210731517, 0, 0.01, 0.05, -0.01, 0, 0, 459, 0, 111, 0, 0, 0, 0, 0, 0
XKF3, 210731517, 0, 0, 0, 0, -0.06, -0.04, 0.06, 0, 0, 0, -0.73, 0, 0, 9.847536E-05
XKF5, 210731517, 0, 0, 0, 0, 0, 1.2, 1.13, 0, 0, 0.5, 0.0004699146, 0.01432329, 0.04227191
XKFS, 210731517, 0, 0, 0, 0, 0, 0, 0, 0, 1
XKQ, 210731517, 0, -0.3395187, 0.009239125, 0.004539218, 0.940543
XKF4, 210731517, 1, 0, 0.01, 0, 0.01, 0, 0.007493874, 0, 0, 0, 50, 65703, 7, 0
XKF1, 210731517, 1, 2.83, 0.67, 219.04, 0.07591572, 0.01448386, -0.01675046, 0.02189579, 0, 0, -0.2031881, -0.01, -0.03, 0.13, 0
XKF2, 210731517, 1, 0, 0.3, -0.01, 0, 0, 460, 0, 110, 0, 0, 0, 0, 0, 0
XKF3, 210731517, 1, 0, 0, 0, 0.07, 0, -0.06, 0, 0, 0, -0.93, 0, 0.003535342, 8.058133E-06
XKFS, 210731517, 1, 0, 0, 0, 0, 0, 0, 0, 1
XKQ, 210731517, 1, -0.3341971, -0.00298081, 0.02277268, 0.9422234
AHR2, 210732271, -0.42, 2.75, 218.64, 0.12, 15.3691903, 75.123698, -0.3308244, -0.02146405, -0.01142452, 0.943379
POS, 210732280, 15.3691899, 75.1236972, 677.12, 0.1618042, 0.06962325
MOTB, 210732286, 1, 1, 1, 0.0431117, 0, 2
RCIN, 210732294, 0, 0, 0, 0, 0, 0, 0, 0, 0, 0, 0, 0, 0, 0
RCI2, 210732298, 0, 0, 0, 1
RCOU, 210732308, 1000, 1000, 1000, 1000, 0, 0, 0, 0, 0, 0, 0, 0, 0, 0
RCO2, 210732312, 0, 0, 0, 0
VIBE, 210732319, 0, 0.01592902, 0.01919535, 0.01018402, 0
VIBE, 210732319, 1, 0.07817953, 0.1422935, 0.08666268, 0
CTRL, 210732329, 0.004094671, 0.0002603899, 0.0003762066, 0.0001258934, 0.0005550029
IMU, 210746729, 0, -0.0007688996, -7.611879E-05, 0.0002286483, -0.1805393, 0.01715823, -9.817241, 0, 0, 44.80676, 1, 1, 2022, 2022
IMU, 210746729, 1, -0.00132758, -0.001203722, -7.031093E-05, -0.09738499, -0.1433292, -9.802488, 0, 0, 45, 1, 1, 1999, 2045
FMT, 254, 35, IOMC, QHHIIIII, TimeUS,RSErr,Mem,TS,NPkt,Nerr,Nerr2,NDel
IOMC, 210767032, 0, 12896, 210791, 100399, 0, 0, 0
SURF, 210782008, 0, 2, 0, 0, 0.06318758
SURF, 210782021, 1, 2, 0, 0, 0.06318758
IMU, 210786703, 0, 0.0003363038, -0.0008209288, -9.416875E-05, -0.1760151, 0.0516753, -9.813093, 0, 0, 44.80676, 1, 1, 2022, 2022
IMU, 210786703, 1, 0.001572407, -0.0003428839, 0.0006958765, -0.1023086, -0.1050594, -9.820129, 0, 0, 45, 1, 1, 1999, 2045
GPS, 210791870, 0, 3, 132270200, 2380, 6, 1.68, 15.3691899, 75.1236958, 676.74, 0.476, 33.99009, 0.185, 0, 1
GPA, 210791870, 0, 2.96, 7.47, 10.52, 1.66, 0, 1, 210758, 200, 598.73, 0, 0
DCM, 210796416, -0.4142182, 2.722423, 218.6335, 0.1628288, 0.07171823, 0, 0, 0
EAHR, 210796443, 0, 0, 0, 0, 0, 0, 0, 0, 0, 0
FMT, 253, 28, HEAT, Qfbfff, TimeUS,Temp,Targ,P,I,Out
HEAT, 210811338, 44.83092, 45, 8.453941, 15.19101, 23.64495
UBX1, 210811907, 0, 91, 76, 1, 3510, 0
UBX2, 210811945, 0, 25, 168, 21, 164
IMU, 210826956, 0, -0.0008401526, -0.0003421778, 0.0003366832, -0.1838689, 0.02485136, -9.818617, 0, 0, 44.80676, 1, 1, 2022, 2022
IMU, 210826956, 1, -0.002627516, -0.001198093, 0.0001580421, -0.1057684, -0.1498267, -9.82232, 0, 0, 45, 1, 1, 1999, 2045
POWR, 210831895, 4.972558, 0, 5, 5, 2
MCU, 210831895, 36.46123, 3.348535, 3.340534, 3.354879
BAT, 210831910, 0, 15.83841, 15.92192, 0.7783035, 45.18402, 0.7163757, 0, 0.1073, 98, 1, 0
MAG, 210831921, 0, -335, 275, 128, -382, 367, 647, 0, 0, 0, 1, 210831919
MAG, 210831921, 1, 83, 428, 72, 59, 22, -40, 0, 0, 0, 1, 210831918
SURF, 210831940, 0, 2, 0, 0, 0.06356512
SURF, 210831949, 1, 2, 0, 0, 0.06356512
BARO, 210832012, 0, 0.07067871, 0.07067871, 93557.44, 36.23, 0.01736905, 210831, 0, 30.41755, 1
CTUN, 210832026, 0, 0, 0, 0.431117, 0, 0.0726, 0.07, NaN, 0, 31.04223, 0, -1
ATT, 210832094, 0.0003198488, 0.3877194, 0.0001281265, 0.05526765, 219.6923, 219.684, 3
ANG, 210831329, 0.0003198488, 0.3876389, 0.0001281265, 0.0552397, 219.6923, 219.6923, 0.002498
RATE, 210831341, -1.745178, -0.03773993, -0.004106996, -0.2489587, -0.007563499, -0.0006078855, 0.000959357, -0.1760129, 0.0005416762, 0, 0.3115654, 0, 0
PIDR, 210832114, -0.03045848, -0.000658686, -0.0297998, -0.004022973, 0, -8.402277E-05, 0, 0, 1, 0.04379516, 9
PIDP, 210832118, -0.004325594, -0.000132008, -0.004193586, -0.0005661342, 0, -4.175132E-05, 0, 0, 1, 0.0297045, 9
PIDY, 210832122, 1.608271E-05, -0.003072005, 0.003009312, 0.0005416762, 0, 0, 0, 0, 1, 0.001689122, 9
PIDA, 210832127, 0, 0, 0, 0, 0, 0, 0, 0, 0, 0, 0
XKF4, 210831430, 0, 0, 0.01, 0, 0.01, 0, 0.007325443, 0, 0, 0, 50, 65703, 7, 0
XKF1, 210831430, 0, 0.38, 0.05, 219.68, -0.04027918, -0.02979225, 0.01449108, -0.03247219, 0, 0, -0.0726, 0, -0.01, 0.18, 0
XKF2, 210831430, 0, 0.01, 0.05, -0.01, 0, 0, 459, 0, 111, 0, 0, 0, 0, 0, 0
XKF3, 210831430, 0, 0, 0, 0, -0.05, -0.03, 0.09, 0, 0, 0, 1.53, 0, 0, 9.847536E-05
XKF5, 210831430, 0, 0, 0, 0, 0, 1.21, 1.13, 0, 0, 0.5, 0.0001423961, 0.01160874, 0.03535175
XKFS, 210831430, 0, 0, 0, 0, 0, 0, 0, 0, 1
XKQ, 210831430, 0, -0.3394208, 0.009206756, 0.004521339, 0.9405787
XKF4, 210831430, 1, 0, 0.01, 0, 0.01, 0, 0.007410965, 0, 0, 0, 50, 65703, 7, 0
XKF1, 210831430, 1, 2.82, 0.66, 219.04, 0.07013205, 0.01401379, -0.01650821, 0.02101266, 0, 0, -0.2016501, -0.01, -0.03, 0.13, 0
XKF2, 210831430, 1, 0, 0.3, -0.01, 0, 0, 460, 0, 110, 0, 0, 0, 0, 0, 0
XKF3, 210831430, 1, 0, 0, 0, 0.06, 0, -0.03, 0, 0, 0, 1.37, 0, 0.003535342, 8.058133E-06
XKFS, 210831430, 1, 0, 0, 0, 0, 0, 0, 0, 1
XKQ, 210831430, 1, -0.3341775, -0.002904337, 0.02274368, 0.9422312
AHR2, 210832280, -0.4, 2.7, 218.62, 0.16, 15.3691902, 75.1236963, -0.3307143, -0.02113317, -0.0111549, 0.9434283
POS, 210832287, 15.3691899, 75.1236958, 676.74, 0.07067871, 0.0726
MOTB, 210832296, 1, 1, 1, 0.0431117, 0, 2
RCIN, 210832305, 0, 0, 0, 0, 0, 0, 0, 0, 0, 0, 0, 0, 0, 0
RCI2, 210832309, 0, 0, 0, 1
RCOU, 210832316, 1000, 1000, 1000, 1000, 0, 0, 0, 0, 0, 0, 0, 0, 0, 0
RCO2, 210832320, 0, 0, 0, 0
VIBE, 210832326, 0, 0.01224208, 0.01530073, 0.009209413, 0
VIBE, 210832326, 1, 0.06809255, 0.09334056, 0.08009095, 0
CTRL, 210832336, 0.004085681, 0.0002284605, 0.0004360069, 0.0001181089, 0.0005514386
STAK, 210832452, 1, 1, 496, 288, idle
RAD, 210839421, 61, 0, 100, 93, 0, 0, 0
IMU, 210866692, 0, 0.0007762111, -0.0005677583, 0.0005533097, -0.1836954, 0.03442479, -9.814634, 0, 0, 44.80676, 1, 1, 2022, 2022
IMU, 210866692, 1, 0.001592918, -0.001941931, 0.002719447, -0.1054173, -0.1242211, -9.826492, 0, 0, 45, 1, 1, 1999, 2045
SURF, 210881968, 0, 2, 0, 0, 0.06400629
SURF, 210881978, 1, 2, 0, 0, 0.06400629
DCM, 210896417, -0.3855426, 2.682815, 218.6232, 0.1628288, 0.05872479, 0, 0, 0
EAHR, 210896441, 0, 0, 0, 0, 0, 0, 0, 0, 0, 0
IMU, 210906916, 0, -0.0005559354, -0.0005214552, 0.0001994879, -0.1586413, 0.03470877, -9.814954, 0, 0, 44.80676, 1, 1, 2022, 2022
IMU, 210906916, 1, -0.0004825627, 0.0009534411, 0.001327509, -0.08840316, -0.1396627, -9.812181, 0, 0, 45, 1, 1, 1999, 2045
POWR, 210931875, 4.977594, 0, 5, 5, 2
MCU, 210931875, 36.48111, 3.348817, 3.341374, 3.355868
BAT, 210931890, 0, 15.86038, 15.94629, 0.8006402, 45.20626, 0.7167284, 0, 0.1073, 98, 1, 0
MAG, 210931901, 0, -335, 277, 126, -382, 367, 647, 0, 0, 0, 1, 210931900
MAG, 210931901, 1, 84, 428, 72, 59, 22, -40, 0, 0, 0, 1, 210931898
SURF, 210931920, 0, 2, 0, 0, 0.06448742
SURF, 210931956, 1, 2, 0, 0, 0.06448742
BARO, 210931977, 0, 0.1942139, 0.1942139, 93556.03, 36.23, -0.02103435, 210931, 0, 30.41755, 1
CTUN, 210932012, 0, 0, 0, 0.431117, 0, 0.07473606, 0.19, NaN, 0, 31.04223, 0, -1
ATT, 210932061, 0.0003198487, 0.3884141, 0.0001281265, 0.05904485, 219.6711, 219.6628, 3
ANG, 210931329, 0.0003198487, 0.3883341, 0.0001281265, 0.05901669, 219.6711, 219.6711, 0.002499
RATE, 210931343, -1.747247, 0.004767071, -0.004241798, -0.2657927, 0.04938672, -0.000915227, 0.000896632, -0.179339, 0.0005377572, 0, -0.6349564, 0, 0
PIDR, 210932080, -0.03049575, 8.320108E-05, -0.03057895, -0.004128158, 0, -0.0001136396, 0, 0, 1, 0.03962254, 9
PIDP, 210932085, -0.004579124, 0.0008619609, -0.005441085, -0.0007345465, 0, -0.0001806805, 0, 0, 1, 0.02687438, 9
PIDY, 210932089, 1.685815E-05, -0.003130057, 0.00298754, 0.0005377572, 0, 0, 0, 0, 1, 0.00152819, 9
PIDA, 210932093, 0, 0, 0, 0, 0, 0, 0, 0, 0, 0, 0
XKF4, 210931477, 0, 0, 0.01, 0, 0.01, 0, 0.007271354, 0, 0, 0, 50, 65703, 7, 0
XKF1, 210931477, 0, 0.38, 0.05, 219.66, -0.03635208, -0.02683932, 0.01402775, -0.02693569, 0, 0, -0.07473606, 0, -0.01, 0.18, 0
XKF2, 210931477, 0, 0.01, 0.05, -0.01, 0, 0, 459, 0, 111, 0, 0, 0, 0, 0, 0
XKF3, 210931477, 0, 0, 0, 0, -0.04, -0.03, 0, 0, 0, 0, 1.33, 0, 0, 9.847536E-05
XKF5, 210931477, 0, 0, 0, 0, 0, 1.21, 1.13, 0, 0, 0.5, 0.0002771476, 0.008982657, 0.02817551
XKFS, 210931477, 0, 0, 0, 0, 0, 0, 0, 0, 1
XKQ, 210931477, 0, -0.3392465, 0.009174532, 0.004514152, 0.9406419
XKF4, 210931477, 1, 0, 0.01, 0.01, 0.01, 0, 0.007358014, 0, 0, 0, 50, 65703, 7, 0
XKF1, 210931477, 1, 2.82, 0.66, 219.03, 0.06548168, 0.01417244, -0.01560613, 0.02721888, 0, 0, -0.1989191, -0.01, -0.03, 0.13, 0
XKF2, 210931477, 1, 0, 0.3, -0.01, 0, 0, 460, 0, 110, 0, 0, 0, 0, 0, 0
XKF3, 210931477, 1, 0, 0, 0, 0.06, 0, -0.12, 0, 0, 0, 1.18, 0, 0.003535342, 8.058133E-06
XKFS, 210931477, 1, 0, 0, 0, 0, 0, 0, 0, 1
XKQ, 210931477, 1, -0.3340937, -0.002898223, 0.02276559, 0.9422604
AHR2, 210932175, -0.37, 2.67, 218.61, 0.07, 15.3691905, 75.1236967, -0.3306248, -0.02090776, -0.01079813, 0.9434689
POS, 210932180, 15.3691899, 75.1236958, 676.74, 0.1942139, 0.07473606
MOTB, 210932186, 1, 1, 1, 0.0431117, 0, 2
RCIN, 210932218, 0, 0, 0, 0, 0, 0, 0, 0, 0, 0, 0, 0, 0, 0
RCI2, 210932252, 0, 0, 0, 1
RCOU, 210932271, 1000, 1000, 1000, 1000, 0, 0, 0, 0, 0, 0, 0, 0, 0, 0
RCO2, 210932275, 0, 0, 0, 0
VIBE, 210932281, 0, 0.01367316, 0.01057061, 0.009371342, 0
VIBE, 210932281, 1, 0.06528081, 0.07618859, 0.07421491, 0
CTRL, 210932293, 0.004092088, 0.0001994922, 0.0004947449, 0.0001143134, 0.0005435808
STAK, 210937611, 2, 60, 1200, 856, UART_RX
IMU, 210946722, 0, 0.0007533235, 0.0002606076, 0.0006598954, -0.1840958, 0.03519959, -9.820189, 0, 0, 44.32367, 1, 1, 2022, 2022
IMU, 210946722, 1, 0.001434853, -0.0006822321, 0.000777825, -0.1057846, -0.1465675, -9.818624, 0, 0, 45, 1, 1, 1999, 2045
SURF, 210981957, 0, 2, 0, 0, 0.06498786
SURF, 210981967, 1, 2, 0, 0, 0.06498786
IMU, 210986752, 0, -9.156534E-05, -6.120684E-05, 0.0009807494, -0.1593357, 0.03902944, -9.812313, 0, 0, 44.80676, 1, 1, 2022, 2022
IMU, 210986752, 1, -0.0006584841, 0.001235019, -0.0006017169, -0.08596423, -0.1345842, -9.823737, 0, 0, 45, 1, 1, 1999, 2045
GPS, 210991810, 0, 3, 132270400, 2380, 6, 1.68, 15.3691905, 75.1236948, 676.4, 0.841, 33.99009, 0.154, 0, 1
GPA, 210991810, 0, 2.96, 7.46, 10.5, 1.83, 0, 1, 210958, 200, 598.39, 0, 0
DCM, 210996416, -0.3555216, 2.645491, 218.614, 0.1389735, 0.04896697, 0, 0, 0
EAHR, 210996440, 0, 0, 0, 0, 0, 0, 0, 0, 0, 0
IMU, 211026907, 0, 0.0006463258, 4.900942E-06, 0.0002823969, -0.1780404, 0.03814937, -9.8186, 0, 0, 44.80676, 1, 1, 2022, 2022
IMU, 211026907, 1, 0.001184411, -0.001361777, 0.0005230806, -0.09158332, -0.1158994, -9.830428, 0, 0, 45, 1, 1, 1999, 2045
POWR, 211031935, 4.9642, 0, 5, 5, 2
MCU, 211031935, 36.44135, 3.348676, 3.341374, 3.35375
BAT, 211031964, 0, 15.84574, 15.92889, 0.7750079, 45.22781, 0.7170698, 0, 0.1073, 98, 1, 0
MAG, 211031976, 0, -335, 275, 125, -382, 367, 647, 0, 0, 0, 1, 211031974
MAG, 211031976, 1, 84, 428, 72, 59, 22, -40, 0, 0, 0, 1, 211031972
SURF, 211032015, 0, 2, 0, 0, 0.06550923
SURF, 211032024, 1, 2, 0, 0, 0.06550923
BARO, 211032045, 0, 0.2059937, 0.2059937, 93555.89, 36.24, -0.02101838, 211032, 0, 30.41755, 1
CTUN, 211032059, 0, 0, 0, 0.431117, 0, 0.07726889, 0.2, NaN, 0, 30.70199, 0, -1
ATT, 211032106, 0.0003198487, 0.3902634, 0.0001281265, 0.06142922, 219.6468, 219.6384, 3
ANG, 211031329, 0.0003198487, 0.3901834, 0.0001281265, 0.06140083, 219.6468, 219.6468, 0.0025
RATE, 211031343, -1.756882, 0.01249244, -0.004099207, -0.2767211, 0.001176237, -0.0006464488, 0.0009869104, -0.153782, 0.000528435, 0, 0.5125999, 0, 0
PIDR, 211032130, -0.03065613, 0.0002180342, -0.03087417, -0.004168013, 0, 6.880672E-05, 0, 0, 1, 0.03584747, 9
PIDP, 211032134, -0.004815891, 2.05292E-05, -0.00483642, -0.0006529167, 0, 6.467998E-06, 0, 0, 1, 0.0248347, 9
PIDY, 211032138, 1.741554E-05, -0.002684002, 0.00293575, 0.000528435, 0, 0, 0, 0, 1, 0.001414393, 9
PIDA, 211032143, 0, 0, 0, 0, 0, 0, 0, 0, 0, 0, 0
XKF4, 211031460, 0, 0, 0.01, 0.01, 0.01, 0, 0.00723776, 0, 0, 0, 50, 65703, 7, 0
XKF1, 211031460, 0, 0.39, 0.06, 219.63, -0.03296016, -0.02497357, 0.01321758, -0.0233758, 0, 0, -0.0772689, 0, -0.01, 0.18, 0
XKF2, 211031460, 0, 0.01, 0.05, -0.01, 0, 0, 459, 0, 111, 0, 0, 0, 0, 0, 0
XKF3, 211031460, 0, 0, 0, 0, -0.04, -0.03, 0.12, 0, 0, 0, 1.11, 0, 0, 9.847536E-05
XKF5, 211031460, 0, 0, 0, 0, 0, 1.21, 1.13, 0, 0, 0.5, 0.0003008615, 0.006670561, 0.02167345
XKFS, 211031460, 0, 0, 0, 0, 0, 0, 0, 0, 1
XKQ, 211031460, 0, -0.3390467, 0.009150445, 0.00452033, 0.9407142
XKV1, 211031460, 0, 0.0003069182, 6.497509E-06, 6.563663E-06, 4.422819E-05, 0.03151425, 0.03183735, 0.01355218, 0.1457854, 0.1460102, 0.2316642, 4.33578E-11, 4.319762E-11
XKV2, 211031460, 0, 2.824051E-10, 3.616919E-07, 5.629191E-07, 1.932809E-08, 0, 0, 0, 0, 0, 0, 0, 0
XKF4, 211031460, 1, 0, 0.01, 0, 0.01, 0, 0.007325516, 0, 0, 0, 50, 65703, 7, 0
XKF1, 211031460, 1, 2.83, 0.66, 219.01, 0.06056098, 0.01285183, -0.01567625, 0.02625906, 0, 0, -0.1969467, -0.01, -0.03, 0.13, 0
XKF2, 211031460, 1, 0, 0.3, -0.01, 0, 0, 460, 0, 110, 0, 0, 0, 0, 0, 0
XKF3, 211031460, 1, 0, 0, 0, 0.05, 0, 0, 0, 0, 0, 0.96, 0, 0.003535342, 8.058133E-06
XKFS, 211031460, 1, 0, 0, 0, 0, 0, 0, 0, 1
XKQ, 211031460, 1, -0.333945, -0.00288993, 0.02278925, 0.9423126
AHR2, 211032294, -0.34, 2.63, 218.61, 0.19, 15.3691914, 75.1236956, -0.3305537, -0.0206852, -0.01043105, 0.9435028
POS, 211032301, 15.3691905, 75.1236948, 676.4, 0.2059937, 0.0772689
MOTB, 211032307, 1, 1, 1, 0.0431117, 0, 2
RCIN, 211032316, 0, 0, 0, 0, 0, 0, 0, 0, 0, 0, 0, 0, 0, 0
RCI2, 211032320, 0, 0, 0, 1
RCOU, 211032328, 1000, 1000, 1000, 1000, 0, 0, 0, 0, 0, 0, 0, 0, 0, 0
RCO2, 211032331, 0, 0, 0, 0
VIBE, 211032337, 0, 0.01316354, 0.009545473, 0.0105446, 0
VIBE, 211032337, 1, 0.06226951, 0.07040302, 0.0745308, 0
CTRL, 211032347, 0.004114159, 0.0001720149, 0.0005501859, 0.0001073772, 0.0005345428
STAK, 211033542, 3, 60, 752, 336, OTG1
IMU, 211066700, 0, -0.001179496, -0.0005185929, 0.0004827291, -0.1657834, 0.02389406, -9.817472, 0, 0, 45.28986, 1, 1, 2022, 2022
IMU, 211066700, 1, -0.001683978, -0.0008334602, 0.001496546, -0.08497099, -0.1407149, -9.817911, 0, 0, 45, 1, 1, 1999, 2045
DSF, 211074184, 0, 1905, 81627, 164742, 204710, 183129
SURF, 211081988, 0, 2, 0, 0, 0.06608345
SURF, 211081998, 1, 2, 0, 0, 0.06608345
DCM, 211096446, -0.3259205, 2.608246, 218.6038, 0.1389735, 0.04056232, 0, 0, 0
EAHR, 211096484, 0, 0, 0, 0, 0, 0, 0, 0, 0, 0
IMU, 211106924, 0, 0.001119336, -2.381555E-05, -0.0001296118, -0.1858679, 0.04532204, -9.819112, 0, 0, 44.80676, 1, 1, 2022, 2022
IMU, 211106924, 1, -0.0004669645, -0.001659928, 0.0016655, -0.09066322, -0.1146165, -9.820472, 0, 0, 45, 1, 1, 1999, 2045
POWR, 211131874, 4.963294, 0, 5, 5, 2
MCU, 211131874, 36.44135, 3.348817, 3.341374, 3.354173
BAT, 211131888, 0, 15.83836, 15.92179, 0.7775101, 45.24939, 0.7174116, 0, 0.1073, 98, 1, 0
MAG, 211131900, 0, -338, 273, 123, -382, 367, 647, 0, 0, 0, 1, 211131898
MAG, 211131900, 1, 84, 428, 75, 59, 22, -40, 0, 0, 0, 1, 211131897
SURF, 211131919, 0, 2, 0, 0, 0.06670547
SURF, 211131928, 1, 2, 0, 0, 0.06670547
BARO, 211131949, 0, 0.07647705, 0.07647705, 93557.36, 36.24, 0.1187483, 211131, 0, 30.41755, 1
CTUN, 211131963, 0, 0, 0, 0.431117, 0, 0.08097892, 0.07, NaN, 0, 30.70199, 0, -1
ATT, 211132012, 0.0003198486, 0.3886184, 0.0001281266, 0.0634611, 219.6215, 219.6132, 3
ANG, 211131331, 0.0003198486, 0.388539, 0.0001281266, 0.06343302, 219.6215, 219.6215, 0.002502
RATE, 211131345, -1.748648, -0.100415, -0.003450945, -0.2857297, -0.0382375, -0.0003395091, 0.0009359807, -0.170717, 0.0005369273, 0, -1.449394, 0, 0
PIDR, 211132073, -0.03059766, -0.001752572, -0.02884509, -0.003894087, 0, 0.0004431419, 0, 0, 1, 0.03430391, 9
PIDP, 211132077, -0.005004654, -0.0006673704, -0.004337284, -0.0005855333, 0, 0.0002460243, 0, 0, 1, 0.02530357, 9
PIDY, 211132082, 1.746102E-05, -0.002979573, 0.002982929, 0.0005369273, 0, 0, 0, 0, 1, 0.001425069, 9
PIDA, 211132086, 0, 0, 0, 0, 0, 0, 0, 0, 0, 0, 0
XKF4, 211131437, 0, 0, 0.01, 0.01, 0.01, 0, 0.007219336, 0, 0, 0, 50, 65703, 7, 0
XKF1, 211131437, 0, 0.38, 0.06, 219.61, -0.03012917, -0.02323187, 0.01272819, -0.03552325, 0, 0, -0.08097893, 0, -0.01, 0.18, 0
XKF2, 211131437, 0, 0.01, 0.05, -0.01, 0, 0, 459, 0, 111, 0, 0, 0, 0, 0, 0
XKF3, 211131437, 0, 0, 0, 0, -0.04, -0.02, 0.12, 0, 0, 0, 1.25, 0, 0, 9.847536E-05
XKF5, 211131437, 0, 0, 0, 0, 0, 1.22, 1.13, 0, 0, 0.5, 0.0002762487, 0.004771441, 0.01639804
XKFS, 211131437, 0, 0, 0, 0, 0, 0, 0, 0, 1
XKQ, 211131437, 0, -0.3388393, 0.009139624, 0.004498799, 0.9407891
XKF4, 211131437, 1, 0, 0.01, 0, 0.01, 0, 0.007307297, 0, 0, 0, 50, 65703, 7, 0
XKF1, 211131437, 1, 2.82, 0.66, 218.99, 0.05589789, 0.01192243, -0.01496925, 0.01162207, 0, 0, -0.1962657, 0, -0.03, 0.13, 0
XKF2, 211131437, 1, 0, 0.3, -0.01, 0, 0, 460, 0, 110, 0, 0, 0, 0, 0, 0
XKF3, 211131437, 1, 0, 0, 0, 0.05, 0, 0.01, 0, 0, 0, 1.1, 0, 0.003535342, 8.058133E-06
XKFS, 211131437, 1, 0, 0, 0, 0, 0, 0, 0, 1
XKQ, 211131437, 1, -0.3337987, -0.002873078, 0.0227473, 0.9423655
AHR2, 211132184, -0.31, 2.59, 218.59, 0.2, 15.3691919, 75.1236961, -0.3304617, -0.02045751, -0.01009312, 0.9435437
POS, 211132189, 15.3691905, 75.1236948, 676.4, 0.07647705, 0.08097893
MOTB, 211132195, 1, 1, 1, 0.0431117, 0, 2
RCIN, 211132202, 0, 0, 0, 0, 0, 0, 0, 0, 0, 0, 0, 0, 0, 0
RCI2, 211132206, 0, 0, 0, 1
RCOU, 211132226, 1000, 1000, 1000, 1000, 0, 0, 0, 0, 0, 0, 0, 0, 0, 0
RCO2, 211132242, 0, 0, 0, 0
VIBE, 211132276, 0, 0.01164772, 0.01466074, 0.01293866, 0
VIBE, 211132276, 1, 0.06256139, 0.06895007, 0.07439193, 0
CTRL, 211132299, 0.004111446, 0.000190177, 0.0005943374, 0.0001021072, 0.0005297628
STAK, 211137923, 4, 183, 1456, 1096, monitor
IMU, 211146787, 0, -0.001944975, 8.225544E-05, 0.0004282949, -0.1638734, 0.01995733, -9.813854, 0, 0, 44.80676, 1, 1, 2022, 2022
IMU, 211146787, 1, -0.001892069, -0.003178061, 0.001648205, -0.0852332, -0.1671857, -9.834059, 0, 0, 45, 1, 1, 1999, 2045
MAV, 211166640, 1, 8450, 1856, 0, 6, 0, 17
SURF, 211181965, 0, 2, 0, 0, 0.06740244
SURF, 211181978, 1, 2, 0, 0, 0.06740244
MAV, 211186665, 0, 7970, 356, 0, 6, 0, 0
MAV, 211186675, 3, 8667, 420, 0, 6, 0, 0
IMU, 211186756, 0, 0.002286365, -0.0002699404, -0.0003156234, -0.1706881, 0.05110649, -9.809609, 0, 0, 44.80676, 1, 1, 2022, 2022
IMU, 211186756, 1, 0.002462205, -0.0007009949, 0.0003093424, -0.09200223, -0.09984249, -9.812176, 0, 0, 45, 1, 1, 1999, 2045
GPS, 211191898, 0, 3, 132270600, 2380, 6, 1.68, 15.3691907, 75.1236935, 676.05, 0.353, 33.99009, 0.255, 0, 1
GPA, 211191898, 0, 2.96, 7.44, 10.48, 1.76, 0, 1, 211158, 200, 598.04, 0, 0
DCM, 211196415, -0.2960525, 2.570986, 218.5892, 0.1192918, 0.03249494, 0, 0, 0
EAHR, 211196439, 0, 0, 0, 0, 0, 0, 0, 0, 0, 0
IMU, 211226971, 0, -0.001816016, 0.0004168308, -0.0002008939, -0.2189327, 0.0111813, -9.795186, 0, 0, 44.80676, 1, 1, 2022, 2022
IMU, 211226971, 1, -0.003536177, -0.0006683476, -0.0005522837, -0.1625681, -0.1765283, -9.81628, 0, 0, 45, 1, 1, 1999, 2045
POWR, 211231910, 4.96561, 0, 5, 5, 2
MCU, 211231910, 36.46123, 3.348676, 3.341374, 3.356434
BAT, 211231925, 0, 15.8353, 15.9185, 0.7753741, 45.27094, 0.7177529, 0, 0.1073, 98, 1, 0
MAG, 211231937, 0, -338, 276, 122, -382, 367, 647, 0, 0, 0, 1, 211231935
MAG, 211231937, 1, 84, 427, 74, 59, 22, -40, 0, 0, 0, 1, 211231933
SURF, 211231955, 0, 2, 0, 0, 0.068146
SURF, 211231964, 1, 2, 0, 0, 0.068146
BARO, 211231988, 0, 0.2382813, 0.2382813, 93555.54, 36.24, 0.1374595, 211231, 0, 30.41755, 1
CTUN, 211232002, 0, 0, 0, 0.431117, 0, 0.08381217, 0.23, NaN, 0, 30.35376, 0, -1
ATT, 211232097, 0.0003198487, 0.3879289, 0.0001281265, 0.06652657, 219.5946, 219.5863, 3
ANG, 211231347, 0.0003198487, 0.38785, 0.0001281265, 0.0664986, 219.5946, 219.5945, 0.002517
RATE, 211231360, -1.746321, -0.0935072, -0.00389666, -0.2996505, 0.03218105, -0.0008059153, 0.0009870657, -0.165661, 0.00059811, 0, 0.5036354, 0, 0
PIDR, 211232116, -0.03049116, -0.001632009, -0.02885915, -0.003895985, 0, -6.745195E-07, 0, 0, 1, 0.03826092, 9
PIDP, 211232121, -0.005175895, 0.0005616653, -0.00573756, -0.0007745706, 0, -3.134465E-05, 0, 0, 1, 0.02659632, 9
PIDY, 211232125, 1.86296E-05, -0.002891331, 0.003322833, 0.00059811, 0, 0, 0, 0, 1, 0.001376274, 9
PIDA, 211232132, 0, 0, 0, 0, 0, 0, 0, 0, 0, 0, 0
XKF4, 211231448, 0, 0, 0.01, 0, 0.01, 0, 0.007211283, 0, 0, 0, 50, 65703, 7, 0
XKF1, 211231448, 0, 0.38, 0.06, 219.58, -0.02716824, -0.02058996, 0.01208897, -0.03516605, 0, 0, -0.08381217, 0, -0.01, 0.18, 0
XKF2, 211231448, 0, 0.01, 0.05, -0.01, 0, 0, 459, 0, 111, 0, 0, 0, 0, 0, 0
XKF3, 211231448, 0, 0, 0, 0, -0.03, -0.02, 0, 0, 0, 0, 1.62, 0, 0, 9.847536E-05
XKF5, 211231448, 0, 0, 0, 0, 0, 1.22, 1.13, 0, 0, 0.5, 0.0002878981, 0.003155017, 0.01102276
XKFS, 211231448, 0, 0, 0, 0, 0, 0, 0, 0, 1
XKQ, 211231448, 0, -0.3386184, 0.009117548, 0.004481934, 0.940869
XKF4, 211231448, 1, 0, 0.01, 0.01, 0.01, 0, 0.007298805, 0, 0, 0, 50, 65703, 7, 0
XKF1, 211231448, 1, 2.82, 0.65, 218.97, 0.05286511, 0.01229398, -0.01476257, 0.01075055, 0, 0, -0.1945731, 0, -0.03, 0.13, 0
XKF2, 211231448, 1, 0, 0.3, -0.01, 0, 0, 460, 0, 110, 0, 0, 0, 0, 0, 0
XKF3, 211231448, 1, 0, 0, 0, 0.05, 0, -0.11, 0, 0, 0, 1.48, 0, 0.003535342, 8.058133E-06
XKFS, 211231448, 1, 0, 0, 0, 0, 0, 0, 0, 1
XKQ, 211231448, 1, -0.3336294, -0.002785864, 0.02274491, 0.9424258
AHR2, 211232277, -0.28, 2.55, 218.58, 0.07, 15.369191, 75.1236938, -0.3303224, -0.02024979, -0.009762008, 0.9436005
POS, 211232284, 15.3691907, 75.1236935, 676.05, 0.2382813, 0.08381217
MOTB, 211232290, 1, 1, 1, 0.0431117, 0, 2
RCIN, 211232297, 0, 0, 0, 0, 0, 0, 0, 0, 0, 0, 0, 0, 0, 0
RCI2, 211232301, 0, 0, 0, 1
RCOU, 211232308, 1000, 1000, 1000, 1000, 0, 0, 0, 0, 0, 0, 0, 0, 0, 0
RCO2, 211232313, 0, 0, 0, 0
VIBE, 211232319, 0, 0.02127434, 0.02452878, 0.04453418, 0
VIBE, 211232319, 1, 0.06727078, 0.07277659, 0.08409002, 0
CTRL, 211232332, 0.004099152, 0.0002609341, 0.0006291328, 0.0001082176, 0.000541583
STAK, 211238820, 5, 181, 1968, 1520, timer
IMU, 211266675, 0, 0.0004535925, -0.0003486353, 0.0007303653, -0.07515708, 0.06916051, -9.815417, 0, 0, 44.80676, 1, 1, 2022, 2022
IMU, 211266675, 1, 0.001362422, -0.0009384575, 0.0001248796, 0.02124777, -0.09807976, -9.800928, 0, 0, 45, 1, 1, 1999, 2045
SURF, 211281990, 0, 2, 0, 0, 0.06891099
SURF, 211282000, 1, 2, 0, 0, 0.06891099
DCM, 211296413, -0.2730442, 2.537291, 218.5751, 0.1192918, 0.0269638, 0, 0, 0
EAHR, 211296438, 0, 0, 0, 0, 0, 0, 0, 0, 0, 0
IMU, 211306934, 0, 0.0001757276, -0.0006958892, -0.0001609784, -0.2474996, -0.02786424, -9.800839, 0, 0, 44.80676, 1, 1, 2022, 2022
IMU, 211306934, 1, 0.001701902, -0.000744077, -0.001118419, -0.193621, -0.1897123, -9.81354, 0, 0, 45, 1, 1, 1999, 2045
POWR, 211331918, 4.970343, 0, 5, 5, 2
MCU, 211331918, 36.42147, 3.348817, 3.341374, 3.354879
BAT, 211331935, 0, 15.84061, 15.92501, 0.7865425, 45.29279, 0.7180991, 0, 0.1073, 98, 1, 0
MAG, 211331947, 0, -337, 275, 122, -382, 367, 647, 0, 0, 0, 1, 211331946
MAG, 211331947, 1, 83, 427, 74, 59, 22, -40, 0, 0, 0, 1, 211331944
SURF, 211331969, 0, 2, 0, 0, 0.06970133
SURF, 211331978, 1, 2, 0, 0, 0.06970133
BARO, 211331999, 0, 0.317688, 0.317688, 93554.65, 36.24, 0.07433441, 211331, 0, 30.41755, 1
CTUN, 211332017, 0, 0, 0, 0.431117, 0, 0.08719047, 0.31, NaN, 0, 30.35376, 0, -1
ATT, 211332064, 0.0003198487, 0.3916291, 0.0001281266, 0.06783434, 219.5685, 219.5602, 3
ANG, 211331330, 0.0003198487, 0.3915497, 0.0001281266, 0.06780577, 219.5685, 219.5685, 0.002501
RATE, 211331343, -1.763385, 0.1541998, -0.004614446, -0.3056052, 0.01979074, -0.0007925011, 0.001037042, -0.1869586, 0.0005782656, 0, -0.6135941, 0, 0
PIDR, 211332083, -0.03066961, 0.002691295, -0.03336091, -0.004503723, 0, -0.0001107237, 0, 0, 1, 0.04766893, 9
PIDP, 211332087, -0.00535848, 0.0003454136, -0.005703894, -0.0007700257, 0, -2.247545E-05, 0, 0, 1, 0.02777307, 9
PIDY, 211332092, 1.873985E-05, -0.003263043, 0.003212587, 0.0005782656, 0, 0, 0, 0, 1, 0.001517096, 9
PIDA, 211332096, 0, 0, 0, 0, 0, 0, 0, 0, 0, 0, 0
XKF4, 211331478, 0, 0, 0.01, 0.01, 0.01, 0, 0.007211235, 0, 0, 0, 50, 65703, 7, 0
XKF1, 211331478, 0, 0.39, 0.06, 219.56, -0.02516642, -0.01944028, 0.01187249, -0.03247269, 0, 0, -0.08719047, 0, -0.01, 0.18, 0
XKF2, 211331478, 0, 0.01, 0.05, -0.01, 0, 0, 459, 0, 111, 0, 0, 0, 0, 0, 0
XKF3, 211331478, 0, 0, 0, 0, -0.03, -0.02, 0.15, 0, 0, 0, 1.3, 0, 0, 9.847536E-05
XKF5, 211331478, 0, 0, 0, 0, 0, 1.22, 1.13, 0, 0, 0.5, 0.0002736684, 0.001948108, 0.007817324
XKFS, 211331478, 0, 0, 0, 0, 0, 0, 0, 0, 1
XKQ, 211331478, 0, -0.3384042, 0.009096905, 0.004506377, 0.9409461
XKF4, 211331478, 1, 0, 0.01, 0, 0.01, 0, 0.007299107, 0, 0, 0, 50, 65703, 7, 0
XKF1, 211331478, 1, 2.82, 0.65, 218.95, 0.04986888, 0.01107064, -0.01449777, 0.008392985, 0, 0, -0.1940382, 0, -0.03, 0.13, 0
XKF2, 211331478, 1, 0, 0.3, -0.01, 0, 0, 460, 0, 110, 0, 0, 0, 0, 0, 0
XKF3, 211331478, 1, 0, 0, 0, 0.05, 0, 0.05, 0, 0, 0, 1.17, 0, 0.003535342, 8.058133E-06
XKFS, 211331478, 1, 0, 0, 0, 0, 0, 0, 0, 1
XKQ, 211331478, 1, -0.3334495, -0.002758621, 0.02279457, 0.9424883
AHR2, 211332202, -0.25, 2.52, 218.57, 0.23, 15.3691912, 75.1236941, -0.330212, -0.02005152, -0.009403915, 0.943647
POS, 211332207, 15.3691907, 75.1236935, 676.05, 0.317688, 0.08719047
MOTB, 211332213, 1, 1, 1, 0.0431117, 0, 2
RCIN, 211332223, 0, 0, 0, 0, 0, 0, 0, 0, 0, 0, 0, 0, 0, 0
RCI2, 211332245, 0, 0, 0, 1
RCOU, 211332252, 1000, 1000, 1000, 1000, 0, 0, 0, 0, 0, 0, 0, 0, 0, 0
RCO2, 211332256, 0, 0, 0, 0
VIBE, 211332264, 0, 0.0606178, 0.03912465, 0.0462084, 0
VIBE, 211332264, 1, 0.09346283, 0.07760087, 0.08720473, 0
CTRL, 211332277, 0.004124777, 0.0004091003, 0.0006619176, 9.951549E-05, 0.0005475049
STAK, 211339455, 6, 181, 944, 656, rcout
IMU, 211346700, 0, -0.0002411675, -0.0003565096, -0.0003312402, -0.1472662, 0.0998891, -9.80957, 0, 0, 44.80676, 1, 1, 2022, 2022
IMU, 211346700, 1, 0.0003495392, -0.0001708992, -6.598639E-05, -0.06291152, -0.06197934, -9.814659, 0, 0, 45, 1, 1, 1999, 2045
SURF, 211381956, 0, 2, 0, 0, 0.07055532
SURF, 211381966, 1, 2, 0, 0, 0.07055532
IMU, 211386682, 0, -0.0001723001, -0.0001095198, 0.00049044, -0.1717313, -0.04058027, -9.812479, 0, 0, 44.80676, 1, 1, 2022, 2022
IMU, 211386682, 1, 0.0007274781, -0.00100739, 0.0004199696, -0.1112229, -0.2368609, -9.810429, 0, 0, 45, 1, 1, 1999, 2045
GPS, 211391862, 0, 3, 132270800, 2380, 6, 1.68, 15.3691897, 75.1236928, 675.95, 0.432, 33.99009, 0.196, 0, 1
GPA, 211391862, 0, 2.96, 7.43, 10.46, 1.58, 0, 1, 211358, 200, 597.94, 0, 0
DCM, 211396442, -0.2430628, 2.503985, 218.5624, 0.1034977, 0.02243965, 0, 0, 0
EAHR, 211396461, 0, 0, 0, 0, 0, 0, 0, 0, 0, 0
IMU, 211426910, 0, 0.0004610094, -0.0003729559, -0.0005034716, -0.1871906, 0.1178643, -9.812033, 0, 0, 44.80676, 1, 1, 2022, 2022
IMU, 211426910, 1, -0.001019017, -0.001028754, -0.0004684239, -0.0999194, -0.03029246, -9.802368, 0, 0, 45, 1, 1, 1999, 2045
POWR, 211431879, 4.978299, 0, 5, 5, 2
