FMT, 128, 89, FMT, BBnNZ, Type,Length,Name,Format,Columns
FMT, 119, 76, UNIT, QbZ, TimeUS,Id,Label
FMT, 118, 44, FMTU, QBNN, TimeUS,FmtType,UnitIds,MultIds
FMT, 120, 20, MULT, Qbd, TimeUS,Id,Mult
FMT, 32, 35, PARM, QNff, TimeUS,Name,Value,Default
FMT, 94, 51, GPS, QBBIHBcLLeffffB, TimeUS,I,Status,GMS,GWk,NSats,HDop,Lat,Lng,Alt,Spd,GCrs,VZ,Yaw,U
FMT, 95, 39, GPA, QBCCCCfBIHeHH, TimeUS,I,VDop,HAcc,VAcc,SAcc,YAcc,VV,SMS,Delta,AEl,RTCMFU,RTCMFD
FMT, 99, 22, UBX1, QBHBBHI, TimeUS,Instance,noisePerMS,jamInd,aPower,agcCnt,config
FMT, 100, 16, UBX2, QBbBbB, TimeUS,Instance,ofsI,magI,ofsQ,magQ
FMT, 96, 42, GRAW, QIHBBddfBbB, TimeUS,WkMS,Week,numSV,sv,cpMes,prMes,doMes,mesQI,cno,lli
FMT, 97, 24, GRXH, QdHbBB, TimeUS,rcvTime,week,leapS,numMeas,recStat
FMT, 98, 41, GRXS, QddfBBBHBBBBB, TimeUS,prMes,cpMes,doMes,gnss,sv,freq,lock,cno,prD,cpD,doD,trk
FMT, 101, 23, SBPH, QIII, TimeUS,CrcError,LastInject,IARhyp
FMT, 102, 67, SBRH, QQQQQQQQ, TimeUS,msg_flag,1,2,3,4,5,6
FMT, 103, 123, SBRM, QQQQQQQQQQQQQQQ, TimeUS,msg_flag,1,2,3,4,5,6,7,8,9,10,11,12,13
FMT, 104, 23, SBRE, QHIiBB, TimeUS,GWk,GMS,ns_residual,level,quality
FMT, 59, 75, MSG, QZ, TimeUS,Message
FMT, 60, 39, RCIN, QHHHHHHHHHHHHHH, TimeUS,C1,C2,C3,C4,C5,C6,C7,C8,C9,C10,C11,C12,C13,C14
FMT, 61, 18, RCI2, QHHHB, TimeUS,C15,C16,OMask,Flags
FMT, 62, 39, RCOU, QHHHHHHHHHHHHHH, TimeUS,C1,C2,C3,C4,C5,C6,C7,C8,C9,C10,C11,C12,C13,C14
FMT, 207, 19, RCO2, QHHHH, TimeUS,C15,C16,C17,C18
FMT, 208, 39, RCO3, QHHHHHHHHHHHHHH, TimeUS,C19,C20,C21,C22,C23,C24,C25,C26,C27,C28,C29,C30,C31,C32
FMT, 63, 19, RSSI, Qff, TimeUS,RXRSSI,RXLQ
FMT, 64, 43, BARO, QBfffcfIffB, TimeUS,I,Alt,AltAMSL,Press,Temp,CRt,SMS,Offset,GndTemp,Health
FMT, 65, 24, BARD, QBfff, TimeUS,I,DynPrX,DynPrY,DynPrZ
FMT, 66, 25, CANF, QBIBBBBBBBBB, TimeUS,Bus,Id,DLC,B0,B1,B2,B3,B4,B5,B6,B7
FMT, 67, 81, CAFD, QBIBQQQQQQQQ, TimeUS,Bus,Id,DLC,D0,D1,D2,D3,D4,D5,D6,D7
FMT, 196, 50, PL, QBBfffffffIIB, TimeUS,Heal,TAcq,pX,pY,vX,vY,mX,mY,mZ,LastMeasMS,EKFOutl,Est
FMT, 68, 24, POWR, QffHHB, TimeUS,Vcc,VServo,Flags,AccFlags,Safety
FMT, 69, 27, MCU, Qffff, TimeUS,MTemp,MVolt,MVmin,MVmax
FMT, 93, 46, CMD, QHHHffffLLfB, TimeUS,CTot,CNum,CId,Prm1,Prm2,Prm3,Prm4,Lat,Lng,Alt,Frame
FMT, 92, 46, MISE, QHHHffffLLfB, TimeUS,CTot,CNum,CId,Prm1,Prm2,Prm3,Prm4,Lat,Lng,Alt,Frame
FMT, 78, 48, MAVC, QBBBBBHffffiifBB, TimeUS,TS,TC,SS,SC,Fr,Cmd,P1,P2,P3,P4,X,Y,Z,Res,WL
FMT, 79, 20, RAD, QBBBBBHH, TimeUS,RSSI,RemRSSI,TxBuf,Noise,RemNoise,RxErrors,Fixed
FMT, 81, 46, CAM, QBHIHLLeeeccC, TimeUS,I,Img,GPSTime,GPSWeek,Lat,Lng,Alt,RelAlt,GPSAlt,R,P,Y
FMT, 82, 46, TRIG, QBHIHLLeeeccC, TimeUS,I,Img,GPSTime,GPSWeek,Lat,Lng,Alt,RelAlt,GPSAlt,R,P,Y
FMT, 83, 48, MNT, QBfffffffff, TimeUS,I,DRoll,Roll,DPitch,Pitch,DYawB,YawB,DYawE,YawE,Dist
FMT, 114, 41, ARSP, QBffcffBBffB, TimeUS,I,Airspeed,DiffPress,Temp,RawPress,Offset,U,H,Hp,TR,Pri
FMT, 88, 41, BAT, QBfffffcfBBB, TimeUS,Inst,Volt,VoltR,Curr,CurrTot,EnrgTot,Temp,Res,RemPct,H,SH
FMT, 89, 40, BCL, QBfHHHHHHHHHHHH, TimeUS,Instance,Volt,V1,V2,V3,V4,V5,V6,V7,V8,V9,V10,V11,V12
FMT, 113, 35, MAG, QBhhhhhhhhhBI, TimeUS,I,MagX,MagY,MagZ,OfsX,OfsY,OfsZ,MOX,MOY,MOZ,Health,S
FMT, 122, 14, MODE, QMBB, TimeUS,Mode,ModeNum,Rsn
FMT, 116, 17, RFND, QBCBBb, TimeUS,Instance,Dist,Stat,Orient,Quality
FMT, 117, 36, DMS, QIIIIBBBBBBBBB, TimeUS,N,Dp,RT,RS,Fa,Fmn,Fmx,Pa,Pmn,Pmx,Sa,Smn,Smx
FMT, 174, 41, BCN, QBBfffffff, TimeUS,Health,Cnt,D0,D1,D2,D3,PosX,PosY,PosZ
FMT, 175, 57, PRX, QBBfffffffffff, TimeUS,Layer,He,D0,D45,D90,D135,D180,D225,D270,D315,DUp,CAn,CDis
FMT, 176, 44, PRXR, QBffffffff, TimeUS,Layer,D0,D45,D90,D135,D180,D225,D270,D315
FMT, 179, 61, PM, QHHHIIHHIIIIIIQ, TimeUS,LR,NLon,NL,MaxT,Mem,Load,ErrL,InE,ErC,SPIC,I2CC,I2CI,Ex,R
FMT, 178, 29, SRTL, QBHHBfff, TimeUS,Active,NumPts,MaxPts,Action,N,E,D
FMT, 170, 48, OABR, QBBHHHBfLLiLLi, TimeUS,Type,Act,DYaw,Yaw,DP,RChg,Mar,DLt,DLg,DAlt,OLt,OLg,OAlt
FMT, 171, 31, OADJ, QBBBBLLLL, TimeUS,State,Err,CurrPoint,TotPoints,DLat,DLng,OALat,OALng
FMT, 172, 37, SA, QBffffffB, TimeUS,State,DVelX,DVelY,DVelZ,MVelX,MVelY,MVelZ,Back
FMT, 173, 21, OAVG, QBBLL, TimeUS,version,point_num,Lat,Lon
FMT, 77, 45, SIM, QccCfLLffff, TimeUS,Roll,Pitch,Yaw,Alt,Lat,Lng,Q1,Q2,Q3,Q4
FMT, 84, 38, TERR, QBLLHffHHf, TimeUS,Status,Lat,Lng,Spacing,TerrH,CHeight,Pending,Loaded,ROfs
FMT, 86, 40, ESC, QBffffcfcf, TimeUS,Instance,RPM,RawRPM,Volt,Curr,Temp,CTot,MotTemp,Err
FMT, 87, 15, EDT2, QBBBB, TimeUS,Instance,Stress,MaxStress,Status
FMT, 85, 46, CSRV, QBfffBfffffB, TimeUS,Id,Pos,Force,Speed,Pow,PosCmd,V,A,MotT,PCBT,Err
FMT, 105, 52, PIDR, QffffffffffB, TimeUS,Tar,Act,Err,P,I,D,FF,DFF,Dmod,SRate,Flags
FMT, 106, 52, PIDP, QffffffffffB, TimeUS,Tar,Act,Err,P,I,D,FF,DFF,Dmod,SRate,Flags
FMT, 107, 52, PIDY, QffffffffffB, TimeUS,Tar,Act,Err,P,I,D,FF,DFF,Dmod,SRate,Flags
FMT, 108, 52, PIDA, QffffffffffB, TimeUS,Tar,Act,Err,P,I,D,FF,DFF,Dmod,SRate,Flags
FMT, 109, 52, PIDS, QffffffffffB, TimeUS,Tar,Act,Err,P,I,D,FF,DFF,Dmod,SRate,Flags
FMT, 110, 52, PIDN, QffffffffffB, TimeUS,Tar,Act,Err,P,I,D,FF,DFF,Dmod,SRate,Flags
FMT, 111, 52, PIDE, QffffffffffB, TimeUS,Tar,Act,Err,P,I,D,FF,DFF,Dmod,SRate,Flags
FMT, 112, 56, DSTL, QBfLLeccfeffff, TimeUS,Stg,THdg,Lat,Lng,Alt,XT,Travel,L1I,Loiter,Des,P,I,D
FMT, 161, 32, ACC, QBQfff, TimeUS,I,SampleUS,AccX,AccY,AccZ
FMT, 162, 32, GYR, QBQfff, TimeUS,I,SampleUS,GyrX,GyrY,GyrZ
FMT, 163, 54, IMU, QBffffffIIfBBHH, TimeUS,I,GyrX,GyrY,GyrZ,AccX,AccY,AccZ,EG,EA,T,GH,AH,GHz,AHz
FMT, 166, 28, VIBE, QBfffI, TimeUS,IMU,VibeX,VibeY,VibeZ,Clip
FMT, 164, 31, ISBH, QHBBHHQf, TimeUS,N,type,instance,mul,smp_cnt,SampleUS,smp_rate
FMT, 165, 207, ISBD, QHHaaa, TimeUS,N,seqno,x,y,z
FMT, 129, 15, RFRH, QI, TimeUS,TF
FMT, 130, 5, RFRF, BB, FTypes,Slow
FMT, 138, 38, RFRN, IIIfIfffBBB, HLat,HLon,HAlt,E2T,AM,TX,TY,TZ,VC,EKT,Flags
FMT, 131, 4, REV2, B, Event
FMT, 132, 15, RSO2, III, Lat,Lon,Alt
FMT, 133, 11, RWA2, ff, Airspeed,uncertainty
FMT, 134, 4, REV3, B, Event
FMT, 135, 15, RSO3, III, Lat,Lon,Alt
FMT, 136, 11, RWA3, ff, Airspeed,Uncertainty
FMT, 137, 16, REY3, ffIB, yawangle,yawangleerr,timestamp_ms,type
FMT, 139, 13, RISH, HBBfBB, LR,PG,PA,LD,AC,GC
FMT, 140, 37, RISI, ffffffffBB, DVX,DVY,DVZ,DAX,DAY,DAZ,DVDT,DADT,Flags,I
FMT, 148, 5, RASH, BB, Primary,NumInst
FMT, 149, 14, RASI, fIBBB, pd,UpdateMS,H,Use,I
FMT, 141, 5, RBRH, BB, Primary,NumInst
FMT, 142, 13, RBRI, IfBB, LastUpdate,Alt,H,I
FMT, 143, 8, RRNH, hhB, GCl,MaxD,NumSensors
FMT, 144, 20, RRNI, fffHBBB, PX,PY,PZ,Dist,Orient,Status,I
FMT, 145, 5, RGPH, BB, NumInst,Primary
FMT, 146, 23, RGPI, ffffBBBB, OX,OY,OZ,Lg,Flags,Stat,NSats,I
FMT, 147, 58, RGPJ, IffffffIiiiffHB, TS,VX,VY,VZ,SA,Y,YA,YT,Lat,Lon,Alt,HA,VA,HD,I
FMT, 153, 14, RMGH, fBBBBBBB, Dec,Avail,NumInst,AutoDec,NumEna,LOE,C,FUsable
FMT, 154, 35, RMGI, IffffffBBBB, LU,OX,OY,OZ,FX,FY,FZ,UFY,H,HSF,I
FMT, 150, 33, RBCH, ffffiiiBB, PX,PY,PZ,AE,OLat,OLng,OAlt,Flags,NumInst
FMT, 151, 25, RBCI, IffffBB, LU,PX,PY,PZ,Dist,H,I
FMT, 152, 21, RVOH, fffIBB, OX,OY,OZ,Del,H,Ena
FMT, 155, 40, ROFH, ffffIffffB, FX,FY,GX,GY,Tms,PX,PY,PZ,HgtOvr,Qual
FMT, 156, 49, REPH, fffffffffIIH, PX,PY,PZ,Q1,Q2,Q3,Q4,PEr,AEr,TS,RT,D
FMT, 157, 19, RSLL, IIfI, Lat,Lng,PosAccSD,TS
FMT, 158, 25, REVH, ffffIH, VX,VY,VZ,Er,TS,D
FMT, 159, 31, RWOH, ffIffff, DA,DT,TS,PX,PY,PZ,R
FMT, 160, 53, RBOH, ffffffffIfffH, Q,DPX,DPY,DPZ,DAX,DAY,DAZ,DT,TS,OX,OY,OZ,D
FMT, 43, 37, XKF0, QBBccCCcccccccc, TimeUS,C,ID,rng,innov,SIV,TR,BPN,BPE,BPD,OFH,OFL,OFN,OFE,OFD
FMT, 44, 56, XKF1, QBccCfffffffccce, TimeUS,C,Roll,Pitch,Yaw,VN,VE,VD,dPD,PN,PE,PD,GX,GY,GZ,OH
FMT, 45, 46, XKF2, QBccccchhhhhhfff, TimeUS,C,AX,AY,AZ,VWN,VWE,MN,ME,MD,MX,MY,MZ,IDX,IDY,IS
FMT, 46, 42, XKF3, QBcccccchhhccff, TimeUS,C,IVN,IVE,IVD,IPN,IPE,IPD,IMX,IMY,IMZ,IYAW,IVT,RErr,ErSc
FMT, 47, 44, XKF4, QBcccccfffHBIHb, TimeUS,C,SV,SP,SH,SM,SVT,errRP,OFN,OFE,FS,TS,SS,GPS,PI
FMT, 48, 41, XKF5, QBBhhhcccCCfff, TimeUS,C,NI,FIX,FIY,AFI,HAGL,offset,RI,rng,Herr,eAng,eVel,ePos
FMT, 49, 36, XKFD, QBffffff, TimeUS,C,IX,IY,IZ,IVX,IVY,IVZ
FMT, 50, 29, XKFM, QBBffff, TimeUS,C,OGNM,GLR,ALR,GDR,ADR
FMT, 51, 20, XKFS, QBBBBBBBBB, TimeUS,C,MI,BI,GI,AI,SS,GPS_GTA,GPS_CHK_WAIT,MAG_FUSION
FMT, 52, 28, XKQ, QBffff, TimeUS,C,Q1,Q2,Q3,Q4
FMT, 53, 48, XKT, QBIffffffff, TimeUS,C,Cnt,IMUMin,IMUMax,EKFMin,EKFMax,AngMin,AngMax,VMin,VMax
FMT, 54, 20, XKTV, QBff, TimeUS,C,TVS,TVD
FMT, 55, 60, XKV1, QBffffffffffff, TimeUS,C,V00,V01,V02,V03,V04,V05,V06,V07,V08,V09,V10,V11
FMT, 56, 60, XKV2, QBffffffffffff, TimeUS,C,V12,V13,V14,V15,V16,V17,V18,V19,V20,V21,V22,V23
FMT, 57, 60, XKY0, QBffffffffffff, TimeUS,C,YC,YCS,Y0,Y1,Y2,Y3,Y4,W0,W1,W2,W3,W4
FMT, 58, 52, XKY1, QBffffffffff, TimeUS,C,IVN0,IVN1,IVN2,IVN3,IVN4,IVE0,IVE1,IVE2,IVE3,IVE4
FMT, 41, 60, NKY0, QBffffffffffff, TimeUS,C,YC,YCS,Y0,Y1,Y2,Y3,Y4,W0,W1,W2,W3,W4
FMT, 42, 52, NKY1, QBffffffffff, TimeUS,C,IVN0,IVN1,IVN2,IVN3,IVN4,IVE0,IVE1,IVE2,IVE3,IVE4
FMT, 70, 45, AHR2, QccCfLLffff, TimeUS,Roll,Pitch,Yaw,Alt,Lat,Lng,Q1,Q2,Q3,Q4
FMT, 71, 19, AOA, Qff, TimeUS,AOA,SSA
FMT, 72, 36, ATT, QffffffB, TimeUS,DesRoll,Roll,DesPitch,Pitch,DesYaw,Yaw,AEKF
FMT, 73, 24, ORGN, QBLLe, TimeUS,Type,Lat,Lng,Alt
FMT, 74, 31, POS, QLLfff, TimeUS,Lat,Lng,Alt,RelHomeAlt,RelOriginAlt
FMT, 76, 35, ATSC, Qffffff, TimeUS,AngPScX,AngPScY,AngPScZ,PDScX,PDScY,PDScZ
FMT, 204, 51, VSTB, Qffffffffff, TimeUS,GyrX,GyrY,GyrZ,AccX,AccY,AccZ,Q1,Q2,Q3,Q4
FMT, 90, 38, MON, QIbIHHHHHII, TimeUS,Dly,Tsk,IErr,IErrCnt,IErrLn,MM,MC,SmLn,SPICnt,I2CCnt
FMT, 91, 47, WDOG, QbIHHHHHHHIBIIn, TimeUS,Tsk,IE,IEC,IEL,MvMsg,MvCmd,SmLn,FL,FT,FA,FP,ICSR,LR,TN
FMT, 210, 20, UART, QBff, TimeUS,I,Tx,Rx
FMT, 115, 21, RPM, QBffB, TimeUS,I,RPM,Qual,H
FMT, 209, 27, FNCE, QBBBLLBf, TimeUS,Tot,Seq,Type,Lat,Lng,Count,Radius
FMT, 177, 33, DSF, QIHIIII, TimeUS,Dp,Blk,Bytes,FMn,FMx,FAv
FMT, 121, 24, RALY, QBBLLhB, TimeUS,Tot,Seq,Lat,Lng,Alt,Flags
FMT, 183, 23, MAV, QBHHHBHH, TimeUS,chan,txp,rxp,rxdp,flags,ss,tf
FMT, 167, 43, VISO, Qffffffff, TimeUS,dt,AngDX,AngDY,AngDZ,PosDX,PosDY,PosDZ,conf
FMT, 168, 58, VISP, QQIffffffffBBb, TimeUS,RTimeUS,CTimeMS,PX,PY,PZ,R,P,Y,PErr,AErr,Rst,Ign,Q
FMT, 169, 42, VISV, QQIffffBBb, TimeUS,RTimeUS,CTimeMS,VX,VY,VZ,VErr,Rst,Ign,Q
FMT, 180, 28, OF, QBffff, TimeUS,Qual,flowX,flowY,bodyX,bodyY
FMT, 182, 21, WENC, Qfbfb, TimeUS,Dist0,Qual0,Dist1,Qual1
FMT, 185, 35, ADSB, QIiiiHHhH, TimeUS,ICAO_address,Lat,Lng,Alt,Heading,Hor_vel,Ver_vel,Squark
FMT, 181, 12, EV, QB, TimeUS,Id
FMT, 186, 18, ARM, QBIBB, TimeUS,ArmState,ArmChecks,Forced,Method
FMT, 184, 13, ERR, QBB, TimeUS,Subsys,ECode
FMT, 187, 35, WINC, QBBBBBfffHfb, TimeUS,Heal,ThEnd,Mov,Clut,Mode,DLen,Len,DRate,Tens,Vcc,Temp
FMT, 188, 47, PSCN, Qfffffffff, TimeUS,DPN,TPN,PN,DVN,TVN,VN,DAN,TAN,AN
FMT, 189, 47, PSCE, Qfffffffff, TimeUS,DPE,TPE,PE,DVE,TVE,VE,DAE,TAE,AE
FMT, 190, 47, PSCD, Qfffffffff, TimeUS,DPD,TPD,PD,DVD,TVD,VD,DAD,TAD,AD
FMT, 191, 35, PSON, Qffffff, TimeUS,TPON,PON,TVON,VON,TAON,AON
FMT, 192, 35, PSOE, Qffffff, TimeUS,TPOE,POE,TVOE,VOE,TAOE,AOE
FMT, 193, 35, PSOD, Qffffff, TimeUS,TPOD,POD,TVOD,VOD,TAOD,AOD
FMT, 194, 35, PSOT, Qffffff, TimeUS,TPOT,POT,TVOT,VOT,TAOT,AOT
FMT, 75, 63, RATE, Qfffffffffffff, TimeUS,RDes,R,ROut,PDes,P,POut,YDes,Y,YOut,ADes,A,AOut,AOutSlew
FMT, 195, 39, ANG, Qfffffff, TimeUS,DesRoll,Roll,DesPitch,Pitch,DesYaw,Yaw,Dt
FMT, 201, 33, STAK, QBBHHN, TimeUS,Id,Pri,Total,Free,Name
FMT, 202, 88, FILE, NIBZ, FileName,Offset,Length,Data
FMT, 197, 78, AISR, QBBBZ, TimeUS,num,total,ID,payload
FMT, 198, 41, AIS1, QBBIBbHbLLHHBBbI, US,typ,rep,mmsi,nav,rot,sog,pos,lon,lat,cog,hed,sec,man,raim,rad
FMT, 199, 38, AIS4, QBIHBBBBBBLLBBI, US,rep,mmsi,year,mth,day,h,m,s,fix,lon,lat,epfd,raim,rad
FMT, 200, 175, AIS5, QBIBINZBHHBBBBZB, US,rep,mmsi,ver,imo,cal,nam,typ,bow,stn,prt,str,fix,dght,dst,dte
FMT, 203, 39, SCR, QNIii, TimeUS,Name,Runtime,Total_mem,Run_mem
FMT, 206, 90, VER, QBHBBBBIZHBB, TimeUS,BT,BST,Maj,Min,Pat,FWT,GH,FWS,APJ,BU,FV
FMT, 205, 32, MOTB, QfffffB, TimeUS,LiftMax,BatVolt,ThLimit,ThrAvMx,ThrOut,FailFlags
FMT, 6, 24, PTUN, QBfff, TimeUS,Param,TunVal,TunMin,TunMax
FMT, 0, 55, CTUN, Qffffffefffhh, TimeUS,ThI,ABst,ThO,ThH,DAlt,Alt,BAlt,DSAlt,SAlt,TAlt,DCRt,CRt
FMT, 1, 14, D16, QBh, TimeUS,Id,Value
FMT, 2, 14, DU16, QBH, TimeUS,Id,Value
FMT, 3, 16, D32, QBi, TimeUS,Id,Value
FMT, 4, 16, DU32, QBI, TimeUS,Id,Value
FMT, 5, 16, DFLT, QBf, TimeUS,Id,Value
FMT, 9, 47, SIDD, Qfffffffff, TimeUS,Time,Targ,F,Gx,Gy,Gz,Ax,Ay,Az
FMT, 10, 40, SIDS, QBfffffff, TimeUS,Ax,Mag,FSt,FSp,TFin,TC,TR,TFout
FMT, 8, 49, GUIP, QBfffbffffff, TimeUS,Type,pX,pY,pZ,Terrain,vX,vY,vZ,aX,aY,aZ
FMT, 11, 44, GUIA, QBffffffff, TimeUS,Type,Roll,Pitch,Yaw,RollRt,PitchRt,YawRt,Thrust,ClimbRt
FMT, 253, 28, HEAT, Qfbfff, TimeUS,Temp,Targ,P,I,Out
HEAT, 179792222, 44.84299, 45, 7.850266, 3.340887, 11.19115
IMU, 179795214, 0, -0.0009735304, -0.003513744, -0.0004634638, -0.2205169, -0.2822638, -9.81446, 0, 0, 44.80676, 1, 1, 2022, 2022
IMU, 179795214, 1, -0.0007062009, -0.001461143, -0.0003335757, -0.1568382, -0.4835345, -9.802063, 0, 0, 45, 1, 1, 1998, 2046
POWR, 179815104, 4.966919, 5.033406, 1, 1, 6
MCU, 179815104, 43.02187, 3.347973, 3.3355, 3.355303
BAT, 179815117, 0, 15.30197, 15.61727, 1.229797, 71.90591, 1.105393, 0, 0.2563838, 97, 1, 0
MAG, 179815129, 0, -252, -193, 337, -382, 367, 647, 0, 0, 0, 1, 179815127
MAG, 179815129, 1, 30, -365, 168, 59, 22, -40, 0, 0, 0, 1, 179815126
FMT, 249, 25, SURF, QBBfff, TimeUS,I,St,D,FD,TO
SURF, 179815153, 0, 2, 0, 0, -0.0547768
SURF, 179815183, 1, 2, 0, 0, -0.0547768
BARO, 179815230, 0, -0.1219482, 639.168, 93727.57, 44.11, -0.302372, 179815, 0, 35, 1
CTUN, 179815242, 0, 0, 0, 0.4193364, 0, -0.0502316, -0.12, NaN, 0, 0.01080847, 0, 0
ATT, 179815577, -0.0001507366, 1.924559, 0.0003139304, -0.07062735, 140.1787, 140.1377, 3
ANG, 179814716, -0.0001507366, 1.92407, 0.0003139304, -0.07131733, 140.1787, 140.1788, 0.0025
RATE, 179814729, -8.658014, -0.002362358, -0.02045109, 0.3199938, 0.02499689, 0.0006944832, -0.00537046, 0.02133217, -1.853033E-05, 0.5488396, 0.183773, 0, 0
PIDR, 179815594, -0.1510782, -4.123093E-05, -0.1510369, -0.02038999, 0, -6.110246E-05, 0, 0, 1, 0.02285051, 9
PIDP, 179815598, 0.005631914, 0.0004362781, 0.005195636, 0.0007014109, 0, -6.927724E-06, 0, 0, 1, 0.02737212, 9
PIDY, 179815602, -9.428553E-05, 0.0003723166, -0.0001029463, -1.853033E-05, 0, 0, 0, 0, 1, 0.002041074, 9
PIDA, 179815606, 0.5488396, 0.5488396, 0, 0, -419.3364, 0, 0, 0, 1, 0, 13
XKF4, 179814837, 0, 0.02, 0, 0.01, 0, 0, 0.006322211, 0.8079481, 1.113689, 0, 48, 107327, 0, 0
XKF1, 179814837, 0, 1.92, -0.07, 140.13, -0.007973563, 0.007825486, -0.006967551, -0.0205694, 1.321997, -1.169475, 0.0502316, -0.02, -0.21, -0.02, 639.28
XKF2, 179814837, 0, 0, -0.01, -0.01, 0, 0, 290, -3, 328, 0, 0, 0, 0, 0, 0
XKF3, 179814837, 0, 0, 0.07, 0.03, 0.01, -0.06, -0.19, 0, 0, 0, -0.63, 0, 0, 0.0004449539
XKF5, 179814837, 0, 0, 0, 0, 0, 0.18, 0.22, 0, 0, 0.5, 0.0002350489, 0.01003368, 0.008754319
XKFS, 179814837, 0, 0, 0, 0, 0, 0, 1, 0, 1
XKQ, 179814837, 0, 0.3406788, 0.01557172, 0.009817763, 0.9399995
XKT, 179814837, 0, 408, 0.002500002, 0.002500002, 0.01248903, 0.01250879, 0.01186839, 0.01335208, 0.01186839, 0.01335208
XKF4, 179814837, 1, 0.02, 0, 0.01, 0, 0, 0.00638055, 0.8048393, 1.12718, 0, 48, 107327, 0, 0
XKF1, 179814837, 1, 3.14, 0.35, 138.83, -0.01308886, 0.006841611, -0.002552623, -0.01870194, 1.320732, -1.172219, 0.05374096, -0.02, 0, 0, 639.28
XKF2, 179814837, 1, 0, 0, -0.01, 0, 0, 291, -3, 328, 0, 0, 0, 0, 0, 0
XKF3, 179814837, 1, 0, 0.07, 0.03, 0.01, -0.06, -0.18, 0, 0, 0, -0.7, 0, 0.00691431, 0.0004603722
XKFS, 179814837, 1, 0, 0, 0, 0, 0, 1, 0, 1
XKQ, 179814837, 1, 0.3512671, 0.01591789, 0.02090907, 0.9359064
XKT, 179814837, 1, 408, 0.002500002, 0.002500002, 0.01249388, 0.01250826, 0.01200609, 0.01300663, 0.01172975, 0.01270725
AHR2, 179815690, 1.96, -0.03, 140.31, 638.99, 15.3695867, 75.1243689, 0.3394343, 0.006083987, 0.01603325, 0.9404734
POS, 179815696, 15.3695868, 75.1243685, 639.23, 0.0197684, -0.0502316
MOTB, 179815701, 1, 1, 1, 0.04193364, 0, 2
RCIN, 179815707, 1515, 1515, 1515, 1515, 1446, 1000, 1000, 875, 1000, 1000, 1000, 1000, 875, 875
RCI2, 179815724, 875, 875, 0, 1
RCOU, 179815743, 1000, 1000, 1000, 1000, 0, 0, 0, 0, 1000, 0, 0, 0, 0, 0
RCO2, 179815746, 0, 0, 0, 0
VIBE, 179815751, 0, 0.007799787, 0.006971247, 0.009670464, 0
VIBE, 179815751, 1, 0.06126773, 0.05532429, 0.0684412, 0
FMT, 247, 31, CTRL, Qfffff, TimeUS,RMSRollP,RMSRollD,RMSPitchP,RMSPitchD,RMSYaw
CTRL, 179815760, 0.02032784, 8.919583E-05, 0.0008043438, 0.0001278604, 2.508277E-05
FMT, 252, 43, DCM, Qffffffff, TimeUS,Roll,Pitch,Yaw,ErrRP,ErrYaw,VWN,VWE,VWD
DCM, 179817382, 1.965475, -0.03200395, 140.3115, 0.01539681, 0.01659925, 0, 0, 0
FMT, 251, 51, EAHR, QffffffLLfI, TimeUS,Roll,Pitch,Yaw,VN,VE,VD,Lat,Lon,Alt,Flg
EAHR, 179817419, 0, 0, 0, 0, 0, 0, 0, 0, 0, 0
IMU, 179835400, 0, -0.000583156, -0.003705125, 5.847092E-05, -0.2235335, -0.2849988, -9.814198, 0, 0, 44.80676, 1, 1, 2022, 2022
IMU, 179835400, 1, -0.001399291, -0.001008262, 0.0006908962, -0.1538734, -0.484131, -9.809927, 0, 0, 45, 1, 1, 1998, 2046
MSG, 179856105, ArduCopter V4.6.2 (1ebd4d99)
MSG, 179856113, ChibiOS: 88b84600
VER, 179856118, 10, 5009, 4, 6, 2, 255, 515722649, ArduCopter V4.6.2 (1ebd4d99), 56, 2, 2
MSG, 179856131, Pixhawk6C 003D0048 3133510F 31343630
MSG, 179856139, Param space used: 974/5376
MSG, 179856145, RC Protocol: SBUS
MSG, 179856158, RCOut: PWM:1-16
MSG, 179856163, New mission
CMD, 179857662, 4, 0, 16, 0, 0, 0, 0, 15.3695869, 75.1243684, 639.22, 0
CMD, 179857671, 4, 1, 22, 1, 0, 0, 0, 0, 0, 10, 3
CMD, 179857678, 4, 2, 16, 10, 0, 0, 0, 15.367361, 75.1254623, 10, 3
CMD, 179857685, 4, 3, 20, 0, 0, 0, 0, 0, 0, 0, 0
MSG, 179857689, New rally
MSG, 179857694, New fence
FNCE, 179857701, 10, 0, 98, 15.3694775, 75.1243937, 10, 0
FNCE, 179857706, 10, 1, 98, 15.3694025, 75.1246646, 10, 0
FNCE, 179857712, 10, 2, 98, 15.3694775, 75.1248684, 10, 0
FNCE, 179857717, 10, 3, 98, 15.3696456, 75.1249086, 10, 0
FNCE, 179857722, 10, 4, 98, 15.3699042, 75.1248443, 10, 0
FNCE, 179857732, 10, 5, 98, 15.3702533, 75.1247826, 10, 0
FNCE, 179857738, 10, 6, 98, 15.3703154, 75.1244822, 10, 0
FNCE, 179857743, 10, 7, 98, 15.3700982, 75.124281, 10, 0
FNCE, 179857748, 10, 8, 98, 15.3698292, 75.1241469, 10, 0
FNCE, 179857754, 10, 9, 98, 15.3695111, 75.1241147, 10, 0
MSG, 179857803, Frame: QUAD/X
MODE, 179857819, Stabilize, 0, 1
ORGN, 179857833, 0, 15.3695749, 75.1243794, 639.29
ORGN, 179857839, 1, 15.3695869, 75.1243684, 639.22
MSG, 179857848, GPS 1: probing for u-blox at 230400 baud
MSG, 179857857, u-blox 1 HW: 00190000 SW: EXT CORE 4.04 (7f89f7)
SURF, 179865116, 0, 2, 0, 0, -0.05455486
SURF, 179865127, 1, 2, 0, 0, -0.05455486
IMU, 179875332, 0, -0.0005069418, -0.002567061, -0.0009480534, -0.216211, -0.2790229, -9.815656, 0, 0, 44.80676, 1, 1, 2022, 2022
IMU, 179875332, 1, -0.0003847816, 0.00223382, -0.0002612469, -0.1317518, -0.475458, -9.814308, 0, 0, 45, 1, 1, 1998, 2046
FILE, @SYS/uarts.txt, 0, 64, UARTV1\nSERIAL0 OTG1  TX =       0 RX =       0 TXBD=     0 RXBD=
FILE, @SYS/uarts.txt, 64, 64,      0 FE=0 OE=0 NE=0 FlowCtrl=0\nSERIAL1 UART7 TX*=  149527 RX*=
FILE, @SYS/uarts.txt, 128, 64,    29982 TXBD=  8344 RXBD=  1673 FE=0 OE=0 NE=0 FlowCtrl=0\nSERIA
POWR, 179915143, 4.966214, 5.038241, 1, 1, 6
MCU, 179915143, 43.06163, 3.348535, 3.337176, 3.354597
BAT, 179915156, 0, 15.30096, 15.61002, 1.205446, 71.93941, 1.105905, 0, 0.2563838, 97, 1, 0
MAG, 179915167, 0, -248, -196, 348, -382, 367, 647, 0, 0, 0, 1, 179915166
MAG, 179915167, 1, 31, -364, 167, 59, 22, -40, 0, 0, 0, 1, 179915165
SURF, 179915185, 0, 2, 0, 0, -0.05432396
SURF, 179915194, 1, 2, 0, 0, -0.05432396
BARO, 179915213, 0, -0.1806641, 639.1093, 93728.22, 44.11, -0.6755256, 179915, 0, 35, 1
CTUN, 179915226, 0, 0, 0, 0.4193364, 0, -0.04977143, -0.18, NaN, 0, 0.0206864, 0, 0
ATT, 179915331, -0.0001507366, 1.927993, 0.0003139304, -0.0654601, 140.183, 140.1418, 3
ANG, 179914716, -0.0001507366, 1.927507, 0.0003139304, -0.06615255, 140.183, 140.183, 0.0025
RATE, 179914730, -8.673481, -0.02309622, -0.02031684, 0.2967471, -0.007665433, 0.0009064162, -0.004904997, 0.01443516, -2.227074E-05, 0.5488396, 0.05559921, 0, 0
PIDR, 179915348, -0.1513688, -0.0004031052, -0.1509657, -0.02038037, 0, 6.352617E-05, 0, 0, 1, 0.02381596, 9
PIDP, 179915352, 0.005191959, -0.000133787, 0.005325746, 0.0007189757, 0, 0.0001874405, 0, 0, 1, 0.02886037, 9
PIDY, 179915356, -8.612984E-05, 0.0002519411, -0.0001237263, -2.227074E-05, 0, 0, 0, 0, 1, 0.00184661, 9
PIDA, 179915359, 0.5488396, 0.5488396, 0, 0, -419.3364, 0, 0, 0, 1, 0, 13
XKF4, 179914894, 0, 0.02, 0, 0, 0.01, 0, 0.006400452, 0.8079481, 1.113689, 0, 48, 107327, 0, 0
XKF1, 179914894, 0, 1.92, -0.06, 140.14, -0.00906672, 0.002308185, -0.007010627, -0.005636937, 1.320256, -1.172107, 0.04977143, -0.02, -0.21, -0.02, 639.28
XKF2, 179914894, 0, 0, -0.01, -0.01, 0, 0, 290, -3, 328, 0, 0, 0, 0, 0, 0
XKF3, 179914894, 0, 0, 0.07, 0.03, 0.01, -0.06, -0.08, 0, 0, 0, -0.99, 0, 0, 0.0004449539
XKF5, 179914894, 0, 0, 0, 0, 0, 0.18, 0.22, 0, 0, 0.5, 0.0001719083, 0.006315402, 0.006730439
XKFS, 179914894, 0, 0, 0, 0, 0, 0, 1, 0, 1
XKQ, 179914894, 0, 0.3406451, 0.01553919, 0.00986187, 0.9400118
XKV1, 179914894, 0, 0.0002161252, 5.064466E-06, 5.097414E-06, 2.840482E-05, 0.02887717, 0.02889351, 0.01123045, 0.08714933, 0.08714952, 0.1228919, 3.92277E-11, 3.925813E-11
XKV2, 179914894, 0, 1.084416E-10, 5.609095E-06, 5.609152E-06, 5.932737E-08, 0, 0, 0, 0, 0, 0, 0, 0
XKF4, 179914894, 1, 0.02, 0, 0, 0.01, 0, 0.006458485, 0.8048393, 1.12718, 0, 48, 107327, 0, 0
XKF1, 179914894, 1, 3.14, 0.36, 138.83, -0.01377589, 0.0008825092, -0.0028703, -0.003981143, 1.318995, -1.174796, 0.05347255, -0.02, 0, 0, 639.28
XKF2, 179914894, 1, 0, 0, -0.01, 0, 0, 291, -3, 328, 0, 0, 0, 0, 0, 0
XKF3, 179914894, 1, 0, 0.07, 0.03, 0.01, -0.06, -0.08, 0, 0, 0, -1.07, 0, 0.007531032, 0.0004603722
XKFS, 179914894, 1, 0, 0, 0, 0, 0, 1, 0, 1
XKQ, 179914894, 1, 0.3512245, 0.01589657, 0.0209788, 0.9359213
AHR2, 179915440, 1.98, -0.02, 140.31, 639.09, 15.3695867, 75.1243689, 0.3393829, 0.006107689, 0.01617212, 0.9404895
POS, 179915445, 15.3695868, 75.1243684, 639.24, 0.02022857, -0.04977143
MOTB, 179915450, 1, 1, 1, 0.04193364, 0, 2
RCIN, 179915456, 1515, 1515, 1515, 1515, 1446, 1000, 1000, 875, 1000, 1000, 1000, 1000, 875, 875
RCI2, 179915462, 875, 875, 0, 1
RCOU, 179915468, 1000, 1000, 1000, 1000, 0, 0, 0, 0, 1000, 0, 0, 0, 0, 0
RCO2, 179915471, 0, 0, 0, 0
VIBE, 179915476, 0, 0.009004122, 0.007575519, 0.008765385, 0
VIBE, 179915476, 1, 0.05988556, 0.05523687, 0.06850348, 0
CTRL, 179915484, 0.02035562, 7.88867E-05, 0.0007617674, 0.0001269601, 2.847971E-05
IMU, 179915494, 0, -0.0007801238, -0.003801579, -0.0002370633, -0.2139049, -0.2798603, -9.817505, 0, 0, 44.80676, 1, 1, 2022, 2022
IMU, 179915494, 1, 0.0007049585, -0.00234493, 0.0003479563, -0.1624178, -0.4830088, -9.809549, 0, 0, 45, 1, 1, 1998, 2046
DCM, 179917381, 1.98117, -0.02917327, 140.3177, 0.01539681, 0.01340345, 0, 0, 0
EAHR, 179917399, 0, 0, 0, 0, 0, 0, 0, 0, 0, 0
FILE, @SYS/uarts.txt, 192, 64, L2 UART5 TX*=    4602 RX*=       0 TXBD=   256 RXBD=     0 FE=0 
STAK, 179918745, 1, 1, 496, 288, idle
FILE, @SYS/uarts.txt, 256, 64, OE=0 NE=0 FlowCtrl=0\nSERIAL3 UART1 TX*=    2136 RX*=  119042 TXB
GPS, 179935498, 0, 3, 183683600, 2380, 16, 0.65, 15.3695866, 75.1243691, 641.5, 0.071, 51.61121, -0.137, 0, 1
GPA, 179935498, 0, 0.98, 1.14, 1.56, 0.4, 0, 1, 179917, 200, 563.49, 0, 0
FILE, @SYS/uarts.txt, 320, 64, D=   119 RXBD=  6643 FE=151 OE=0 NE=170 FlowCtrl=0\nSERIAL4 UART8
MAV, 179950367, 1, 4381, 1451, 0, 6, 0, 0
IMU, 179955204, 0, 0.0001238187, -0.002927294, 0.0002143981, -0.2230515, -0.2829632, -9.817939, 0, 0, 45.28986, 1, 1, 2022, 2022
IMU, 179955204, 1, -0.0003568067, -0.002896377, 0.001257689, -0.1436436, -0.4988919, -9.803708, 0, 0, 45, 1, 1, 1998, 2046
FILE, @SYS/uarts.txt, 384, 64,  TX*=       0 RX*=       0 TXBD=     0 RXBD=     0 FE=0 OE=0 NE=
SURF, 179965094, 0, 2, 0, 0, -0.05410166
SURF, 179965103, 1, 2, 0, 0, -0.05410166
FILE, @SYS/uarts.txt, 448, 64, 0 FlowCtrl=0\nSERIAL5 UART2 TX =       0 RX =       0 TXBD=     0
FILE, @SYS/uarts.txt, 512, 64,  RXBD=     0 FE=0 OE=0 NE=0 FlowCtrl=0\nSERIAL6 UART3 TX =       
FILE, @SYS/uarts.txt, 576, 64, 0 RX =       0 TXBD=     0 RXBD=     0 FE=0 OE=0 NE=0 FlowCtrl=0
IMU, 179995148, 0, -0.0004509021, -0.004474249, -0.0009162616, -0.2175142, -0.2867267, -9.816699, 0, 0, 44.80676, 1, 1, 2022, 2022
IMU, 179995148, 1, -0.0005989685, -0.00111604, -0.001669789, -0.1468434, -0.4772355, -9.804495, 0, 0, 45, 1, 1, 1998, 2046
RAD, 179997911, 60, 0, 100, 93, 0, 0, 0
FILE, @SYS/uarts.txt, 640, 64, \nSERIAL7 OTG2  TX =       0 RX =       0 TXBD=     0 RXBD=     0
POWR, 180015113, 4.971854, 5.043077, 1, 1, 6
MCU, 180015113, 43.02187, 3.348535, 3.341234, 3.354032
BAT, 180015127, 0, 15.30737, 15.62375, 1.234007, 71.97369, 1.10643, 0, 0.2563838, 97, 1, 0
MAG, 180015139, 0, -249, -194, 345, -382, 367, 647, 0, 0, 0, 1, 180015137
MAG, 180015139, 1, 29, -364, 167, 59, 22, -40, 0, 0, 0, 1, 180015136
SURF, 180015179, 0, 2, 0, 0, -0.05383468
SURF, 180015188, 1, 2, 0, 0, -0.05383468
BARO, 180015207, 0, -0.1219482, 639.168, 93727.55, 44.11, -0.5569077, 180015, 0, 35, 1
CTUN, 180015220, 0, 0, 0, 0.4193364, 0, -0.04703008, -0.12, NaN, 0, 0.0206864, 0, 0
ATT, 180015324, -0.0001507366, 1.931006, 0.0003139306, -0.06561549, 140.1873, 140.146, 3
ANG, 180014716, -0.0001507366, 1.930519, 0.0003139306, -0.06631006, 140.1873, 140.1873, 0.0025
RATE, 180014728, -8.687151, 0.007430622, -0.02057934, 0.2974614, 0.03878452, 0.0003612192, -0.004997748, 7.030625E-05, -4.504306E-05, 0.5488396, 0.2396584, 0, 0
PIDR, 180015341, -0.1515916, 0.0001296888, -0.1517213, -0.02048237, 0, -9.696273E-05, 0, 0, 1, 0.02431326, 9
PIDP, 180015345, 0.005196427, 0.0006769176, 0.004519509, 0.0006101337, 0, -0.0002489145, 0, 0, 1, 0.03007823, 9
PIDY, 180015352, -8.70653E-05, 1.227076E-06, -0.0002502392, -4.504306E-05, 0, 0, 0, 0, 1, 0.001713515, 9
PIDA, 180015355, 0.5488396, 0.5488396, 0, 0, -419.3364, 0, 0, 0, 1, 0, 13
XKF4, 180014897, 0, 0.05, 0, 0.01, 0, 0, 0.00637926, 0.8079481, 1.113689, 0, 48, 107327, 0, 0
XKF1, 180014897, 0, 1.93, -0.06, 140.14, -0.01196274, 0.001163648, -0.008346682, -0.01871993, 1.316807, -1.171395, 0.04703008, -0.02, -0.2, -0.02, 639.28
XKF2, 180014897, 0, 0, 0, -0.01, 0, 0, 290, -3, 328, 0, 0, 0, 0, 0, 0
XKF3, 180014897, 0, 0.04, -0.05, 0.13, 0.01, -0.06, -0.15, 0, 0, 0, -0.16, 0, 0, 0.001294792
XKF5, 180014897, 0, 0, 0, 0, 0, 0.19, 0.22, 0, 0, 0.5, 0.000122441, 0.007253963, 0.008474298
XKFS, 180014897, 0, 0, 0, 0, 0, 0, 1, 0, 1
XKQ, 180014897, 0, 0.3406099, 0.01554905, 0.009886701, 0.9400241
XKF4, 180014897, 1, 0.05, 0, 0.01, 0, 0, 0.006436054, 0.8048393, 1.12718, 0, 48, 107327, 0, 0
XKF1, 180014897, 1, 3.15, 0.35, 138.84, -0.01632383, 0.0006591248, -0.003446292, -0.01964604, 1.315377, -1.173503, 0.05043536, -0.02, 0, 0, 639.28
XKF2, 180014897, 1, 0, 0, -0.01, 0, 0, 291, -3, 328, 0, 0, 0, 0, 0, 0
XKF3, 180014897, 1, 0.03, -0.05, 0.13, 0.01, -0.06, -0.15, 0, 0, 0, -0.21, 0, 0.01282339, 0.001350094
XKFS, 180014897, 1, 0, 0, 0, 0, 0, 1, 0, 1
XKQ, 180014897, 1, 0.3511861, 0.01596838, 0.02097104, 0.9359346
AHR2, 180015427, 1.97, -0.06, 140.31, 639.03, 15.3695866, 75.1243691, 0.3393919, 0.006390317, 0.0160378, 0.9404866
POS, 180015433, 15.3695868, 75.1243684, 639.24, 0.02296992, -0.04703008
MOTB, 180015438, 1, 1, 1, 0.04193364, 0, 2
RCIN, 180015444, 1515, 1515, 1515, 1515, 1446, 1000, 1000, 875, 1000, 1000, 1000, 1000, 875, 875
RCI2, 180015448, 875, 875, 0, 1
RCOU, 180015454, 1000, 1000, 1000, 1000, 0, 0, 0, 0, 1000, 0, 0, 0, 0, 0
RCO2, 180015457, 0, 0, 0, 0
VIBE, 180015462, 0, 0.008709951, 0.007282473, 0.008649492, 0
VIBE, 180015462, 1, 0.05548616, 0.05644909, 0.06671161, 0
CTRL, 180015470, 0.02039751, 7.917847E-05, 0.0007401091, 0.0001340603, 4.448447E-05
FILE, @SYS/uarts.txt, 704, 64,  FE=0 OE=0 NE=0 FlowCtrl=0\nIOMCU   UART6 TX*= 1457356 RX*=  8993
DCM, 180017325, 1.977157, -0.06591219, 140.3157, 0.02088019, 0.01237101, 0, 0, 0
EAHR, 180017347, 0, 0, 0, 0, 0, 0, 0, 0, 0, 0
STAK, 180018766, 2, 60, 1200, 880, UART_RX
FILE, @SYS/uarts.txt, 768, 53, 98 TXBD=  9423 RXBD=  2254 FE=0 OE=0 NE=0 FlowCtrl=0\n
IMU, 180035373, 0, -0.000461738, -0.004247388, -0.0006901115, -0.2230272, -0.2823667, -9.811127, 0, 0, 45.28986, 1, 1, 2022, 2022
IMU, 180035373, 1, -0.001384922, 0.0008863533, 0.0004565455, -0.1448421, -0.4856474, -9.807646, 0, 0, 45, 1, 1, 1998, 2046
FILE, @SYS/memory.txt, 0, 64, MemInfoV1\nSTART=0x24000000 LEN=512k FREE=  3008 LRG=  1152 TYPE=
FILE, @SYS/memory.txt, 64, 64, 4\nSTART=0x30000000 LEN=256k FREE=262136 LRG=262136 TYPE=8\nSTART=
SURF, 180065105, 0, 2, 0, 0, -0.05350241
SURF, 180065115, 1, 2, 0, 0, -0.05350241
IMU, 180075393, 0, -0.001121799, -0.003981997, 0.0002029196, -0.2196689, -0.2824229, -9.813071, 0, 0, 44.80676, 1, 1, 2022, 2022
IMU, 180075393, 1, -0.0009030554, 0.000546562, 0.00180444, -0.1454631, -0.497488, -9.791821, 0, 0, 45, 1, 1, 1998, 2046
FILE, @SYS/memory.txt, 128, 64, 0x20000000 LEN=128k FREE=112544 LRG=112544 TYPE=2\nSTART=0x000004
FILE, @SYS/memory.txt, 192, 64, 00 LEN= 63k FREE= 64504 LRG= 64504 TYPE=2\nSTART=0x30040000 LEN= 
FILE, @SYS/memory.txt, 256, 64, 32k FREE= 32760 LRG= 32760 TYPE=8\nSTART=0x38000000 LEN= 64k FREE
FILE, @SYS/memory.txt, 320, 26, = 56808 LRG= 56152 TYPE=1\n
POWR, 180115103, 4.971249, 5.045494, 1, 1, 6
MCU, 180115103, 43.02187, 3.348676, 3.338574, 3.35375
BAT, 180115129, 0, 15.31011, 15.62382, 1.223571, 72.00768, 1.10695, 0, 0.2563838, 97, 1, 0
MAG, 180115143, 0, -250, -195, 346, -382, 367, 647, 0, 0, 0, 1, 180115142
MAG, 180115143, 1, 29, -365, 167, 59, 22, -40, 0, 0, 0, 1, 180115137
SURF, 180115180, 0, 2, 0, 0, -0.05312125
SURF, 180115189, 1, 2, 0, 0, -0.05312125
BARO, 180115209, 0, -0.03662109, 639.2534, 93726.59, 44.11, -0.1331711, 180115, 0, 35, 1
CTUN, 180115221, 0, 0, 0, 0.4193364, 0, -0.04482334, -0.03, NaN, 0, 0.02154089, 0, 0
ATT, 180115345, -0.0001507366, 1.92805, 0.0003139305, -0.0712631, 140.1899, 140.1487, 3
ANG, 180114716, -0.0001507366, 1.927559, 0.0003139305, -0.07195555, 140.1899, 140.1898, 0.0025
RATE, 180114728, -8.673913, -0.02727969, -0.02027759, 0.3228743, -0.02894124, 0.0008959816, -0.005404688, -0.02499156, -6.021241E-05, 0.5488396, -0.4307747, 0, 0
PIDR, 180115362, -0.1514214, -0.0004761204, -0.1509453, -0.02037762, 0, 0.0001000225, 0, 0, 1, 0.02295894, 9
PIDP, 180115366, 0.005605894, -0.00050512, 0.006111014, 0.0008249869, 0, 7.099467E-05, 0, 0, 1, 0.0310509, 9
PIDY, 180115370, -9.4036E-05, -0.0004361851, -0.0003345134, -6.021241E-05, 0, 0, 0, 0, 1, 0.001748512, 9
PIDA, 180115373, 0.5488396, 0.5488396, 0, 0, -419.3364, 0, 0, 0, 1, 0, 13
XKF4, 180114889, 0, 0.05, 0, 0, 0, 0, 0.006457481, 0.8079481, 1.113689, 0, 48, 107327, 0, 0
XKF1, 180114889, 0, 1.92, -0.07, 140.14, -0.01518502, 0.00101018, -0.009193392, -0.0264022, 1.313109, -1.169941, 0.04482334, -0.02, -0.2, -0.02, 639.28
XKF2, 180114889, 0, 0, 0, -0.01, 0, 0, 290, -3, 328, 0, 0, 0, 0, 0, 0
XKF3, 180114889, 0, 0.04, -0.05, 0.13, 0.01, -0.06, -0.09, 0, 0, 0, -0.64, 0, 0, 0.001294792
XKF5, 180114889, 0, 0, 0, 0, 0, 0.19, 0.22, 0, 0, 0.5, 0.00010646, 0.005021624, 0.004608162
XKFS, 180114889, 0, 0, 0, 0, 0, 0, 1, 0, 1
XKQ, 180114889, 0, 0.3405877, 0.01558636, 0.009846011, 0.9400319
XKF4, 180114889, 1, 0.05, 0, 0, 0, 0, 0.00651374, 0.8048393, 1.12718, 0, 48, 107327, 0, 0
XKF1, 180114889, 1, 3.14, 0.35, 138.84, -0.01899123, 0.0004167659, -0.004099078, -0.02396754, 1.311791, -1.172052, 0.04857177, -0.02, 0, 0, 639.28
XKF2, 180114889, 1, 0, 0, -0.01, 0, 0, 291, -3, 328, 0, 0, 0, 0, 0, 0
XKF3, 180114889, 1, 0.03, -0.05, 0.13, 0.01, -0.06, -0.08, 0, 0, 0, -0.69, 0, 0.01503547, 0.001350094
XKFS, 180114889, 1, 0, 0, 0, 0, 0, 1, 0, 1
XKQ, 180114889, 1, 0.3511387, 0.01597626, 0.02094555, 0.9359528
AHR2, 180115449, 1.96, -0.11, 140.31, 639.09, 15.3695865, 75.1243692, 0.3393647, 0.006759471, 0.01577196, 0.9404984
POS, 180115454, 15.3695867, 75.1243685, 639.24, 0.02517666, -0.04482334
MOTB, 180115463, 1, 1, 1, 0.04193364, 0, 2
RCIN, 180115469, 1515, 1515, 1506, 1515, 1446, 1000, 1000, 875, 1000, 1000, 1000, 1000, 875, 875
RCI2, 180115473, 875, 875, 0, 1
RCOU, 180115479, 1000, 1000, 1000, 1000, 0, 0, 0, 0, 1000, 0, 0, 0, 0, 0
RCO2, 180115482, 0, 0, 0, 0
VIBE, 180115487, 0, 0.009654407, 0.007875462, 0.009153458, 0
VIBE, 180115487, 1, 0.05687128, 0.05544442, 0.06623301, 0
CTRL, 180115495, 0.02040111, 8.238564E-05, 0.0007548886, 0.0001300138, 4.579729E-05
IMU, 180115506, 0, -0.0008514435, -0.004164845, -0.0009261406, -0.2144899, -0.28279, -9.812144, 0, 0, 44.80676, 1, 1, 2022, 2022
IMU, 180115506, 1, 0.001299265, 0.001550417, 0.0001309846, -0.1500095, -0.4732879, -9.794772, 0, 0, 45, 1, 1, 1998, 2046
DCM, 180117325, 1.962612, -0.1163529, 140.3184, 0.02088019, 0.01119671, 0, 0, 0
EAHR, 180117349, 0, 0, 0, 0, 0, 0, 0, 0, 0, 0
STAK, 180121516, 3, 60, 752, 480, OTG1
GPS, 180135479, 0, 3, 183683800, 2380, 16, 0.65, 15.3695866, 75.1243691, 641.51, 0.038, 51.61121, -0.06900001, 0, 1
GPA, 180135479, 0, 0.98, 1.15, 1.56, 0.41, 0, 1, 180116, 199, 563.5, 0, 0
FILE, @SYS/threads.txt, 0, 64, ThreadsV2\nISR           PRI=255 sp=0x24000000 STACK=1284/1536\nAr
FILE, @SYS/threads.txt, 64, 64, duCopter    PRI=182 sp=0x24000600 STACK=4016/7168\nidle          
IMU, 180155199, 0, -0.0002571253, -0.004236349, -0.001209579, -0.2193912, -0.2859804, -9.81678, 0, 0, 44.80676, 1, 1, 2022, 2022
IMU, 180155199, 1, -0.0007575505, -0.0007337746, -0.0009691837, -0.1594017, -0.4834484, -9.825945, 0, 0, 45, 1, 1, 1998, 2046
FILE, @SYS/threads.txt, 128, 64, PRI=  1 sp=0x240214B0 STACK=288/496\nUART_RX       PRI= 60 sp=0x2
SURF, 180165118, 0, 2, 0, 0, -0.05271606
SURF, 180165128, 1, 2, 0, 0, -0.05271606
FILE, @SYS/threads.txt, 192, 64, 407B0E8 STACK=880/1200\nOTG1          PRI= 60 sp=0x2407A1A0 STACK
FILE, @SYS/threads.txt, 256, 64, =480/752\nmonitor       PRI=183 sp=0x2401CE20 STACK=1096/1456\ntim
IMU, 180195149, 0, -0.0003484252, -0.00495365, -0.0003011912, -0.2152915, -0.2782958, -9.816854, 0, 0, 44.80676, 1, 1, 2022, 2022
IMU, 180195149, 1, -0.0004942745, 0.001271966, 0.001317363, -0.1431156, -0.4722218, -9.798343, 0, 0, 45, 1, 1, 1998, 2046
FILE, @SYS/threads.txt, 320, 64, er         PRI=181 sp=0x2401E3E0 STACK=1520/1968\nrcout         P
FILE, @SYS/threads.txt, 384, 64, RI=181 sp=0x2401DA00 STACK=680/944\nrcin          PRI=177 sp=0x24
POWR, 180215097, 4.973263, 5.040659, 1, 1, 6
MCU, 180215097, 43.02187, 3.348395, 3.341935, 3.353326
BAT, 180215123, 0, 15.29583, 15.61099, 1.229247, 72.04182, 1.107473, 0, 0.2563838, 97, 1, 0
MAG, 180215134, 0, -254, -196, 340, -382, 367, 647, 0, 0, 0, 1, 180215132
MAG, 180215134, 1, 30, -364, 166, 59, 22, -40, 0, 0, 0, 1, 180215131
SURF, 180215171, 0, 2, 0, 0, -0.05226311
SURF, 180215179, 1, 2, 0, 0, -0.05226311
BARO, 180215199, 0, -0.1306763, 639.1593, 93727.65, 44.11, 0.1893616, 180215, 0, 35, 1
CTUN, 180215211, 0, 0, 0, 0.4193364, 0, -0.04166073, -0.13, NaN, 0, 0.02154089, 0, 1
ATT, 180215335, -0.0001507366, 1.927915, 0.0003139304, -0.07686481, 140.1912, 140.1501, 3
ANG, 180214716, -0.0001507366, 1.92742, 0.0003139304, -0.07755712, 140.1912, 140.1912, 0.002499
RATE, 180214728, -8.67293, -0.004921296, -0.02036965, 0.3480735, 0.008151564, 0.000576377, -0.005827534, 0.02986495, -6.658174E-06, 0.5488396, -0.3264427, 0, 0
PIDR, 180215352, -0.1513784, -8.589283E-05, -0.1512925, -0.02042449, 0, 5.483075E-05, 0, 0, 1, 0.02077151, 9
PIDP, 180215356, 0.006069023, 0.0001422716, 0.005926752, 0.0008001115, 0, -0.0002237345, 0, 0, 1, 0.03140779, 9
PIDY, 180215360, -0.0001015491, 0.0005212417, -3.698985E-05, -6.658174E-06, 0, 0, 0, 0, 1, 0.001774426, 9
PIDA, 180215364, 0.5488396, 0.5488396, 0, 0, -419.3364, 0, 0, 0, 1, 0, 13
XKF4, 180214885, 0, 0.02, 0, 0, 0, 0, 0.006461614, 0.8079481, 1.113689, 0, 48, 107327, 0, 0
XKF1, 180214885, 0, 1.92, -0.07, 140.15, -0.01882423, 0.0002748085, -0.01036108, -0.03100556, 1.308856, -1.168354, 0.04166073, -0.02, -0.2, -0.02, 639.28
XKF2, 180214885, 0, 0, -0.01, -0.01, 0, 0, 290, -3, 328, 0, 0, 0, 0, 0, 0
XKF3, 180214885, 0, 0.01, 0.01, 0.05, 0, -0.06, 0, 0, 0, 0, -0.49, 0, 0, 0.0002524367
XKF5, 180214885, 0, 0, 0, 0, 0, 0.2, 0.22, 0, 0, 0.5, 8.226169E-05, 0.00520823, 0.007853043
XKFS, 180214885, 0, 0, 0, 0, 0, 0, 1, 0, 1
XKQ, 180214885, 0, 0.3405758, 0.01563179, 0.009828423, 0.9400358
XKF4, 180214885, 1, 0.02, 0, 0, 0, 0, 0.006515931, 0.8048393, 1.12718, 0, 48, 107327, 0, 0
XKF1, 180214885, 1, 3.15, 0.34, 138.85, -0.02238414, -0.001191702, -0.005747775, -0.03103556, 1.307558, -1.170395, 0.04527989, -0.02, 0, 0, 639.28
XKF2, 180214885, 1, 0, -0.01, -0.01, 0, 0, 291, -3, 328, 0, 0, 0, 0, 0, 0
XKF3, 180214885, 1, 0.01, 0.01, 0.06, 0, -0.06, 0, 0, 0, 0, -0.55, 0, 0.01625008, 0.0002800159
XKFS, 180214885, 1, 0, 0, 0, 0, 0, 1, 0, 1
XKQ, 180214885, 1, 0.351126, 0.01600758, 0.02095603, 0.9359568
AHR2, 180215435, 1.97, -0.1, 140.31, 639.18, 15.3695866, 75.1243691, 0.3393633, 0.006724422, 0.01591237, 0.9404968
POS, 180215441, 15.3695867, 75.1243685, 639.24, 0.02833926, -0.04166073
MOTB, 180215446, 1, 1, 1, 0.04193364, 0, 2
RCIN, 180215452, 1515, 1515, 1273, 1515, 1446, 1000, 1000, 875, 1000, 1000, 1000, 1000, 875, 875
RCI2, 180215455, 875, 875, 0, 1
RCOU, 180215462, 1000, 1000, 1000, 1000, 0, 0, 0, 0, 1000, 0, 0, 0, 0, 0
RCO2, 180215465, 0, 0, 0, 0
VIBE, 180215469, 0, 0.009060265, 0.007176086, 0.00970163, 0
VIBE, 180215469, 1, 0.059291, 0.05487618, 0.0690122, 0
CTRL, 180215478, 0.02040869, 7.539347E-05, 0.0008030619, 0.0001283049, 3.979726E-05
FILE, @SYS/threads.txt, 448, 64, 01D410 STACK=992/1456\nio            PRI= 58 sp=0x2401C430 STACK=
DCM, 180217331, 1.977384, -0.1049336, 140.3187, 0.02314412, 0.01183091, 0, 0, 0
EAHR, 180217349, 0, 0, 0, 0, 0, 0, 0, 0, 0, 0
STAK, 180223241, 4, 183, 1456, 1096, monitor
FILE, @SYS/threads.txt, 512, 64, 1576/2480\nstorage       PRI= 59 sp=0x2401DDF0 STACK=952/1456\nUAR
IMU, 180235394, 0, -0.0004670605, -0.00267026, 0.0001552818, -0.2223569, -0.2843235, -9.816749, 0, 0, 44.80676, 1, 1, 2022, 2022
IMU, 180235394, 1, 0.0005673849, -0.0004579704, -0.0004785359, -0.1269039, -0.5029014, -9.782701, 0, 0, 45, 1, 1, 1998, 2046
FILE, @SYS/threads.txt, 576, 64, T7         PRI= 60 sp=0x24078FF8 STACK=248/752\nUART5         PRI
FILE, @SYS/threads.txt, 640, 64, = 60 sp=0x240784B0 STACK=344/752\nUART1         PRI= 60 sp=0x2407
SURF, 180265132, 0, 2, 0, 0, -0.0517454
SURF, 180265143, 1, 2, 0, 0, -0.0517454
FILE, @SYS/threads.txt, 704, 64, 78E8 STACK=336/752\nUART8         PRI= 60 sp=0x24076D20 STACK=408
IMU, 180275399, 0, -4.437967E-05, -0.004298484, -0.001185233, -0.2189901, -0.2810058, -9.813919, 0, 0, 44.80676, 1, 1, 2022, 2022
IMU, 180275399, 1, -0.002217487, -0.001176977, -0.0004099422, -0.1537663, -0.4829065, -9.813125, 0, 0, 45, 1, 1, 1998, 2046
FILE, @SYS/threads.txt, 768, 64, /752\nOTG2          PRI= 60 sp=0x24075DD8 STACK=480/752\nUART6    
FILE, @SYS/threads.txt, 832, 64,      PRI=181 sp=0x24074F58 STACK=336/752\nIOMCU         PRI=183 s
FILE, @SYS/threads.txt, 896, 64, p=0x2406AB30 STACK=920/1456\nlog_io        PRI= 59 sp=0x2406B2C0 
FILE, @SYS/threads.txt, 960, 64, STACK=712/2016\nI2C1          PRI=176 sp=0x2406BBD0 STACK=984/145
POWR, 180315153, 4.972558, 5.047912, 1, 1, 6
MCU, 180315153, 42.98211, 3.348535, 3.340534, 3.354173
BAT, 180315166, 0, 15.31231, 15.62705, 1.227599, 72.07594, 1.107995, 0, 0.2563838, 97, 1, 0
MAG, 180315178, 0, -244, -196, 354, -382, 367, 647, 0, 0, 0, 1, 180315176
MAG, 180315178, 1, 31, -365, 169, 59, 22, -40, 0, 0, 0, 1, 180315175
SURF, 180315195, 0, 2, 0, 0, -0.05118112
SURF, 180315230, 1, 2, 0, 0, -0.05118112
BARO, 180315250, 0, -0.03662109, 639.2534, 93726.59, 44.11, 0.2729797, 180315, 0, 35, 1
CTUN, 180315284, 0, 0, 0, 0.4193364, 0, -0.03925248, -0.03, NaN, 0, 0.03154089, 0, 1
DU32, 180315296, 7, 6316536
TERR, 180315333, 2, 15.3695867, 75.1243685, 100, 639.2184, 0.03154089, 0, 336, -7.912766
ATT, 180315460, 0.08011898, 1.929481, 0.0001590996, -0.07853693, 140.1937, 140.1526, 3
ANG, 180314716, 0.08011898, 1.928984, 0.0001590996, -0.07923042, 140.1937, 140.1937, 0.0025
RATE, 180314731, -7.089472, 0.02562872, -0.01651396, 0.3560091, 0.006240471, 0.0007938741, -0.007947196, 0.03390116, -2.736314E-05, 0.5488396, 0.1682281, 0, 0
PIDR, 180315489, -0.1231909, 0.0004473056, -0.1236382, -0.01669116, 0, 0.0001771962, 0, 0, 1, 0.04030842, 9
PIDP, 180315493, 0.006204365, 0.0001089168, 0.006095449, 0.0008228856, 0, -2.901149E-05, 0, 0, 1, 0.03217814, 9
PIDY, 180315497, -0.0001396259, 0.0005916869, -0.0001520174, -2.736314E-05, 0, 0, 0, 0, 1, 0.001805641, 9
PIDA, 180315500, 0.5488396, 0.5488396, 0, 0, -419.3364, 0, 0, 0, 1, 0, 13
XKF4, 180314841, 0, 0.02, 0, 0.01, 0.01, 0, 0.006539725, 0.8079481, 1.113689, 0, 48, 107327, 0, 0
XKF1, 180314841, 0, 1.92, -0.07, 140.15, -0.02180931, -0.0007334946, -0.01147949, -0.02996714, 1.304667, -1.167138, 0.03925248, -0.02, -0.2, -0.02, 639.28
XKF2, 180314841, 0, 0, -0.01, -0.01, 0, 0, 290, -3, 328, 0, 0, 0, 0, 0, 0
XKF3, 180314841, 0, 0.01, 0.01, 0.05, 0, -0.06, -0.1, 0, 0, 0, -0.97, 0, 0, 0.0002524367
XKF5, 180314841, 0, 0, 0, 0, 0, 0.2, 0.22, 0, 0, 0.5, 0.0001034255, 0.002990129, 0.003539395
XKFS, 180314841, 0, 0, 0, 0, 0, 0, 1, 0, 1
XKQ, 180314841, 0, 0.3405548, 0.01564995, 0.009836629, 0.9400429
XKF4, 180314841, 1, 0.02, 0, 0, 0.01, 0, 0.006593602, 0.8048393, 1.12718, 0, 48, 107327, 0, 0
XKF1, 180314841, 1, 3.15, 0.34, 138.85, -0.02516751, -0.001634803, -0.006452831, -0.02707242, 1.303456, -1.169249, 0.04324378, -0.02, 0, 0, 639.28
XKF2, 180314841, 1, 0, -0.01, -0.01, 0, 0, 291, -3, 328, 0, 0, 0, 0, 0, 0
XKF3, 180314841, 1, 0.01, 0.01, 0.06, 0, -0.06, -0.1, 0, 0, 0, -1.05, 0, 0.01735322, 0.0002800159
XKFS, 180314841, 1, 0, 0, 0, 0, 0, 1, 0, 1
XKQ, 180314841, 1, 0.3510988, 0.01606382, 0.02093678, 0.9359665
AHR2, 180315573, 1.99, -0.07, 140.32, 639.08, 15.3695866, 75.1243691, 0.3393207, 0.006550539, 0.0161812, 0.9405088
POS, 180315579, 15.3695867, 75.1243685, 639.25, 0.03074752, -0.03925248
MOTB, 180315583, 1, 1, 1, 0.04193364, 0, 2
RCIN, 180315589, 1516, 1515, 1102, 1515, 1446, 1000, 1000, 875, 1000, 1000, 1000, 1000, 875, 875
RCI2, 180315593, 875, 875, 0, 1
RCOU, 180315599, 1000, 1000, 1000, 1000, 0, 0, 0, 0, 1000, 0, 0, 0, 0, 0
RCO2, 180315603, 0, 0, 0, 0
VIBE, 180315607, 0, 0.009114815, 0.008933315, 0.0103881, 0
VIBE, 180315607, 1, 0.05908745, 0.05339914, 0.07077336, 0
CTRL, 180315618, 0.01979898, 0.0008447521, 0.0008198523, 0.00014279, 3.645259E-05
IMU, 180315628, 0, 7.049187E-05, -0.003551379, 9.975542E-05, -0.2225634, -0.2836425, -9.81781, 0, 0, 44.80676, 1, 1, 2022, 2022
IMU, 180315628, 1, -0.000130536, -0.001684722, -0.0009862335, -0.1473331, -0.5006426, -9.798971, 0, 0, 45, 1, 1, 1998, 2046
UART, 180315711, 1, 3125, 183
UART, 180315715, 2, 46, 0
UART, 180315718, 3, 0, 654
UART, 180315737, 100, 8400, 5174
DCM, 180317390, 1.999414, -0.0762375, 140.3243, 0.02314412, 0.01107433, 0, 0, 0
EAHR, 180317410, 0, 0, 0, 0, 0, 0, 0, 0, 0, 0
STAK, 180323863, 5, 181, 1968, 1520, timer
FILE, @SYS/threads.txt, 1024, 64, 6\nI2C0          PRI=176 sp=0x2406C4A0 STACK=984/1456\nSPI1       
GPS, 180335500, 0, 3, 183684000, 2380, 16, 0.65, 15.3695866, 75.1243691, 641.52, 0.048, 51.61121, 0.021, 0, 1
GPA, 180335500, 0, 0.98, 1.15, 1.57, 0.39, 0, 1, 180316, 200, 563.51, 0, 0
FILE, @SYS/threads.txt, 1088, 40,    PRI=181 sp=0x24070FC0 STACK=832/1456\n
IMU, 180355171, 0, -0.0005593179, -0.005166096, -0.0007584501, -0.2197188, -0.2784604, -9.816528, 0, 0, 44.80676, 1, 1, 2022, 2022
IMU, 180355171, 1, -0.0002094997, 0.0001343295, 0.000166871, -0.1421534, -0.4920846, -9.818033, 0, 0, 45, 1, 1, 1998, 2046
FILE, @SYS/timers.txt, 0, 64, TIMERV1\nTIM5  CLK= 200Mhz MODE=  PWM FREQ=       7 TGT=       8\n
SURF, 180365061, 0, 2, 0, 0, -0.05059864
SURF, 180365098, 1, 2, 0, 0, -0.05059864
FILE, @SYS/timers.txt, 64, 64, TIM4  CLK= 200Mhz MODE=  PWM FREQ=       7 TGT=       8\nTIM1  CL
FILE, @SYS/timers.txt, 128, 48, K= 200Mhz MODE=  PWM FREQ=       7 TGT=       8\n
IMU, 180395199, 0, -0.0007466513, -0.002851615, 0.0003597443, -0.2221539, -0.2793529, -9.813381, 0, 0, 44.80676, 1, 1, 2022, 2022
IMU, 180395199, 1, -0.0001433706, 0.0009339664, 7.828859E-05, -0.1443311, -0.5051103, -9.832031, 0, 0, 45, 1, 1, 1998, 2046
FILE, @ROMFS/hwdef.dat, 0, 64, MCU STM32H7xx STM32H743xx\nOSCILLATOR_HZ 16000000\nSTM32_ST_USE_TI
POWR, 180415109, 4.970041, 5.043077, 1, 1, 6
MCU, 180415109, 42.98211, 3.348676, 3.341374, 3.354738
BAT, 180415125, 0, 15.30517, 15.62321, 1.237852, 72.11031, 1.108521, 0, 0.2569303, 97, 1, 0
MAG, 180415136, 0, -252, -194, 344, -382, 367, 647, 0, 0, 0, 1, 180415135
MAG, 180415136, 1, 30, -365, 166, 59, 22, -40, 0, 0, 0, 1, 180415134
SURF, 180415161, 0, 2, 0, 0, -0.050016
SURF, 180415170, 1, 2, 0, 0, -0.050016
BARO, 180415189, 0, -0.1306763, 639.1593, 93727.65, 44.11, 0.1636887, 180415, 0, 35, 1
CTUN, 180415215, 0, 0, 0, 0.4193364, 0, -0.03838936, -0.13, NaN, 0, 0.03154089, 0, 1
ATT, 180415302, 0.05078365, 1.928033, 7.316043E-05, -0.07927, 140.1969, 140.1558, 3
ANG, 180414716, 0.05078365, 1.927536, 7.316043E-05, -0.07996237, 140.1969, 140.1969, 0.0025
RATE, 180414728, -8.836075, 0.0117507, -0.02092106, 0.3596823, -0.00251427, 0.0009030101, -0.005689765, -0.002435706, -6.82492E-05, 0.5488396, -0.2678871, 0, 0
PIDR, 180415319, -0.1544217, 0.0002050883, -0.1546268, -0.02087462, 0, -4.644068E-05, 0, 0, 1, 0.1050743, 9
PIDP, 180415323, 0.006328679, -4.388229E-05, 0.006372561, 0.0008602957, 0, 4.271439E-05, 0, 0, 1, 0.03334996, 9
PIDY, 180415327, -9.884425E-05, -4.251109E-05, -0.0003791622, -6.82492E-05, 0, 0, 0, 0, 1, 0.001832586, 9
PIDA, 180415331, 0.5488396, 0.5488396, 0, 0, -419.3364, 0, 0, 0, 1, 0, 13
XKF4, 180414840, 0, 0.02, 0, 0, 0, 0, 0.006560924, 0.8079481, 1.113689, 0, 48, 107327, 0, 0
XKF1, 180414840, 0, 1.92, -0.07, 140.15, -0.0209591, -0.00412669, -0.01156629, -0.01158037, 1.303112, -1.166933, 0.03838936, -0.02, -0.2, -0.02, 639.28
XKF2, 180414840, 0, 0, -0.01, -0.01, 0, 0, 290, -3, 328, 0, 0, 0, 0, 0, 0
XKF3, 180414840, 0, -0.05, 0.03, -0.03, 0.01, -0.06, 0, 0, 0, 0, 0.27, 0, 0, 0.0003330979
XKF5, 180414840, 0, 0, 0, 0, 0, 0.19, 0.22, 0, 0, 0.5, 9.26722E-05, 0.008987397, 0.006566297
XKFS, 180414840, 0, 0, 0, 0, 0, 0, 1, 0, 1
XKQ, 180414840, 0, 0.3405283, 0.01565138, 0.009823016, 0.9400527
XKV1, 180414840, 0, 0.0002161201, 5.324279E-06, 5.357489E-06, 2.839996E-05, 0.03501519, 0.03503887, 0.01099424, 0.08432189, 0.08432233, 0.1216574, 3.962636E-11, 3.965644E-11
XKV2, 180414840, 0, 1.084439E-10, 4.076644E-06, 4.07672E-06, 5.616242E-08, 0, 0, 0, 0, 0, 0, 0, 0
XKF4, 180414840, 1, 0.02, 0, 0, 0, 0, 0.006613739, 0.8048393, 1.12718, 0, 48, 107327, 0, 0
XKF1, 180414840, 1, 3.15, 0.34, 138.85, -0.02310686, -0.004262377, -0.007480632, -0.009672437, 1.302414, -1.169061, 0.04259638, -0.02, 0, 0, 639.28
XKF2, 180414840, 1, 0, 0, -0.01, 0, 0, 291, -3, 328, 0, 0, 0, 0, 0, 0
XKF3, 180414840, 1, -0.05, 0.03, -0.02, 0.01, -0.06, 0, 0, 0, 0, 0.26, 0, 0.01787895, 0.0003287147
XKFS, 180414840, 1, 0, 0, 0, 0, 0, 1, 0, 1
XKQ, 180414840, 1, 0.351103, 0.01606645, 0.02094, 0.9359648
AHR2, 180415483, 1.98, -0.03, 140.31, 639.18, 15.3695866, 75.1243691, 0.3393812, 0.006212487, 0.01621171, 0.9404887
POS, 180415489, 15.3695867, 75.1243685, 639.25, 0.03161064, -0.03838936
MOTB, 180415494, 1, 1, 1, 0.04193364, 0, 2
RCIN, 180415500, 1515, 1515, 1102, 1515, 1446, 1000, 1000, 875, 1000, 1000, 1000, 1000, 875, 875
RCI2, 180415504, 875, 875, 0, 1
RCOU, 180415510, 1000, 1000, 1000, 1000, 0, 0, 0, 0, 1000, 0, 0, 0, 0, 0
RCO2, 180415513, 0, 0, 0, 0
VIBE, 180415518, 0, 0.008171026, 0.00843732, 0.01016474, 0
VIBE, 180415518, 1, 0.06030321, 0.05528358, 0.06726837, 0
CTRL, 180415526, 0.01990744, 0.001056051, 0.0008523224, 0.000144866, 4.155768E-05
DCM, 180417390, 1.988676, -0.0383601, 140.3173, 0.02647362, 0.01147435, 0, 0, 0
EAHR, 180417409, 0, 0, 0, 0, 0, 0, 0, 0, 0, 0
FILE, @ROMFS/hwdef.dat, 64, 64, MER 2\nUSB_VENDOR 0x3162\nUSB_PRODUCT 0x0053\nUSB_STRING_MANUFACTUR
STAK, 180423883, 6, 181, 944, 680, rcout
FILE, @ROMFS/hwdef.dat, 128, 64, ER "Holybro"\nAPJ_BOARD_ID 56\nFLASH_RESERVE_START_KB 128\nenv USE_
IMU, 180435380, 0, -0.0003412376, -0.004027371, -0.0005513479, -0.2218534, -0.2893961, -9.812261, 0, 0, 44.80676, 1, 1, 2022, 2022
IMU, 180435380, 1, -0.0001855448, -0.0006632908, -0.001610679, -0.141926, -0.505113, -9.798797, 0, 0, 45, 1, 1, 1998, 2046
FILE, @ROMFS/hwdef.dat, 192, 64, ALT_RAM_MAP 1\nFLASH_SIZE_KB 2048\nenv OPTIMIZE -O2\nSERIAL_ORDER O
FILE, @ROMFS/hwdef.dat, 256, 64, TG1 UART7 UART5 USART1 UART8 USART2 USART3 OTG2\nPA11 OTG_FS_DM O
SURF, 180465063, 0, 2, 0, 0, -0.04944827
SURF, 180465072, 1, 2, 0, 0, -0.04944827
FILE, @ROMFS/hwdef.dat, 320, 64, TG1\nPA12 OTG_FS_DP OTG1\nPA9 VBUS INPUT OPENDRAIN\nPA13 JTMS-SWDIO
FMT, 254, 35, IOMC, QHHIIIII, TimeUS,RSErr,Mem,TS,NPkt,Nerr,Nerr2,NDel
IOMC, 180472919, 0, 12896, 180492, 86503, 0, 0, 0
IMU, 180475345, 0, 0.000418517, -0.003554828, 0.0002592184, -0.220088, -0.2712245, -9.818796, 0, 0, 44.80676, 1, 1, 2022, 2022
IMU, 180475345, 1, -0.0001802232, 0.0003566208, 0.0008345472, -0.1652006, -0.486147, -9.813523, 0, 0, 45, 1, 1, 1998, 2046
FILE, @ROMFS/hwdef.dat, 384, 64,  SWD\nPA14 JTCK-SWCLK SWD\nPE8  UART7_TX UART7\nPE7  UART7_RX UART7
FILE, @ROMFS/hwdef.dat, 448, 64, \nPE9  UART7_RTS UART7 LOW PULLDOWN\nPE10 UART7_CTS UART7\nPC12 UAR
FILE, @ROMFS/hwdef.dat, 512, 64, T5_TX UART5\nPD2 UART5_RX UART5\nPC8 UART5_RTS UART5 LOW PULLDOWN\n
FILE, @ROMFS/hwdef.dat, 576, 64, PC9 UART5_CTS UART5\nPB6  USART1_TX USART1\nPA10 USART1_RX USART1\n
POWR, 180515163, 4.968027, 5.040659, 1, 1, 6
MCU, 180515163, 43.04175, 3.348535, 3.341795, 3.353467
BAT, 180515176, 0, 15.31442, 15.62691, 1.217347, 72.14415, 1.109039, 0, 0.2566997, 97, 1, 0
MAG, 180515188, 0, -251, -193, 339, -382, 367, 647, 0, 0, 0, 1, 180515187
MAG, 180515188, 1, 30, -364, 170, 59, 22, -40, 0, 0, 0, 1, 180515185
SURF, 180515209, 0, 2, 0, 0, -0.04889948
SURF, 180515217, 1, 2, 0, 0, -0.04889948
BARO, 180515294, 0, 0.03985596, 639.3298, 93725.73, 44.11, 0.05800248, 180515, 0, 35, 1
CTUN, 180515318, 0, 0, 0, 0.4193364, 0, -0.03839588, 0.03, NaN, 0, 0.03154089, 0, 1
ATT, 180515383, 0.02335593, 1.928327, 3.363954E-05, -0.0781729, 140.2004, 140.1592, 3
ANG, 180514716, 0.02335593, 1.927831, 3.363954E-05, -0.07886562, 140.2004, 140.2004, 0.0025
RATE, 180514728, -8.748754, -0.03510228, -0.02048154, 0.3775652, -0.01790135, 0.001067405, 0.6687769, 0.005606448, 0.001377575, 0.5488396, -0.3576279, 0, 0
PIDR, 180515400, -0.1528257, -0.0006126504, -0.1522131, -0.02054877, 0, 6.722887E-05, 0, 0, 1, 0.1596286, 9
PIDP, 180515404, 0.006576723, -0.0003124375, 0.006889161, 0.0009300367, 0, 0.0001373687, 0, 0, 1, 0.03430888, 9
PIDY, 180515407, 0.01167063, 9.785098E-05, 0.007653196, 0.001377575, 0, 0, 0, 0, 1, 0.003328915, 9
PIDA, 180515411, 0.5488396, 0.5488396, 0, 0, -419.3364, 0, 0, 0, 1, 0, 13
XKF4, 180514888, 0, 0.02, 0, 0, 0.01, 0, 0.006638796, 0.8079481, 1.113689, 0, 48, 107327, 0, 0
XKF1, 180514888, 0, 1.92, -0.07, 140.15, -0.01910787, -0.007454616, -0.01141653, 0.002802496, 1.302475, -1.167501, 0.03839588, -0.02, -0.2, -0.02, 639.28
XKF2, 180514888, 0, 0, -0.01, -0.01, 0, 0, 290, -3, 328, 0, 0, 0, 0, 0, 0
XKF3, 180514888, 0, -0.05, 0.03, -0.03, 0.01, -0.06, -0.1, 0, 0, 0, -0.94, 0, 0, 0.0003330979
XKF5, 180514888, 0, 0, 0, 0, 0, 0.19, 0.22, 0, 0, 0.5, 9.416934E-05, 0.006582046, 0.006932205
XKFS, 180514888, 0, 0, 0, 0, 0, 0, 1, 0, 1
XKQ, 180514888, 0, 0.3405005, 0.01564296, 0.009829158, 0.9400628
XKF4, 180514888, 1, 0.02, 0, 0, 0.01, 0, 0.006690888, 0.8048393, 1.12718, 0, 48, 107327, 0, 0
XKF1, 180514888, 1, 3.15, 0.34, 138.85, -0.020757, -0.007077399, -0.007199226, 0.004430515, 1.301892, -1.16953, 0.04277264, -0.02, 0, 0, 639.28
XKF2, 180514888, 1, 0, 0, -0.01, 0, 0, 291, -3, 328, 0, 0, 0, 0, 0, 0
XKF3, 180514888, 1, -0.05, 0.03, -0.02, 0.01, -0.06, -0.09, 0, 0, 0, -1, 0, 0.01787895, 0.0003287147
XKFS, 180514888, 1, 0, 0, 0, 0, 0, 1, 0, 1
XKQ, 180514888, 1, 0.3510714, 0.01604637, 0.02092892, 0.9359772
AHR2, 180515484, 1.97, 0, 140.32, 639.08, 15.3695866, 75.1243691, 0.3393351, 0.005824273, 0.01619745, 0.9405081
POS, 180515505, 15.3695867, 75.1243685, 639.25, 0.03160412, -0.03839588
MOTB, 180515522, 1, 1, 1, 0.04193364, 0, 2
RCIN, 180515528, 1515, 1515, 1102, 1590, 1446, 1000, 1000, 875, 1000, 1000, 1000, 1000, 875, 875
RCI2, 180515532, 875, 875, 0, 1
RCOU, 180515538, 1000, 1000, 1000, 1000, 0, 0, 0, 0, 1000, 0, 0, 0, 0, 0
RCO2, 180515542, 0, 0, 0, 0
VIBE, 180515564, 0, 0.008364781, 0.0109188, 0.01086258, 0
VIBE, 180515564, 1, 0.058119, 0.05574275, 0.06888354, 0
CTRL, 180515573, 0.02018561, 0.0008666936, 0.0008665387, 0.0001294205, 0.0004948015
IMU, 180515583, 0, -0.0009883858, -0.003974868, -0.000394641, -0.2232222, -0.2935588, -9.812221, 0, 0, 44.80676, 1, 1, 2022, 2022
IMU, 180515583, 1, -0.00184816, -0.001919769, -0.0005002745, -0.1315207, -0.5135419, -9.783695, 0, 0, 45, 1, 1, 1998, 2046
DCM, 180517387, 1.971982, 0.003157085, 140.3238, 0.02647362, 0.01183422, 0, 0, 0
EAHR, 180517405, 0, 0, 0, 0, 0, 0, 0, 0, 0, 0
FILE, @ROMFS/hwdef.dat, 640, 64, PE1 UART8_TX UART8\nPE0 UART8_RX UART8\nPD5 USART2_TX USART2\nPA3 U
STAK, 180524216, 7, 177, 1456, 992, rcin
FILE, @ROMFS/hwdef.dat, 704, 64, SART2_RX USART2\nPD8 USART3_TX USART3\nPD9 USART3_RX USART3\nPC6 US
GPS, 180535479, 0, 3, 183684200, 2380, 16, 0.65, 15.3695865, 75.1243691, 641.51, 0.071, 51.61121, -0.053, 0, 1
GPA, 180535479, 0, 0.98, 1.15, 1.57, 0.4, 0, 1, 180516, 200, 563.5, 0, 0
FILE, @ROMFS/hwdef.dat, 768, 64, ART6_TX USART6\nPC7 USART6_RX USART6\nIOMCU_UART USART6\nPC5 BATT_V
IMU, 180555297, 0, -0.0001143459, -0.004662568, -0.001853461, -0.2200066, -0.2709183, -9.813925, 0, 0, 44.80676, 1, 1, 2022, 2022
IMU, 180555297, 1, -0.0003701033, -0.001099232, -0.002265606, -0.1524167, -0.4735967, -9.799215, 0, 0, 45, 1, 1, 1998, 2046
FILE, @ROMFS/hwdef.dat, 832, 64, OLTAGE_SENS ADC1 SCALE(1)\nPC4 BATT_CURRENT_SENS ADC1 SCALE(1)\nPB
SURF, 180565067, 0, 2, 0, 0, -0.0483866
SURF, 180565077, 1, 2, 0, 0, -0.0483866
FILE, @ROMFS/hwdef.dat, 896, 64, 1 BATT2_VOLTAGE_SENS ADC1 SCALE(1)\nPA2 BATT2_CURRENT_SENS ADC1 S
FILE, @ROMFS/hwdef.dat, 960, 64, CALE(1)\ndefine HAL_BATT_VOLT_PIN 8\ndefine HAL_BATT_CURR_PIN 4\nde
FILE, @ROMFS/hwdef.dat, 1024, 64, fine HAL_BATT_VOLT_SCALE 18.18\ndefine HAL_BATT_CURR_SCALE 36.36\n
IMU, 180595181, 0, 8.626866E-07, -0.002970593, 1.328176E-06, -0.2198101, -0.2906992, -9.817169, 0, 0, 44.80676, 1, 1, 2022, 2022
IMU, 180595181, 1, -0.000344125, 0.0007622417, 0.001091023, -0.1403319, -0.5008749, -9.819732, 0, 0, 45, 1, 1, 1998, 2046
RAD, 180597906, 61, 0, 100, 94, 0, 0, 0
FILE, @ROMFS/hwdef.dat, 1088, 64, PA4 VDD_5V_SENS  ADC1 SCALE(2)\nPA5 SPI1_SCK SPI1\nPA6 SPI1_MISO S
POWR, 180615096, 4.971551, 5.043077, 1, 1, 6
MCU, 180615096, 43.02187, 3.348535, 3.341655, 3.356717
BAT, 180615110, 0, 15.30728, 15.62514, 1.236754, 72.17848, 1.109565, 0, 0.2570136, 97, 1, 0
MAG, 180615121, 0, -248, -194, 347, -382, 367, 647, 0, 0, 0, 1, 180615120
MAG, 180615121, 1, 29, -365, 166, 59, 22, -40, 0, 0, 0, 1, 180615119
SURF, 180615139, 0, 2, 0, 0, -0.04787723
SURF, 180615147, 1, 2, 0, 0, -0.04787723
BARO, 180615167, 0, -0.1043091, 639.1857, 93727.36, 44.12, 0.1011086, 180615, 0, 35, 1
CTUN, 180615206, 0, 0, 0, 0.4193364, 0, -0.03683876, -0.1, NaN, 0, 0.03215124, 0, 1
ATT, 180615281, 0.01074163, 1.929859, 1.547126E-05, -0.07915911, 140.2022, 140.161, 3
ANG, 180614716, 0.01074163, 1.929362, 1.547126E-05, -0.0798528, 140.2022, 140.2022, 0.0025
RATE, 180614728, -8.715108, 0.03708687, -0.02069681, 0.3820712, 0.00986426, 0.001007406, 0.6686268, 0.08988257, 0.001935122, 0.5488396, -0.4426003, 0, 0
PIDR, 180615300, -0.1521166, 0.000647288, -0.1527639, -0.02062313, 0, -7.367921E-05, 0, 0, 1, 0.204026, 9
PIDP, 180615304, 0.006659903, 0.0001721638, 0.006487739, 0.0008758448, 0, 0.0001315609, 0, 0, 1, 0.03559765, 9
PIDY, 180615308, 0.0116658, 0.001568747, 0.01075068, 0.001935122, 0, 0, 0, 0, 1, 0.005048688, 9
PIDA, 180615312, 0.5488396, 0.5488396, 0, 0, -419.3364, 0, 0, 0, 1, 0, 13
XKF4, 180614834, 0, 0.02, 0, 0, 0.01, 0, 0.006679854, 0.8079481, 1.113689, 0, 48, 107327, 0, 0
XKF1, 180614834, 0, 1.92, -0.07, 140.16, -0.02161504, -0.01051222, -0.01175354, -0.005574211, 1.299178, -1.167879, 0.03683876, -0.02, -0.2, -0.02, 639.28
XKF2, 180614834, 0, 0, -0.01, -0.01, 0, 0, 290, -3, 328, 0, 0, 0, 0, 0, 0
XKF3, 180614834, 0, 0.05, 0.01, 0.04, 0.01, -0.06, 0.06, 0, 0, 0, -0.96, 0, 0, 0.0003058673
XKF5, 180614834, 0, 0, 0, 0, 0, 0.2, 0.22, 0, 0, 0.5, 0.0001160323, 0.004958079, 0.003688508
XKFS, 180614834, 0, 0, 0, 0, 0, 0, 1, 0, 1
XKQ, 180614834, 0, 0.3404853, 0.01565545, 0.009839039, 0.940068
XKF4, 180614834, 1, 0.02, 0, 0, 0.01, 0, 0.006730385, 0.8048393, 1.12718, 0, 48, 107327, 0, 0
XKF1, 180614834, 1, 3.14, 0.34, 138.85, -0.02316367, -0.009820422, -0.008155495, -0.008098992, 1.298317, -1.169669, 0.04093681, -0.02, 0, 0, 639.28
XKF2, 180614834, 1, 0, -0.01, -0.01, 0, 0, 291, -3, 328, 0, 0, 0, 0, 0, 0
XKF3, 180614834, 1, 0.05, 0.01, 0.04, 0.01, -0.06, 0.07, 0, 0, 0, -1.04, 0, 0.01821561, 0.0003178914
XKFS, 180614834, 1, 0, 0, 0, 0, 0, 1, 0, 1
XKQ, 180614834, 1, 0.3510501, 0.01604115, 0.02092005, 0.9359855
AHR2, 180615449, 1.99, -0.02, 140.32, 639.25, 15.3695864, 75.1243691, 0.3392968, 0.006123324, 0.01626042, 0.9405189
POS, 180615455, 15.3695866, 75.1243685, 639.25, 0.03316125, -0.03683876
MOTB, 180615460, 1, 1, 1, 0.04193364, 0, 2
RCIN, 180615466, 1515, 1515, 1102, 1621, 1446, 1000, 1000, 875, 1000, 1000, 1000, 1000, 875, 875
RCI2, 180615470, 875, 875, 0, 1
RCOU, 180615476, 1000, 1000, 1000, 1000, 0, 0, 0, 0, 1000, 0, 0, 0, 0, 0
RCO2, 180615480, 0, 0, 0, 0
VIBE, 180615484, 0, 0.007647621, 0.01097658, 0.01166216, 0
VIBE, 180615484, 1, 0.06144737, 0.05540229, 0.06400439, 0
CTRL, 180615492, 0.02031498, 0.0007099305, 0.0008903628, 0.0001369787, 0.001124026
FILE, @ROMFS/hwdef.dat, 1152, 64, PI1\nPA7 SPI1_MOSI SPI1\nPC13 ICM42688_CS CS\nPC14 BMI055_G_CS CS\nP
DCM, 180617386, 1.991679, -0.02967869, 140.3282, 0.03108157, 0.01018713, 0, 0, 0
EAHR, 180617405, 0, 0, 0, 0, 0, 0, 0, 0, 0, 0
STAK, 180625417, 8, 58, 2480, 1576, io
FILE, @ROMFS/hwdef.dat, 1216, 64, C15 BMI055_A_CS CS\nPE4  BMI055_DRDY_A INPUT\nPE5  BMI055_DRDY_G I
IMU, 180635408, 0, 0.0002323105, -0.004811282, -0.0001625706, -0.2212113, -0.2835518, -9.812085, 0, 0, 44.80676, 1, 1, 2022, 2022
IMU, 180635408, 1, -3.818457E-05, 0.002047203, -0.0009498773, -0.1428505, -0.4927138, -9.811832, 0, 0, 45, 1, 1, 1998, 2046
FILE, @ROMFS/hwdef.dat, 1280, 64, NPUT\nPE6  ICM42688_DRDY INPUT\nPD3 SPI2_SCK SPI2\nPC2 SPI2_MISO SP
FILE, @ROMFS/hwdef.dat, 1344, 64, I2\nPC3 SPI2_MOSI SPI2\nPD4 FRAM_CS CS\nPA8  TIM1_CH1 TIM1 PWM(1) G
FILE, @ROMFS/hwdef.dat, 1408, 64, PIO(50)\nPE11 TIM1_CH2 TIM1 PWM(2) GPIO(51)\nPE13 TIM1_CH3 TIM1 PW
SURF, 180665062, 0, 2, 0, 0, -0.04733822
SURF, 180665073, 1, 2, 0, 0, -0.04733822
FILE, @ROMFS/hwdef.dat, 1472, 64, M(3) GPIO(52)\nPE14 TIM1_CH4 TIM1 PWM(4) GPIO(53)\nPD14 TIM4_CH3 T
IMU, 180675438, 0, -0.0005174139, -0.004334179, -0.002690473, -0.2190919, -0.2923081, -9.813672, 0, 0, 44.80676, 1, 1, 2022, 2022
IMU, 180675438, 1, -0.001866484, 0.001194596, -0.001457663, -0.1449381, -0.489878, -9.796867, 0, 0, 45, 1, 1, 1998, 2046
FILE, @ROMFS/hwdef.dat, 1536, 64, IM4 PWM(5) GPIO(54)\nPD15 TIM4_CH4 TIM4 PWM(6) GPIO(55)\nPA0  TIM5
FILE, @ROMFS/hwdef.dat, 1600, 64, _CH1 TIM5 PWM(7) GPIO(56)\nPA1  TIM5_CH2 TIM5 PWM(8) GPIO(57)\nPD0
FILE, @ROMFS/hwdef.dat, 1664, 64,   CAN1_RX CAN1\nPD1  CAN1_TX CAN1\nPB5  CAN2_RX CAN2\nPB13 CAN2_TX 
POWR, 180715134, 4.971954, 5.038241, 1, 1, 6
MCU, 180715134, 42.98211, 3.348395, 3.340954, 3.355444
BAT, 180715147, 0, 15.31808, 15.63476, 1.230895, 72.21269, 1.110089, 0, 0.2572775, 97, 1, 0
