FMT, 128, 89, FMT, BBnNZ, Type,Length,Name,Format,Columns
FMT, 119, 76, UNIT, QbZ, TimeUS,Id,Label
FMT, 118, 44, FMTU, QBNN, TimeUS,FmtType,UnitIds,MultIds
FMT, 120, 20, MULT, Qbd, TimeUS,Id,Mult
FMT, 32, 35, PARM, QNff, TimeUS,Name,Value,Default
FMT, 94, 51, GPS, QBBIHBcLLeffffB, TimeUS,I,Status,GMS,GWk,NSats,HDop,Lat,Lng,Alt,Spd,GCrs,VZ,Yaw,U
FMT, 95, 39, GPA, QBCCCCfBIHeHH, TimeUS,I,VDop,HAcc,VAcc,SAcc,YAcc,VV,SMS,Delta,AEl,RTCMFU,RTCMFD
FMT, 99, 22, UBX1, QBHBBHI, TimeUS,Instance,noisePerMS,jamInd,aPower,agcCnt,config
FMT, 100, 16, UBX2, QBbBbB, TimeUS,Instance,ofsI,magI,ofsQ,magQ
FMT, 96, 42, GRAW, QIHBBddfBbB, TimeUS,WkMS,Week,numSV,sv,cpMes,prMes,doMes,mesQI,cno,lli
FMT, 97, 24, GRXH, QdHbBB, TimeUS,rcvTime,week,leapS,numMeas,recStat
FMT, 98, 41, GRXS, QddfBBBHBBBBB, TimeUS,prMes,cpMes,doMes,gnss,sv,freq,lock,cno,prD,cpD,doD,trk
FMT, 101, 23, SBPH, QIII, TimeUS,CrcError,LastInject,IARhyp
FMT, 102, 67, SBRH, QQQQQQQQ, TimeUS,msg_flag,1,2,3,4,5,6
FMT, 103, 123, SBRM, QQQQQQQQQQQQQQQ, TimeUS,msg_flag,1,2,3,4,5,6,7,8,9,10,11,12,13
FMT, 104, 23, SBRE, QHIiBB, TimeUS,GWk,GMS,ns_residual,level,quality
FMT, 59, 75, MSG, QZ, TimeUS,Message
FMT, 60, 39, RCIN, QHHHHHHHHHHHHHH, TimeUS,C1,C2,C3,C4,C5,C6,C7,C8,C9,C10,C11,C12,C13,C14
FMT, 61, 18, RCI2, QHHHB, TimeUS,C15,C16,OMask,Flags
FMT, 62, 39, RCOU, QHHHHHHHHHHHHHH, TimeUS,C1,C2,C3,C4,C5,C6,C7,C8,C9,C10,C11,C12,C13,C14
FMT, 207, 19, RCO2, QHHHH, TimeUS,C15,C16,C17,C18
FMT, 208, 39, RCO3, QHHHHHHHHHHHHHH, TimeUS,C19,C20,C21,C22,C23,C24,C25,C26,C27,C28,C29,C30,C31,C32
FMT, 63, 19, RSSI, Qff, TimeUS,RXRSSI,RXLQ
FMT, 64, 43, BARO, QBfffcfIffB, TimeUS,I,Alt,AltAMSL,Press,Temp,CRt,SMS,Offset,GndTemp,Health
FMT, 65, 24, BARD, QBfff, TimeUS,I,DynPrX,DynPrY,DynPrZ
FMT, 66, 25, CANF, QBIBBBBBBBBB, TimeUS,Bus,Id,DLC,B0,B1,B2,B3,B4,B5,B6,B7
FMT, 67, 81, CAFD, QBIBQQQQQQQQ, TimeUS,Bus,Id,DLC,D0,D1,D2,D3,D4,D5,D6,D7
FMT, 196, 50, PL, QBBfffffffIIB, TimeUS,Heal,TAcq,pX,pY,vX,vY,mX,mY,mZ,LastMeasMS,EKFOutl,Est
FMT, 68, 24, POWR, QffHHB, TimeUS,Vcc,VServo,Flags,AccFlags,Safety
FMT, 69, 27, MCU, Qffff, TimeUS,MTemp,MVolt,MVmin,MVmax
FMT, 93, 46, CMD, QHHHffffLLfB, TimeUS,CTot,CNum,CId,Prm1,Prm2,Prm3,Prm4,Lat,Lng,Alt,Frame
FMT, 92, 46, MISE, QHHHffffLLfB, TimeUS,CTot,CNum,CId,Prm1,Prm2,Prm3,Prm4,Lat,Lng,Alt,Frame
FMT, 78, 48, MAVC, QBBBBBHffffiifBB, TimeUS,TS,TC,SS,SC,Fr,Cmd,P1,P2,P3,P4,X,Y,Z,Res,WL
FMT, 79, 20, RAD, QBBBBBHH, TimeUS,RSSI,RemRSSI,TxBuf,Noise,RemNoise,RxErrors,Fixed
FMT, 81, 46, CAM, QBHIHLLeeeccC, TimeUS,I,Img,GPSTime,GPSWeek,Lat,Lng,Alt,RelAlt,GPSAlt,R,P,Y
FMT, 82, 46, TRIG, QBHIHLLeeeccC, TimeUS,I,Img,GPSTime,GPSWeek,Lat,Lng,Alt,RelAlt,GPSAlt,R,P,Y
FMT, 83, 48, MNT, QBfffffffff, TimeUS,I,DRoll,Roll,DPitch,Pitch,DYawB,YawB,DYawE,YawE,Dist
FMT, 114, 41, ARSP, QBffcffBBffB, TimeUS,I,Airspeed,DiffPress,Temp,RawPress,Offset,U,H,Hp,TR,Pri
FMT, 88, 41, BAT, QBfffffcfBBB, TimeUS,Inst,Volt,VoltR,Curr,CurrTot,EnrgTot,Temp,Res,RemPct,H,SH
FMT, 89, 40, BCL, QBfHHHHHHHHHHHH, TimeUS,Instance,Volt,V1,V2,V3,V4,V5,V6,V7,V8,V9,V10,V11,V12
FMT, 113, 35, MAG, QBhhhhhhhhhBI, TimeUS,I,MagX,MagY,MagZ,OfsX,OfsY,OfsZ,MOX,MOY,MOZ,Health,S
FMT, 122, 14, MODE, QMBB, TimeUS,Mode,ModeNum,Rsn
FMT, 116, 17, RFND, QBCBBb, TimeUS,Instance,Dist,Stat,Orient,Quality
FMT, 117, 36, DMS, QIIIIBBBBBBBBB, TimeUS,N,Dp,RT,RS,Fa,Fmn,Fmx,Pa,Pmn,Pmx,Sa,Smn,Smx
FMT, 174, 41, BCN, QBBfffffff, TimeUS,Health,Cnt,D0,D1,D2,D3,PosX,PosY,PosZ
FMT, 175, 57, PRX, QBBfffffffffff, TimeUS,Layer,He,D0,D45,D90,D135,D180,D225,D270,D315,DUp,CAn,CDis
FMT, 176, 44, PRXR, QBffffffff, TimeUS,Layer,D0,D45,D90,D135,D180,D225,D270,D315
FMT, 179, 61, PM, QHHHIIHHIIIIIIQ, TimeUS,LR,NLon,NL,MaxT,Mem,Load,ErrL,InE,ErC,SPIC,I2CC,I2CI,Ex,R
FMT, 178, 29, SRTL, QBHHBfff, TimeUS,Active,NumPts,MaxPts,Action,N,E,D
FMT, 170, 48, OABR, QBBHHHBfLLiLLi, TimeUS,Type,Act,DYaw,Yaw,DP,RChg,Mar,DLt,DLg,DAlt,OLt,OLg,OAlt
FMT, 171, 31, OADJ, QBBBBLLLL, TimeUS,State,Err,CurrPoint,TotPoints,DLat,DLng,OALat,OALng
FMT, 172, 37, SA, QBffffffB, TimeUS,State,DVelX,DVelY,DVelZ,MVelX,MVelY,MVelZ,Back
FMT, 173, 21, OAVG, QBBLL, TimeUS,version,point_num,Lat,Lon
FMT, 77, 45, SIM, QccCfLLffff, TimeUS,Roll,Pitch,Yaw,Alt,Lat,Lng,Q1,Q2,Q3,Q4
FMT, 84, 38, TERR, QBLLHffHHf, TimeUS,Status,Lat,Lng,Spacing,TerrH,CHeight,Pending,Loaded,ROfs
FMT, 86, 40, ESC, QBffffcfcf, TimeUS,Instance,RPM,RawRPM,Volt,Curr,Temp,CTot,MotTemp,Err
FMT, 87, 15, EDT2, QBBBB, TimeUS,Instance,Stress,MaxStress,Status
FMT, 85, 46, CSRV, QBfffBfffffB, TimeUS,Id,Pos,Force,Speed,Pow,PosCmd,V,A,MotT,PCBT,Err
FMT, 105, 52, PIDR, QffffffffffB, TimeUS,Tar,Act,Err,P,I,D,FF,DFF,Dmod,SRate,Flags
FMT, 106, 52, PIDP, QffffffffffB, TimeUS,Tar,Act,Err,P,I,D,FF,DFF,Dmod,SRate,Flags
FMT, 107, 52, PIDY, QffffffffffB, TimeUS,Tar,Act,Err,P,I,D,FF,DFF,Dmod,SRate,Flags
FMT, 108, 52, PIDA, QffffffffffB, TimeUS,Tar,Act,Err,P,I,D,FF,DFF,Dmod,SRate,Flags
FMT, 109, 52, PIDS, QffffffffffB, TimeUS,Tar,Act,Err,P,I,D,FF,DFF,Dmod,SRate,Flags
FMT, 110, 52, PIDN, QffffffffffB, TimeUS,Tar,Act,Err,P,I,D,FF,DFF,Dmod,SRate,Flags
FMT, 111, 52, PIDE, QffffffffffB, TimeUS,Tar,Act,Err,P,I,D,FF,DFF,Dmod,SRate,Flags
FMT, 112, 56, DSTL, QBfLLeccfeffff, TimeUS,Stg,THdg,Lat,Lng,Alt,XT,Travel,L1I,Loiter,Des,P,I,D
FMT, 161, 32, ACC, QBQfff, TimeUS,I,SampleUS,AccX,AccY,AccZ
FMT, 162, 32, GYR, QBQfff, TimeUS,I,SampleUS,GyrX,GyrY,GyrZ
FMT, 163, 54, IMU, QBffffffIIfBBHH, TimeUS,I,GyrX,GyrY,GyrZ,AccX,AccY,AccZ,EG,EA,T,GH,AH,GHz,AHz
FMT, 166, 28, VIBE, QBfffI, TimeUS,IMU,VibeX,VibeY,VibeZ,Clip
FMT, 164, 31, ISBH, QHBBHHQf, TimeUS,N,type,instance,mul,smp_cnt,SampleUS,smp_rate
FMT, 165, 207, ISBD, QHHaaa, TimeUS,N,seqno,x,y,z
FMT, 129, 15, RFRH, QI, TimeUS,TF
FMT, 130, 5, RFRF, BB, FTypes,Slow
FMT, 138, 38, RFRN, IIIfIfffBBB, HLat,HLon,HAlt,E2T,AM,TX,TY,TZ,VC,EKT,Flags
FMT, 131, 4, REV2, B, Event
FMT, 132, 15, RSO2, III, Lat,Lon,Alt
FMT, 133, 11, RWA2, ff, Airspeed,uncertainty
FMT, 134, 4, REV3, B, Event
FMT, 135, 15, RSO3, III, Lat,Lon,Alt
FMT, 136, 11, RWA3, ff, Airspeed,Uncertainty
FMT, 137, 16, REY3, ffIB, yawangle,yawangleerr,timestamp_ms,type
FMT, 139, 13, RISH, HBBfBB, LR,PG,PA,LD,AC,GC
FMT, 140, 37, RISI, ffffffffBB, DVX,DVY,DVZ,DAX,DAY,DAZ,DVDT,DADT,Flags,I
FMT, 148, 5, RASH, BB, Primary,NumInst
FMT, 149, 14, RASI, fIBBB, pd,UpdateMS,H,Use,I
FMT, 141, 5, RBRH, BB, Primary,NumInst
FMT, 142, 13, RBRI, IfBB, LastUpdate,Alt,H,I
FMT, 143, 8, RRNH, hhB, GCl,MaxD,NumSensors
FMT, 144, 20, RRNI, fffHBBB, PX,PY,PZ,Dist,Orient,Status,I
FMT, 145, 5, RGPH, BB, NumInst,Primary
FMT, 146, 23, RGPI, ffffBBBB, OX,OY,OZ,Lg,Flags,Stat,NSats,I
FMT, 147, 58, RGPJ, IffffffIiiiffHB, TS,VX,VY,VZ,SA,Y,YA,YT,Lat,Lon,Alt,HA,VA,HD,I
FMT, 153, 14, RMGH, fBBBBBBB, Dec,Avail,NumInst,AutoDec,NumEna,LOE,C,FUsable
FMT, 154, 35, RMGI, IffffffBBBB, LU,OX,OY,OZ,FX,FY,FZ,UFY,H,HSF,I
FMT, 150, 33, RBCH, ffffiiiBB, PX,PY,PZ,AE,OLat,OLng,OAlt,Flags,NumInst
FMT, 151, 25, RBCI, IffffBB, LU,PX,PY,PZ,Dist,H,I
FMT, 152, 21, RVOH, fffIBB, OX,OY,OZ,Del,H,Ena
FMT, 155, 40, ROFH, ffffIffffB, FX,FY,GX,GY,Tms,PX,PY,PZ,HgtOvr,Qual
FMT, 156, 49, REPH, fffffffffIIH, PX,PY,PZ,Q1,Q2,Q3,Q4,PEr,AEr,TS,RT,D
FMT, 157, 19, RSLL, IIfI, Lat,Lng,PosAccSD,TS
FMT, 158, 25, REVH, ffffIH, VX,VY,VZ,Er,TS,D
FMT, 159, 31, RWOH, ffIffff, DA,DT,TS,PX,PY,PZ,R
FMT, 160, 53, RBOH, ffffffffIfffH, Q,DPX,DPY,DPZ,DAX,DAY,DAZ,DT,TS,OX,OY,OZ,D
FMT, 43, 37, XKF0, QBBccCCcccccccc, TimeUS,C,ID,rng,innov,SIV,TR,BPN,BPE,BPD,OFH,OFL,OFN,OFE,OFD
FMT, 44, 56, XKF1, QBccCfffffffccce, TimeUS,C,Roll,Pitch,Yaw,VN,VE,VD,dPD,PN,PE,PD,GX,GY,GZ,OH
FMT, 45, 46, XKF2, QBccccchhhhhhfff, TimeUS,C,AX,AY,AZ,VWN,VWE,MN,ME,MD,MX,MY,MZ,IDX,IDY,IS
FMT, 46, 42, XKF3, QBcccccchhhccff, TimeUS,C,IVN,IVE,IVD,IPN,IPE,IPD,IMX,IMY,IMZ,IYAW,IVT,RErr,ErSc
FMT, 47, 44, XKF4, QBcccccfffHBIHb, TimeUS,C,SV,SP,SH,SM,SVT,errRP,OFN,OFE,FS,TS,SS,GPS,PI
FMT, 48, 41, XKF5, QBBhhhcccCCfff, TimeUS,C,NI,FIX,FIY,AFI,HAGL,offset,RI,rng,Herr,eAng,eVel,ePos
FMT, 49, 36, XKFD, QBffffff, TimeUS,C,IX,IY,IZ,IVX,IVY,IVZ
FMT, 50, 29, XKFM, QBBffff, TimeUS,C,OGNM,GLR,ALR,GDR,ADR
FMT, 51, 20, XKFS, QBBBBBBBBB, TimeUS,C,MI,BI,GI,AI,SS,GPS_GTA,GPS_CHK_WAIT,MAG_FUSION
FMT, 52, 28, XKQ, QBffff, TimeUS,C,Q1,Q2,Q3,Q4
FMT, 53, 48, XKT, QBIffffffff, TimeUS,C,Cnt,IMUMin,IMUMax,EKFMin,EKFMax,AngMin,AngMax,VMin,VMax
FMT, 54, 20, XKTV, QBff, TimeUS,C,TVS,TVD
FMT, 55, 60, XKV1, QBffffffffffff, TimeUS,C,V00,V01,V02,V03,V04,V05,V06,V07,V08,V09,V10,V11
FMT, 56, 60, XKV2, QBffffffffffff, TimeUS,C,V12,V13,V14,V15,V16,V17,V18,V19,V20,V21,V22,V23
FMT, 57, 60, XKY0, QBffffffffffff, TimeUS,C,YC,YCS,Y0,Y1,Y2,Y3,Y4,W0,W1,W2,W3,W4
FMT, 58, 52, XKY1, QBffffffffff, TimeUS,C,IVN0,IVN1,IVN2,IVN3,IVN4,IVE0,IVE1,IVE2,IVE3,IVE4
FMT, 41, 60, NKY0, QBffffffffffff, TimeUS,C,YC,YCS,Y0,Y1,Y2,Y3,Y4,W0,W1,W2,W3,W4
FMT, 42, 52, NKY1, QBffffffffff, TimeUS,C,IVN0,IVN1,IVN2,IVN3,IVN4,IVE0,IVE1,IVE2,IVE3,IVE4
FMT, 70, 45, AHR2, QccCfLLffff, TimeUS,Roll,Pitch,Yaw,Alt,Lat,Lng,Q1,Q2,Q3,Q4
FMT, 71, 19, AOA, Qff, TimeUS,AOA,SSA
FMT, 72, 36, ATT, QffffffB, TimeUS,DesRoll,Roll,DesPitch,Pitch,DesYaw,Yaw,AEKF
FMT, 73, 24, ORGN, QBLLe, TimeUS,Type,Lat,Lng,Alt
FMT, 74, 31, POS, QLLfff, TimeUS,Lat,Lng,Alt,RelHomeAlt,RelOriginAlt
FMT, 76, 35, ATSC, Qffffff, TimeUS,AngPScX,AngPScY,AngPScZ,PDScX,PDScY,PDScZ
FMT, 204, 51, VSTB, Qffffffffff, TimeUS,GyrX,GyrY,GyrZ,AccX,AccY,AccZ,Q1,Q2,Q3,Q4
FMT, 90, 38, MON, QIbIHHHHHII, TimeUS,Dly,Tsk,IErr,IErrCnt,IErrLn,MM,MC,SmLn,SPICnt,I2CCnt
FMT, 91, 47, WDOG, QbIHHHHHHHIBIIn, TimeUS,Tsk,IE,IEC,IEL,MvMsg,MvCmd,SmLn,FL,FT,FA,FP,ICSR,LR,TN
FMT, 210, 20, UART, QBff, TimeUS,I,Tx,Rx
FMT, 115, 21, RPM, QBffB, TimeUS,I,RPM,Qual,H
FMT, 209, 27, FNCE, QBBBLLBf, TimeUS,Tot,Seq,Type,Lat,Lng,Count,Radius
FMT, 177, 33, DSF, QIHIIII, TimeUS,Dp,Blk,Bytes,FMn,FMx,FAv
FMT, 121, 24, RALY, QBBLLhB, TimeUS,Tot,Seq,Lat,Lng,Alt,Flags
FMT, 183, 23, MAV, QBHHHBHH, TimeUS,chan,txp,rxp,rxdp,flags,ss,tf
FMT, 167, 43, VISO, Qffffffff, TimeUS,dt,AngDX,AngDY,AngDZ,PosDX,PosDY,PosDZ,conf
FMT, 168, 58, VISP, QQIffffffffBBb, TimeUS,RTimeUS,CTimeMS,PX,PY,PZ,R,P,Y,PErr,AErr,Rst,Ign,Q
FMT, 169, 42, VISV, QQIffffBBb, TimeUS,RTimeUS,CTimeMS,VX,VY,VZ,VErr,Rst,Ign,Q
RAD, 53708467, 61, 0, 100, 96, 0, 0, 0
FMT, 180, 28, OF, QBffff, TimeUS,Qual,flowX,flowY,bodyX,bodyY
FMT, 182, 21, WENC, Qfbfb, TimeUS,Dist0,Qual0,Dist1,Qual1
FMT, 185, 35, ADSB, QIiiiHHhH, TimeUS,ICAO_address,Lat,Lng,Alt,Heading,Hor_vel,Ver_vel,Squark
FMT, 181, 12, EV, QB, TimeUS,Id
FMT, 186, 18, ARM, QBIBB, TimeUS,ArmState,ArmChecks,Forced,Method
FMT, 184, 13, ERR, QBB, TimeUS,Subsys,ECode
FMT, 187, 35, WINC, QBBBBBfffHfb, TimeUS,Heal,ThEnd,Mov,Clut,Mode,DLen,Len,DRate,Tens,Vcc,Temp
FMT, 188, 47, PSCN, Qfffffffff, TimeUS,DPN,TPN,PN,DVN,TVN,VN,DAN,TAN,AN
FMT, 189, 47, PSCE, Qfffffffff, TimeUS,DPE,TPE,PE,DVE,TVE,VE,DAE,TAE,AE
FMT, 190, 47, PSCD, Qfffffffff, TimeUS,DPD,TPD,PD,DVD,TVD,VD,DAD,TAD,AD
FMT, 191, 35, PSON, Qffffff, TimeUS,TPON,PON,TVON,VON,TAON,AON
FMT, 192, 35, PSOE, Qffffff, TimeUS,TPOE,POE,TVOE,VOE,TAOE,AOE
FMT, 193, 35, PSOD, Qffffff, TimeUS,TPOD,POD,TVOD,VOD,TAOD,AOD
FMT, 194, 35, PSOT, Qffffff, TimeUS,TPOT,POT,TVOT,VOT,TAOT,AOT
FMT, 75, 63, RATE, Qfffffffffffff, TimeUS,RDes,R,ROut,PDes,P,POut,YDes,Y,YOut,ADes,A,AOut,AOutSlew
FMT, 195, 39, ANG, Qfffffff, TimeUS,DesRoll,Roll,DesPitch,Pitch,DesYaw,Yaw,Dt
FMT, 201, 33, STAK, QBBHHN, TimeUS,Id,Pri,Total,Free,Name
FMT, 202, 88, FILE, NIBZ, FileName,Offset,Length,Data
FMT, 197, 78, AISR, QBBBZ, TimeUS,num,total,ID,payload
FMT, 198, 41, AIS1, QBBIBbHbLLHHBBbI, US,typ,rep,mmsi,nav,rot,sog,pos,lon,lat,cog,hed,sec,man,raim,rad
FMT, 199, 38, AIS4, QBIHBBBBBBLLBBI, US,rep,mmsi,year,mth,day,h,m,s,fix,lon,lat,epfd,raim,rad
FMT, 200, 175, AIS5, QBIBINZBHHBBBBZB, US,rep,mmsi,ver,imo,cal,nam,typ,bow,stn,prt,str,fix,dght,dst,dte
FMT, 203, 39, SCR, QNIii, TimeUS,Name,Runtime,Total_mem,Run_mem
FMT, 206, 90, VER, QBHBBBBIZHBB, TimeUS,BT,BST,Maj,Min,Pat,FWT,GH,FWS,APJ,BU,FV
FMT, 205, 32, MOTB, QfffffB, TimeUS,LiftMax,BatVolt,ThLimit,ThrAvMx,ThrOut,FailFlags
FMT, 6, 24, PTUN, QBfff, TimeUS,Param,TunVal,TunMin,TunMax
FMT, 0, 55, CTUN, Qffffffefffhh, TimeUS,ThI,ABst,ThO,ThH,DAlt,Alt,BAlt,DSAlt,SAlt,TAlt,DCRt,CRt
FMT, 1, 14, D16, QBh, TimeUS,Id,Value
FMT, 2, 14, DU16, QBH, TimeUS,Id,Value
FMT, 3, 16, D32, QBi, TimeUS,Id,Value
FMT, 4, 16, DU32, QBI, TimeUS,Id,Value
FMT, 5, 16, DFLT, QBf, TimeUS,Id,Value
FMT, 9, 47, SIDD, Qfffffffff, TimeUS,Time,Targ,F,Gx,Gy,Gz,Ax,Ay,Az
FMT, 10, 40, SIDS, QBfffffff, TimeUS,Ax,Mag,FSt,FSp,TFin,TC,TR,TFout
FMT, 8, 49, GUIP, QBfffbffffff, TimeUS,Type,pX,pY,pZ,Terrain,vX,vY,vZ,aX,aY,aZ
FMT, 11, 44, GUIA, QBffffffff, TimeUS,Type,Roll,Pitch,Yaw,RollRt,PitchRt,YawRt,Thrust,ClimbRt
FMT, 249, 25, SURF, QBBfff, TimeUS,I,St,D,FD,TO
SURF, 53729039, 0, 2, 0, 0, 0.1092601
SURF, 53729067, 1, 2, 0, 0, 0.1092601
IMU, 53738469, 0, 0.007941958, -0.004463955, 0.01041943, 0.1122024, 0.5545353, -9.746207, 0, 0, 44.80676, 1, 1, 2022, 2022
IMU, 53738469, 1, 0.01279173, 0.01081095, 0.01043952, 0.1471074, 0.6249542, -9.786751, 0, 0, 45, 1, 1, 1999, 2046
POWR, 53778897, 4.952719, 0, 1, 1, 6
MCU, 53778897, 37.53479, 3.348254, 3.340114, 3.355444
BAT, 53778931, 0, 15.77607, 15.89611, 0.9009719, 13.7777, 0.2191721, 0, 0.1332345, 99, 1, 0
MAG, 53778943, 0, 563, -203, 69, 102, 25, 42, 0, 0, 0, 1, 53778942
MAG, 53778943, 1, 372, -62, 145, 13, 26, -45, 0, 0, 0, 1, 53778940
SURF, 53778965, 0, 2, 0, 0, 0.108752
SURF, 53778974, 1, 2, 0, 0, 0.108752
BARO, 53778994, 0, -0.01287842, 648.5671, 93798.66, 37.74, -0.1061257, 53778, 0, 35, 1
CTUN, 53779006, 0, 0, 0, 0.2570977, 0, 0.1042526, -0.01, NaN, 0, 0.009148099, 0, 2
ATT, 53779064, -20.70459, -2.412481, 22.20732, -1.979261, 18.20521, 18.20521, 3
ANG, 53778017, -20.70459, -2.412481, 22.20732, -1.979261, 18.20521, 18.20521, 0.002507
RATE, 53778031, -85.60757, -0.3266408, -0.1995793, 103.3949, -0.9670813, 0.2476195, 23.1899, -0.2896237, 0.07195905, 0, -2.000523, 0, 0
PIDR, 53779081, -1.494386, -0.005700958, -1.488685, -0.2009725, 0, 0.001393236, 0, 0, 1, 0.4348968, 9
PIDP, 53779085, 1.803886, -0.01687875, 1.820764, 0.2458032, 0, 0.001816288, 0, 0, 1, 0.553565, 9
PIDY, 53779089, 0.4044783, -0.005054887, 0.3997725, 0.07195905, 0, 0, 0, 0, 1, 0.1102707, 9
PIDA, 53779093, 0, 0, 0, 0, 0, 0, 0, 0, 0, 0, 0
XKF4, 53778124, 0, 0.11, 0.02, 0, 0, 0, 0.007491609, -0.1770515, 0.6767046, 0, 48, 109375, 0, 0
XKY0, 53778124, 0, 180.0388, 15.03747, 215.9834, 287.9834, 359.9834, 71.98336, 143.9834, 0.2, 0.2, 0.2, 0.2, 0.2
XKY1, 53778124, 0, 0, 0, 0, 0, 0, 0, 0, 0, 0, 0
XKF1, 53778124, 0, -2.41, -1.97, 18.2, 0.08020256, 0.01599205, -0.02059481, -0.07714512, 0.2249541, 0.5772214, -0.1042526, -0.23, -0.88, -0.27, 648.57
XKF2, 53778124, 0, 0, 0, 0.02, 0, 0, 400, -5, 143, 0, 0, 0, 0, 0, 0
XKF3, 53778124, 0, 0.09, -0.05, 0.31, -0.04, 0.14, -0.1, 0, 0, 0, -0.51, 0, 0, 0.007462061
XKF5, 53778124, 0, 0, 0, 0, 0, 0.19, 0.05, 0, 0, 0.5, 0.0001653319, 0.01148286, 0.02603309
XKFS, 53778124, 0, 0, 0, 0, 0, 0, 1, 0, 1
XKQ, 53778124, 0, 0.9870981, -0.01805132, -0.02038005, 0.1577853
XKF4, 53778124, 1, 0.12, 0.02, 0, 0, 0, 0.007448549, -0.1216151, 0.7326993, 0, 48, 109375, 0, 0
XKY0, 53778124, 1, 180.3565, 15.02395, 215.9756, 287.9756, 359.9756, 71.9756, 143.9756, 0.2, 0.2, 0.2, 0.2, 0.2
XKY1, 53778124, 1, 0, 0, 0, 0, 0, 0, 0, 0, 0, 0
XKF1, 53778124, 1, -3.09, -1.89, 18.08, 0.04177675, -0.03091724, -0.01832035, -0.07720104, 0.1968904, 0.5486412, -0.1001671, 0.01, 0.03, -0.2, 648.57
XKF2, 53778124, 1, 0, 0, -0.03, 0, 0, 400, -5, 143, 0, 0, 0, 0, 0, 0
XKF3, 53778124, 1, 0.05, -0.1, 0.32, -0.07, 0.12, -0.1, 0, 0, 0, -0.52, 0, 0.004739333, 0.007614943
XKFS, 53778124, 1, 0, 0, 0, 0, 0, 1, 0, 1
XKQ, 53778124, 1, 0.98715, -0.02408873, -0.02059248, 0.1566224
AHR2, 53779254, -3.47, -5.31, 17.45, 648.69, 15.3669559, 75.1254348, 0.9871155, -0.02286557, -0.05036978, 0.1501436
POS, 53779260, 15.3669556, 75.125436, 648.68, 0.01425264, 0.1042526
MOTB, 53779265, 1, 1, 1, 0.02570977, 0, 2
RCIN, 53779271, 1102, 1927, 1102, 1927, 1102, 1000, 1000, 1000, 1000, 875, 875, 875, 875, 875
RCI2, 53779275, 875, 875, 0, 1
RCOU, 53779281, 1000, 1000, 1000, 1000, 0, 0, 0, 0, 0, 0, 0, 0, 0, 0
RCO2, 53779285, 0, 0, 0, 0
VIBE, 53779289, 0, 0.2719986, 0.2471382, 0.09467445, 0
VIBE, 53779289, 1, 0.3021068, 0.2912807, 0.1314762, 0
FMT, 247, 31, CTRL, Qfffff, TimeUS,RMSRollP,RMSRollD,RMSPitchP,RMSPitchD,RMSYaw
CTRL, 53779298, 0.2019506, 0.0009082805, 0.2436081, 0.001408436, 0.07266286
IMU, 53779327, 0, -0.009770396, -0.03235257, -0.009835141, -0.3516372, -0.106107, -9.768585, 0, 0, 44.80676, 1, 1, 2022, 2022
IMU, 53779327, 1, -0.004716024, -0.01639744, -0.009513157, -0.4181044, -0.07644022, -9.817559, 0, 0, 45, 1, 1, 1999, 2046
FMT, 252, 43, DCM, Qffffffff, TimeUS,Roll,Pitch,Yaw,ErrRP,ErrYaw,VWN,VWE,VWD
DCM, 53780598, -3.468325, -5.313145, 17.45836, 0.0811862, 0.01966421, 0, 0, 0
FMT, 251, 51, EAHR, QffffffLLfI, TimeUS,Roll,Pitch,Yaw,VN,VE,VD,Lat,Lon,Alt,Flg
EAHR, 53780685, 0, 0, 0, 0, 0, 0, 0, 0, 0, 0
MSG, 53794160, ArduCopter V4.6.2 (1ebd4d99)
MSG, 53794197, ChibiOS: 88b84600
VER, 53794214, 10, 5009, 4, 6, 2, 255, 515722649, ArduCopter V4.6.2 (1ebd4d99), 56, 2, 2
MSG, 53794227, Pixhawk6C 003D0048 3133510F 31343630
MSG, 53794235, Param space used: 869/5376
MSG, 53794242, RC Protocol: SBUS
MSG, 53794255, RCOut: PWM:1-16
MSG, 53794260, New mission
CMD, 53795902, 4, 0, 16, 0, 0, 0, 0, 15.3669554, 75.1254362, 648.67, 0
CMD, 53795911, 4, 1, 22, 1, 0, 0, 0, 0, 0, 10, 3
CMD, 53795918, 4, 2, 16, 10, 0, 0, 0, 15.367361, 75.1254623, 10, 3
CMD, 53795925, 4, 3, 20, 0, 0, 0, 0, 0, 0, 0, 0
MSG, 53795943, New rally
MSG, 53795961, New fence
FNCE, 53795967, 14, 0, 98, 15.3679153, 75.1255443, 14, 0
FNCE, 53795973, 14, 1, 98, 15.3678714, 75.1258394, 14, 0
FNCE, 53795978, 14, 2, 98, 15.3676541, 75.1260915, 14, 0
FNCE, 53795983, 14, 3, 98, 15.3674795, 75.1260915, 14, 0
FNCE, 53796014, 14, 4, 98, 15.3673825, 75.1260754, 14, 0
FNCE, 53796020, 14, 5, 98, 15.3673075, 75.12607, 14, 0
FNCE, 53796025, 14, 6, 98, 15.3670748, 75.1260566, 14, 0
FNCE, 53796030, 14, 7, 98, 15.3668963, 75.1258796, 14, 0
FNCE, 53796036, 14, 8, 98, 15.366811, 75.1255792, 14, 0
FNCE, 53796041, 14, 9, 98, 15.3668653, 75.1252922, 14, 0
FNCE, 53796047, 14, 10, 98, 15.3670334, 75.1250857, 14, 0
FNCE, 53796052, 14, 11, 98, 15.3673696, 75.1251125, 14, 0
FNCE, 53796057, 14, 12, 98, 15.3675817, 75.1251393, 14, 0
FNCE, 53796062, 14, 13, 98, 15.3678481, 75.1253163, 14, 0
MSG, 53796071, Frame: QUAD/X
MODE, 53796076, Stabilize, 0, 1
ORGN, 53796080, 0, 15.3669536, 75.1254306, 648.58
ORGN, 53796084, 1, 15.3669554, 75.1254362, 648.67
MSG, 53796093, GPS 1: probing for u-blox at 230400 baud
MSG, 53796102, u-blox 1 HW: 00190000 SW: EXT CORE 4.04 (7f89f7)
FMT, 253, 28, HEAT, Qfbfff, TimeUS,Temp,Targ,P,I,Out
HEAT, 53805521, 44.74638, 45, 12.6812, 7.985044, 20.66624
FILE, @SYS/uarts.txt, 0, 64, UARTV1\nSERIAL0 OTG1  TX =       0 RX =       0 TXBD=     0 RXBD=
IMU, 53818420, 0, -0.01844365, -0.03215389, -0.01641221, -0.2907475, 0.4751249, -9.764026, 0, 0, 44.80676, 1, 1, 2022, 2022
IMU, 53818420, 1, -0.01538087, -0.01474306, -0.01430958, -0.303614, 0.6099069, -9.826698, 0, 0, 45, 1, 1, 1999, 2046
FILE, @SYS/uarts.txt, 64, 64,      0 FE=0 OE=0 NE=0 FlowCtrl=0\nSERIAL1 UART7 TX*=    2111 RX*=
STAK, 53825969, 2, 60, 1200, 880, UART_RX
SURF, 53829059, 0, 2, 0, 0, 0.1085322
SURF, 53829068, 1, 2, 0, 0, 0.1085322
FILE, @SYS/uarts.txt, 128, 64,     6698 TXBD=   393 RXBD=  1249 FE=0 OE=0 NE=0 FlowCtrl=0\nSERIA
FILE, @SYS/uarts.txt, 192, 64, L2 UART5 TX*=    1530 RX*=       0 TXBD=   285 RXBD=     0 FE=0 
IMU, 53858475, 0, -0.01246582, -0.01865346, -0.03179, -0.6765651, 0.7397888, -9.768724, 0, 0, 44.80676, 1, 1, 2022, 2022
IMU, 53858475, 1, -0.009679853, -0.001809234, -0.03127171, -0.7524897, 0.8554319, -9.826819, 0, 0, 45, 1, 1, 1999, 2046
FILE, @SYS/uarts.txt, 256, 64, OE=0 NE=0 FlowCtrl=0\nSERIAL3 UART1 TX*=    1636 RX*=   32894 TXB
FILE, @SYS/uarts.txt, 320, 64, D=   305 RXBD=  6138 FE=139 OE=0 NE=162 FlowCtrl=0\nSERIAL4 UART8
GPS, 53879030, 0, 3, 212196200, 2379, 13, 0.78, 15.3669559, 75.1254346, 647.28, 0.286, 330.3039, 0.116, 0, 1
GPA, 53879030, 0, 1.35, 0.87, 1.61, 0.34, 0, 1, 53871, 200, 569.26, 0, 0
POWR, 53879044, 4.958963, 0, 1, 1, 6
MCU, 53879044, 37.51491, 3.349098, 3.341655, 3.354173
BAT, 53879056, 0, 15.78669, 15.90836, 0.9131981, 13.80311, 0.2195732, 0, 0.1332345, 99, 1, 0
MAG, 53879068, 0, 560, -209, 134, 102, 25, 42, 0, 0, 0, 1, 53879067
MAG, 53879068, 1, 374, -60, 139, 13, 26, -45, 0, 0, 0, 1, 53879065
SURF, 53879086, 0, 2, 0, 0, 0.1085543
SURF, 53879095, 1, 2, 0, 0, 0.1085543
BARO, 53879119, 0, 0.06658936, 648.6465, 93797.77, 37.75, 0.1388435, 53879, 0, 35, 1
CTUN, 53879132, 0, 0, 0, 0.2570977, 0, 0.1132353, 0.06, NaN, 0, 0.0191481, 0, 2
ATT, 53879268, -20.70459, -2.462598, 22.20732, -2.024517, 18.12885, 18.12884, 3
ANG, 53878017, -20.70459, -2.462598, 22.20732, -2.024517, 18.12885, 18.12884, 0.0025
RATE, 53878029, -85.40656, 0.01649304, -0.2025784, 103.5771, 0.4925511, 0.241076, 23.2772, -0.1146347, 0.07524034, 0, 2.027607, 0, 0
PIDR, 53879285, -1.490625, 0.0002878578, -1.490913, -0.2012732, 0, -0.001305182, 0, 0, 1, 0.3934615, 9
PIDP, 53879289, 1.808135, 0.008596638, 1.799538, 0.2429377, 0, -0.001861679, 0, 0, 1, 0.5008237, 9
PIDY, 53879292, 0.4063579, -0.002000753, 0.4180019, 0.07524034, 0, 0, 0, 0, 1, 0.1125512, 9
PIDA, 53879296, 0, 0, 0, 0, 0, 0, 0, 0, 0, 0, 0
XKF4, 53878118, 0, 0.11, 0.02, 0, 0, 0, 0.007560841, -0.1770515, 0.6767046, 0, 48, 109375, 0, 0
XKY0, 53878118, 0, 184.9096, 14.84944, 216.0542, 288.0542, 0.0542367, 72.05424, 144.0542, 0.2, 0.2, 0.2, 0.2, 0.2
XKY1, 53878118, 0, 0, 0, 0, 0, 0, 0, 0, 0, 0, 0
XKF1, 53878118, 0, -2.46, -2.02, 18.12, 0.06428906, 0.02068928, -0.02458059, -0.122338, 0.2321559, 0.5727378, -0.1132353, -0.23, -0.88, -0.27, 648.57
XKF2, 53878118, 0, 0, 0, 0.02, 0, 0, 400, -5, 143, 0, 0, 0, 0, 0, 0
XKF3, 53878118, 0, 0.09, -0.05, 0.31, -0.04, 0.14, -0.15, 0, 0, 0, -0.73, 0, 0, 0.007462061
XKF5, 53878118, 0, 0, 0, 0, 0, 0.19, 0.05, 0, 0, 0.5, 0.0002082419, 0.009718111, 0.02116646
XKFS, 53878118, 0, 0, 0, 0, 0, 0, 1, 0, 1
XKQ, 53878118, 0, 0.9871895, -0.0184343, -0.02082656, 0.1571091
XKF4, 53878118, 1, 0.12, 0.02, 0, 0, 0, 0.007515647, -0.1216151, 0.7326993, 0, 48, 109375, 0, 0
XKY0, 53878118, 1, 211.3939, 14.28122, 216.0399, 288.0399, 0.03991098, 72.03991, 144.0399, 0.2, 0.2, 0.2, 0.2, 0.2
XKY1, 53878118, 1, 0, 0, 0, 0, 0, 0, 0, 0, 0, 0
XKF1, 53878118, 1, -3.15, -1.94, 18, 0.02400988, -0.02498811, -0.02237385, -0.1217655, 0.2026007, 0.5422655, -0.1091316, 0.01, 0.03, -0.2, 648.57
XKF2, 53878118, 1, 0, 0, -0.03, 0, 0, 400, -5, 143, 0, 0, 0, 0, 0, 0
XKF3, 53878118, 1, 0.05, -0.1, 0.32, -0.07, 0.12, -0.14, 0, 0, 0, -0.77, 0, 0.01085461, 0.007614943
XKFS, 53878118, 1, 0, 0, 0, 0, 0, 1, 0, 1
XKQ, 53878118, 1, 0.9872419, -0.02449911, -0.02106911, 0.1559143
AHR2, 53879384, -3.38, -5.31, 17.37, 648.65, 15.3669559, 75.1254349, 0.9872362, -0.02212818, -0.05023629, 0.1495038
POS, 53879393, 15.3669556, 75.125436, 648.69, 0.02323532, 0.1132353
MOTB, 53879398, 1, 1, 1, 0.02570977, 0, 2
RCIN, 53879404, 1102, 1927, 1102, 1927, 1102, 1000, 1000, 1000, 1000, 875, 875, 875, 875, 875
RCI2, 53879407, 875, 875, 0, 1
RCOU, 53879414, 1000, 1000, 1000, 1000, 0, 0, 0, 0, 0, 0, 0, 0, 0, 0
RCO2, 53879417, 0, 0, 0, 0
VIBE, 53879421, 0, 0.2074801, 0.2443352, 0.08244327, 0
VIBE, 53879421, 1, 0.2432532, 0.2945775, 0.1152641, 0
CTRL, 53879430, 0.201323, 0.0009506128, 0.2441688, 0.001360649, 0.07301353
DCM, 53880643, -3.377279, -5.309763, 17.38003, 0.1152235, 0.0233286, 0, 0, 0
EAHR, 53880662, 0, 0, 0, 0, 0, 0, 0, 0, 0, 0
FILE, @SYS/uarts.txt, 384, 64,  TX*=       0 RX*=       0 TXBD=     0 RXBD=     0 FE=0 OE=0 NE=
IMU, 53898485, 0, -0.002465313, -0.007257148, 0.008401463, -0.1182272, 0.3896582, -9.806162, 0, 0, 44.80676, 1, 1, 2022, 2022
IMU, 53898485, 1, 0.003713722, 0.01019055, 0.008776972, -0.0743077, 0.4696414, -9.832443, 0, 0, 45, 1, 1, 1999, 2046
FILE, @SYS/uarts.txt, 448, 64, 0 FlowCtrl=0\nSERIAL5 UART2 TX =       0 RX =       0 TXBD=     0
FILE, @SYS/uarts.txt, 512, 64,  RXBD=     0 FE=0 OE=0 NE=0 FlowCtrl=0\nSERIAL6 UART3 TX =       
FILE, @SYS/uarts.txt, 576, 64, 0 RX =       0 TXBD=     0 RXBD=     0 FE=0 OE=0 NE=0 FlowCtrl=0
STAK, 53926079, 3, 60, 752, 480, OTG1
SURF, 53929057, 0, 2, 0, 0, 0.1087829
SURF, 53929067, 1, 2, 0, 0, 0.1087829
FILE, @SYS/uarts.txt, 640, 64, \nSERIAL7 OTG2  TX =       0 RX =       0 TXBD=     0 RXBD=     0
IMU, 53938462, 0, 0.002996561, -0.00685764, 0.002167848, -0.5935263, 0.6193724, -9.783991, 0, 0, 44.80676, 1, 1, 2022, 2022
IMU, 53938462, 1, 0.006481879, 0.01072828, 0.0004759964, -0.6658292, 0.7421652, -9.820256, 0, 0, 45, 1, 1, 1999, 2046
FILE, @SYS/uarts.txt, 704, 64,  FE=0 OE=0 NE=0 FlowCtrl=0\nIOMCU   UART6 TX*=  387544 RX*=  2525
FILE, @SYS/uarts.txt, 768, 53, 14 TXBD= 72317 RXBD= 47120 FE=0 OE=0 NE=0 FlowCtrl=0\n
FILE, @SYS/memory.txt, 0, 64, MemInfoV1\nSTART=0x24000000 LEN=512k FREE=  2936 LRG=  1160 TYPE=
POWR, 53978899, 4.965811, 0, 1, 1, 6
MCU, 53978899, 37.49503, 3.349239, 3.342355, 3.354597
BAT, 53978912, 0, 15.80573, 15.92926, 0.9271534, 13.82883, 0.2199797, 0, 0.1332345, 99, 1, 0
MAG, 53978923, 0, 563, -210, 113, 102, 25, 42, 0, 0, 0, 1, 53978922
MAG, 53978923, 1, 370, -63, 145, 13, 26, -45, 0, 0, 0, 1, 53978921
SURF, 53978944, 0, 2, 0, 0, 0.1090507
SURF, 53978952, 1, 2, 0, 0, 0.1090507
BARO, 53978978, 0, -0.03936768, 648.5406, 93798.96, 37.76, 0.238318, 53978, 0, 35, 1
CTUN, 53978991, 0, 0, 0, 0.2570977, 0, 0.1153527, -0.03, NaN, 0, 0.01853775, 0, 2
ATT, 53979045, -20.70459, -2.413416, 22.20731, -1.933859, 18.18589, 18.18589, 3
ANG, 53978010, -20.70459, -2.413416, 22.20731, -1.933859, 18.18589, 18.18589, 0.002491
RATE, 53978024, -85.59168, 1.485657, -0.2063611, 103.2013, 1.711211, 0.2373421, 23.1425, 0.6095505, 0.0723773, 0, 4.214478, 0, 0
PIDR, 53979061, -1.492981, 0.0259296, -1.518911, -0.205053, 0, -0.001308112, 0, 0, 1, 0.3559766, 9
PIDP, 53979065, 1.802544, 0.02986626, 1.772677, 0.2393114, 0, -0.001969306, 0, 0, 1, 0.4531105, 9
PIDY, 53979069, 0.4044926, 0.01063866, 0.4020961, 0.0723773, 0, 0, 0, 0, 1, 0.1059706, 9
PIDA, 53979072, 0, 0, 0, 0, 0, 0, 0, 0, 0, 0, 0
XKF4, 53978156, 0, 0.11, 0.02, 0, 0.01, 0, 0.007454073, -0.1770515, 0.6767046, 0, 48, 109375, 0, 0
XKY0, 53978156, 0, 299.2553, 11.00339, 224.7207, 289.684, 352.2616, 65.47499, 147.6473, 0.2006373, 0.3268687, 0.2497551, 0.1202218, 0.1025171
XKY1, 53978156, 0, -0.8952575, 0.03013997, 0.7217917, 0.2238585, -0.7755328, -0.08856721, -0.5151331, 0.2331561, 1.12219, 0.9233541
XKF1, 53978156, 0, -2.41, -1.93, 18.18, 0.05684102, 0.02269325, -0.02638463, -0.06120246, 0.2407174, 0.5573023, -0.1153527, -0.23, -0.88, -0.27, 648.57
XKF2, 53978156, 0, 0, 0.01, 0.02, 0, 0, 400, -5, 143, 0, 0, 0, 0, 0, 0
XKF3, 53978156, 0, -0.04, 0.27, -0.14, -0.02, 0.12, -0.05, 0, 0, 0, -1.22, 0, 0, 0.00641784
XKF5, 53978156, 0, 0, 0, 0, 0, 0.17, 0.05, 0, 0, 0.5, 0.0007682116, 0.01668786, 0.01553568
XKFS, 53978156, 0, 0, 0, 0, 0, 0, 1, 0, 1
XKQ, 53978156, 0, 0.9871299, -0.01812554, -0.01998723, 0.157628
XKF4, 53978156, 1, 0.09, 0.02, 0, 0.01, 0, 0.007420735, -0.1216151, 0.7326993, 0, 48, 109375, 0, 0
XKY0, 53978156, 1, 7.715321, 14.26169, 216.0449, 288.1366, 359.9842, 71.79843, 143.836, 0.1986037, 0.2002803, 0.2015736, 0.2006881, 0.1988543
XKY1, 53978156, 1, -0.1476299, -0.1483656, -0.1361584, -0.1278782, -0.134968, 0.3420436, 0.3289691, 0.3242291, 0.3343742, 0.3453841
XKF1, 53978156, 1, -3.09, -1.85, 18.05, 0.01745869, -0.01996039, -0.02345843, -0.05979629, 0.210929, 0.5266376, -0.1111828, 0.01, 0.03, -0.2, 648.57
XKF2, 53978156, 1, 0, 0.01, -0.03, 0, 0, 400, -5, 143, 0, 0, 0, 0, 0, 0
XKF3, 53978156, 1, -0.08, 0.22, -0.14, -0.05, 0.09, -0.05, 0, 0, 0, -1.18, 0, 0.01146614, 0.00510356
XKFS, 53978156, 1, 0, 0, 0, 0, 0, 1, 0, 1
XKQ, 53978156, 1, 0.9871905, -0.02416493, -0.02022922, 0.1564024
AHR2, 53979207, -3.6, -5.25, 17.47, 648.73, 15.3669561, 75.1254341, 0.987092, -0.02410977, -0.05002614, 0.1502182
POS, 53979213, 15.3669557, 75.1254358, 648.69, 0.02535271, 0.1153527
MOTB, 53979218, 1, 1, 1, 0.02570977, 0, 2
RCIN, 53979224, 1102, 1927, 1102, 1927, 1102, 1000, 1000, 1000, 1000, 875, 875, 875, 875, 875
RCI2, 53979228, 875, 875, 0, 1
RCOU, 53979234, 1000, 1000, 1000, 1000, 0, 0, 0, 0, 0, 0, 0, 0, 0, 0
RCO2, 53979240, 0, 0, 0, 0
VIBE, 53979245, 0, 0.2050733, 0.1630478, 0.0829697, 0
VIBE, 53979245, 1, 0.252609, 0.2119088, 0.1311317, 0
CTRL, 53979253, 0.2017741, 0.001090656, 0.2434609, 0.001401133, 0.07309015
IMU, 53979263, 0, 0.02189366, 0.0143819, 0.005846687, -0.3375786, 0.7386396, -9.797066, 0, 0, 44.80676, 1, 1, 2022, 2022
IMU, 53979263, 1, 0.02598666, 0.02909925, 0.006754499, -0.3290382, 0.8402441, -9.849044, 0, 0, 45, 1, 1, 1999, 2046
DCM, 53980603, -3.609738, -5.247551, 17.47458, 0.1152235, 0.02583143, 0, 0, 0
EAHR, 53980627, 0, 0, 0, 0, 0, 0, 0, 0, 0, 0
FILE, @SYS/memory.txt, 64, 64, 4\nSTART=0x30000000 LEN=256k FREE=262136 LRG=262136 TYPE=8\nSTART=
FILE, @SYS/memory.txt, 128, 64, 0x20000000 LEN=128k FREE=112544 LRG=112544 TYPE=2\nSTART=0x000004
FILE, @SYS/memory.txt, 192, 64, 00 LEN= 63k FREE= 64504 LRG= 64504 TYPE=2\nSTART=0x30040000 LEN= 
IMU, 54018473, 0, 0.01149575, 0.001233316, 0.01208166, -0.02718049, -0.1420116, -9.754602, 0, 0, 44.32367, 1, 1, 2022, 2022
IMU, 54018473, 1, 0.01679793, 0.02039972, 0.01148238, -0.0090972, -0.1086889, -9.79032, 0, 0, 45, 1, 1, 1999, 2046
FILE, @SYS/memory.txt, 256, 64, 32k FREE= 32760 LRG= 32760 TYPE=8\nSTART=0x38000000 LEN= 64k FREE
STAK, 54026996, 4, 183, 1456, 1096, monitor
SURF, 54029035, 0, 2, 0, 0, 0.1093584
SURF, 54029063, 1, 2, 0, 0, 0.1093584
FILE, @SYS/memory.txt, 320, 26, = 56808 LRG= 56152 TYPE=1\n
IMU, 54058428, 0, -0.02491964, -0.03361823, -0.03917164, -0.1048047, 0.01498846, -9.755969, 0, 0, 44.80676, 1, 1, 2022, 2022
IMU, 54058428, 1, -0.02218019, -0.01691959, -0.03943327, -0.132569, 0.09125566, -9.797295, 0, 0, 45, 1, 1, 1999, 2046
FILE, @SYS/threads.txt, 0, 64, ThreadsV2\nISR           PRI=255 sp=0x24000000 STACK=1284/1536\nAr
FILE, @SYS/threads.txt, 64, 64, duCopter    PRI=182 sp=0x24000600 STACK=4176/7168\nidle          
GPS, 54079000, 0, 3, 212196400, 2379, 13, 0.78, 15.3669559, 75.1254344, 647.21, 0.055, 330.3039, -0.034, 0, 1
GPA, 54079000, 0, 1.35, 0.87, 1.62, 0.44, 0, 1, 54071, 200, 569.19, 0, 0
POWR, 54079016, 4.960071, 0, 1, 1, 6
MCU, 54079016, 37.49503, 3.348958, 3.339554, 3.354879
BAT, 54079031, 0, 15.80234, 15.92592, 0.9275196, 13.85462, 0.2203874, 0, 0.1332345, 99, 1, 0
MAG, 54079043, 0, 572, -212, 110, 102, 25, 42, 0, 0, 0, 1, 54079042
MAG, 54079043, 1, 372, -60, 145, 13, 26, -45, 0, 0, 0, 1, 54079040
SURF, 54079061, 0, 2, 0, 0, 0.1097003
SURF, 54079070, 1, 2, 0, 0, 0.1097003
BARO, 54079090, 0, -0.07757568, 648.5024, 93799.42, 37.76, 0.1028, 54079, 0, 35, 1
CTUN, 54079102, 0, 0, 0, 0.2570977, 0, 0.1171529, -0.07, NaN, 0, 0.0181105, 0, 2
ATT, 54079224, -20.70459, -2.432166, 22.20732, -1.934705, 18.12738, 18.12738, 3
ANG, 54078010, -20.70459, -2.432166, 22.20732, -1.934705, 18.12738, 18.12738, 0.002491
RATE, 54078022, -85.51215, -1.210107, -0.1985991, 103.2008, -1.304302, 0.2469037, 23.16059, -3.122618, 0.07482123, 0, 1.296806, 0, 0
PIDR, 54079241, -1.493211, -0.02112035, -1.47209, -0.1987322, 0, 0.0001331771, 0, 0, 1, 0.3220607, 9
PIDP, 54079245, 1.800241, -0.02276436, 1.823006, 0.2461058, 0, 0.0007979376, 0, 0, 1, 0.4099401, 9
PIDY, 54079248, 0.4038908, -0.05449997, 0.4156735, 0.07482123, 0, 0, 0, 0, 1, 0.09721746, 9
PIDA, 54079252, 0, 0, 0, 0, 0, 0, 0, 0, 0, 0, 0
XKF4, 54078110, 0, 0.11, 0.02, 0, 0.01, 0, 0.007511248, -0.1770515, 0.6767046, 0, 48, 109375, 0, 0
XKY0, 54078110, 0, 299.3364, 11.00343, 224.8018, 289.7651, 352.3427, 65.55604, 147.7283, 0.2006373, 0.3268687, 0.2497551, 0.1202218, 0.1025171
XKY1, 54078110, 0, -0.8952575, 0.03013997, 0.7217917, 0.2238585, -0.7755328, -0.08856721, -0.5151331, 0.2331561, 1.12219, 0.9233541
XKF1, 54078110, 0, -2.43, -1.93, 18.12, 0.08639228, -0.01089606, -0.02319766, -0.01505992, 0.2498355, 0.5451079, -0.1171529, -0.23, -0.88, -0.27, 648.57
XKF2, 54078110, 0, 0, 0.01, 0.02, 0, 0, 400, -5, 143, 0, 0, 0, 0, 0, 0
XKF3, 54078110, 0, -0.04, 0.27, -0.14, -0.02, 0.12, -0.16, 0, 0, 0, -1.25, 0, 0, 0.00641784
XKF5, 54078110, 0, 0, 0, 0, 0, 0.18, 0.05, 0, 0, 0.5, 0.0005698342, 0.008548419, 0.00506219
XKFS, 54078110, 0, 0, 0, 0, 0, 0, 1, 0, 1
XKQ, 54078110, 0, 0.9872072, -0.01829611, -0.02001097, 0.1571205
XKF4, 54078110, 1, 0.09, 0.02, 0, 0.01, 0, 0.007474719, -0.1216151, 0.7326993, 0, 48, 109375, 0, 0
XKY0, 54078110, 1, 7.759954, 14.26171, 216.09, 288.1816, 0.02926528, 71.84348, 143.881, 0.1986037, 0.2002803, 0.2015736, 0.2006881, 0.1988543
XKY1, 54078110, 1, -0.1476299, -0.1483656, -0.1361584, -0.1278782, -0.134968, 0.3420436, 0.3289691, 0.3242291, 0.3343742, 0.3453841
XKF1, 54078110, 1, -3.11, -1.85, 17.99, 0.04837617, -0.05616228, -0.01974728, -0.0129818, 0.2187414, 0.5127789, -0.1128038, 0.01, 0.03, -0.2, 648.57
XKF2, 54078110, 1, 0, 0.01, -0.03, 0, 0, 400, -5, 143, 0, 0, 0, 0, 0, 0
XKF3, 54078110, 1, -0.08, 0.22, -0.14, -0.05, 0.09, -0.16, 0, 0, 0, -1.24, 0, 0.01146614, 0.00510356
XKFS, 54078110, 1, 0, 0, 0, 0, 0, 1, 0, 1
XKQ, 54078110, 1, 0.9872714, -0.02434126, -0.02023461, 0.1558626
AHR2, 54079343, -3.89, -5.28, 17.44, 648.63, 15.3669562, 75.1254339, 0.9870508, -0.02661112, -0.05069176, 0.149843
POS, 54079349, 15.3669558, 75.1254357, 648.69, 0.02715294, 0.1171529
MOTB, 54079354, 1, 1, 1, 0.02570977, 0, 2
RCIN, 54079360, 1102, 1927, 1102, 1927, 1102, 1000, 1000, 1000, 1000, 875, 875, 875, 875, 875
RCI2, 54079364, 875, 875, 0, 1
RCOU, 54079373, 1000, 1000, 1000, 1000, 0, 0, 0, 0, 0, 0, 0, 0, 0, 0
RCO2, 54079376, 0, 0, 0, 0
VIBE, 54079381, 0, 0.1965378, 0.3109717, 0.07596832, 0
VIBE, 54079381, 1, 0.2249567, 0.3668053, 0.1117234, 0
CTRL, 54079389, 0.2018647, 0.001577259, 0.243146, 0.001734604, 0.07273297
DCM, 54080618, -3.910559, -5.288294, 17.43694, 0.1196354, 0.02734894, 0, 0, 0
EAHR, 54080660, 0, 0, 0, 0, 0, 0, 0, 0, 0, 0
FILE, @SYS/threads.txt, 128, 64, PRI=  1 sp=0x240214B0 STACK=288/496\nUART_RX       PRI= 60 sp=0x2
IMU, 54098486, 0, -0.01564689, -0.03256238, -0.04283888, -0.389684, 1.053973, -9.762362, 0, 0, 44.32367, 1, 1, 2022, 2022
IMU, 54098486, 1, -0.01157358, -0.01525098, -0.04161845, -0.3775827, 1.251669, -9.785, 0, 0, 45, 1, 1, 1999, 2046
FILE, @SYS/threads.txt, 192, 64, 407B0E8 STACK=880/1200\nOTG1          PRI= 60 sp=0x2407A1A0 STACK
FILE, @SYS/threads.txt, 256, 64, =480/752\nmonitor       PRI=183 sp=0x2401CE20 STACK=1096/1456\ntim
FILE, @SYS/threads.txt, 320, 64, er         PRI=181 sp=0x2401E3E0 STACK=1528/1968\nrcout         P
STAK, 54127549, 5, 181, 1968, 1528, timer
SURF, 54128725, 0, 2, 0, 0, 0.1100642
SURF, 54128735, 1, 2, 0, 0, 0.1100642
FILE, @SYS/threads.txt, 384, 64, RI=181 sp=0x2401DA00 STACK=656/944\nrcin          PRI=177 sp=0x24
IMU, 54138494, 0, -0.007634307, -0.01868847, 0.03619356, -0.488495, 0.4009427, -9.750625, 0, 0, 44.80676, 1, 1, 2022, 2022
IMU, 54138494, 1, -0.003354627, -0.002760665, 0.03879674, -0.5161421, 0.452854, -9.798646, 0, 0, 45, 1, 1, 1999, 2046
FILE, @SYS/threads.txt, 448, 64, 01D410 STACK=848/1456\nio            PRI= 58 sp=0x2401C430 STACK=
FILE, @SYS/threads.txt, 512, 64, 1576/2480\nstorage       PRI= 59 sp=0x2401DDF0 STACK=952/1456\nUAR
FILE, @SYS/threads.txt, 576, 64, T7         PRI= 60 sp=0x24078FF8 STACK=344/752\nUART5         PRI
POWR, 54178614, 4.961178, 0, 1, 1, 6
MCU, 54178614, 37.49503, 3.349098, 3.342075, 3.355444
BAT, 54178627, 0, 15.79621, 15.92098, 0.9364908, 13.88054, 0.2207967, 0, 0.1332345, 99, 1, 0
MAG, 54178663, 0, 562, -213, 103, 102, 25, 42, 0, 0, 0, 1, 54178661
MAG, 54178663, 1, 373, -59, 142, 13, 26, -45, 0, 0, 0, 1, 54178660
SURF, 54178722, 0, 2, 0, 0, 0.1104537
SURF, 54178730, 1, 2, 0, 0, 0.1104537
BARO, 54178750, 0, 0.05773926, 648.6377, 93797.87, 37.76, -0.1292388, 54178, 0, 35, 1
CTUN, 54178763, 0, 0, 0, 0.2570977, 0, 0.1188635, 0.05, NaN, 0, 0.01774429, 0, 2
ATT, 54178815, -20.7046, -2.463506, 22.20732, -1.961213, 18.20955, 18.20956, 3
ANG, 54178016, -20.7046, -2.463506, 22.20732, -1.961213, 18.20955, 18.20956, 0.002506
RATE, 54178030, -85.3857, -0.02528717, -0.200472, 103.3069, -0.07245374, 0.243818, 23.21943, 0.4900429, 0.07084089, 0, -4.316235, 0, 0
PIDR, 54178835, -1.490292, -0.0004413445, -1.489851, -0.2011298, 0, 0.0006578803, 0, 0, 1, 0.2913744, 9
PIDP, 54178839, 1.802962, -0.001264556, 1.804227, 0.2435706, 0, 0.0002474386, 0, 0, 1, 0.3708805, 9
PIDY, 54178842, 0.4051901, 0.008552862, 0.3935605, 0.07084089, 0, 0, 0, 0, 1, 0.09990358, 9
PIDA, 54178846, 0, 0, 0, 0, 0, 0, 0, 0, 0, 0, 0
XKF4, 54178122, 0, 0.02, 0.02, 0.01, 0.01, 0, 0.007414361, -0.1770515, 0.6767046, 0, 48, 109375, 0, 0
XKY0, 54178122, 0, 295.6818, 11.54727, 222.0127, 288.9965, 354.4908, 67.68728, 146.6524, 0.2082705, 0.2915787, 0.2308318, 0.1390969, 0.1302222
XKY1, 54178122, 0, -1.004979, 0.3620369, 1.333917, 0.6941634, -1.027964, -0.8962473, -1.338351, -0.3465926, 1.115049, 0.7697377
XKF1, 54178122, 0, -2.46, -1.96, 18.2, 0.07760245, -0.006924273, -0.02322424, -0.006701605, 0.257805, 0.5306314, -0.1188635, -0.23, -0.88, -0.27, 648.57
XKF2, 54178122, 0, 0, 0.01, 0.02, 0, 0, 400, -5, 143, 0, 0, 0, 0, 0, 0
XKF3, 54178122, 0, 0.04, 0.05, 0, -0.01, 0.12, -0.2, 0, 0, 0, -1.07, 0, 0, 0.0005086322
XKF5, 54178122, 0, 0, 0, 0, 0, 0.18, 0.05, 0, 0, 0.5, 0.0005073262, 0.007848137, 0.007521182
XKFS, 54178122, 0, 0, 0, 0, 0, 0, 1, 0, 1
XKQ, 54178122, 0, 0.9870861, -0.01851504, -0.02029556, 0.1578174
XKV1, 54178122, 0, 1.451258E-05, 6.641943E-06, 6.68002E-06, 0.0005692525, 0.02674905, 0.02676296, 0.01165938, 0.06254815, 0.06254826, 0.1422515, 4.149123E-11, 4.198086E-11
XKV2, 54178122, 0, 6.277096E-10, 5.822129E-06, 5.822122E-06, 5.993282E-08, 0, 0, 0, 0, 0, 0, 0, 0
XKF4, 54178122, 1, 0, 0.01, 0.01, 0.01, 0, 0.007373325, -0.1216151, 0.7326993, 0, 48, 109375, 0, 0
XKY0, 54178122, 1, 4.644945, 14.21492, 216.1132, 288.2373, 359.9927, 71.7173, 143.7914, 0.197929, 0.2005553, 0.2024231, 0.2009324, 0.1981602
XKY1, 54178122, 1, 0.05815248, 0.04814909, 0.01281287, 0.0008366742, 0.02880075, -0.05572393, -0.02170986, -0.0206969, -0.05394204, -0.07569986
XKF1, 54178122, 1, -3.14, -1.88, 18.07, 0.04143611, -0.04997796, -0.01964842, -0.004755382, 0.2263855, 0.4993187, -0.1144159, 0.01, 0.03, -0.2, 648.57
XKF2, 54178122, 1, 0, 0.01, -0.03, 0, 0, 400, -5, 143, 0, 0, 0, 0, 0, 0
XKF3, 54178122, 1, 0, 0.01, 0.01, -0.04, 0.1, -0.2, 0, 0, 0, -1.07, 0, 0.01606107, 0.0001595244
XKFS, 54178122, 1, 0, 0, 0, 0, 0, 1, 0, 1
XKQ, 54178122, 1, 0.9871461, -0.02451447, -0.02053146, 0.156589
AHR2, 54178944, -3.81, -5.29, 17.51, 648.59, 15.3669559, 75.1254344, 0.986968, -0.02581331, -0.0506878, 0.1505279
POS, 54178950, 15.3669559, 75.1254356, 648.69, 0.02886349, 0.1188635
MOTB, 54178955, 1, 1, 1, 0.02570977, 0, 2
RCIN, 54178961, 1102, 1927, 1102, 1927, 1102, 1000, 1000, 1000, 1000, 875, 875, 875, 875, 875
RCI2, 54178965, 875, 875, 0, 1
RCOU, 54178986, 1000, 1000, 1000, 1000, 0, 0, 0, 0, 0, 0, 0, 0, 0, 0
RCO2, 54178990, 0, 0, 0, 0
VIBE, 54179007, 0, 0.2171719, 0.3490186, 0.1926385, 0
VIBE, 54179007, 1, 0.2920331, 0.4150376, 0.2320757, 0
CTRL, 54179017, 0.2014936, 0.001376675, 0.2435285, 0.001488516, 0.0731537
IMU, 54179028, 0, -0.004472394, -0.01676005, 0.003744527, -0.1999875, 0.2722897, -9.736149, 0, 0, 44.32367, 1, 1, 2022, 2022
IMU, 54179028, 1, 0.0009660716, -0.0003464743, 0.005586501, -0.2179944, 0.3458822, -9.791061, 0, 0, 45, 1, 1, 1999, 2046
DCM, 54180634, -3.808672, -5.295082, 17.51753, 0.1196354, 0.02981977, 0, 0, 0
EAHR, 54180671, 0, 0, 0, 0, 0, 0, 0, 0, 0, 0
FILE, @SYS/threads.txt, 640, 64, = 60 sp=0x240784B0 STACK=256/752\nUART1         PRI= 60 sp=0x2407
FILE, @SYS/threads.txt, 704, 64, 78E8 STACK=344/752\nUART8         PRI= 60 sp=0x24076D20 STACK=408
FILE, @SYS/threads.txt, 768, 64, /752\nOTG2          PRI= 60 sp=0x24075DD8 STACK=480/752\nUART6    
IMU, 54218942, 0, -0.008371109, -0.02464861, -0.0551965, -0.3784955, 0.4159144, -9.732624, 0, 0, 44.80676, 1, 1, 2022, 2022
IMU, 54218942, 1, -0.006175741, -0.01020953, -0.05310128, -0.4000871, 0.5517811, -9.765933, 0, 0, 45, 1, 1, 1999, 2046
FILE, @SYS/threads.txt, 832, 64,      PRI=181 sp=0x24074F58 STACK=344/752\nIOMCU         PRI=183 s
SURF, 54228763, 0, 2, 0, 0, 0.1108644
SURF, 54228773, 1, 2, 0, 0, 0.1108644
STAK, 54228894, 6, 181, 944, 656, rcout
FILE, @SYS/threads.txt, 896, 64, p=0x2406AB30 STACK=912/1456\nlog_io        PRI= 59 sp=0x2406B2C0 
FILE, @SYS/threads.txt, 960, 64, STACK=712/2016\nI2C1          PRI=176 sp=0x2406BBD0 STACK=984/145
FILE, @SYS/threads.txt, 1024, 64, 6\nI2C0          PRI=176 sp=0x2406C4A0 STACK=984/1456\nSPI1       
IMU, 54258484, 0, -0.005467234, -0.01289171, 0.0006752145, -0.2773209, 0.6724116, -9.804589, 0, 0, 44.80676, 1, 1, 2022, 2022
IMU, 54258484, 1, -0.002626312, 0.004160919, 0.002566566, -0.4020185, 0.7884412, -9.928264, 0, 0, 45, 1, 1, 1999, 2046
FILE, @SYS/threads.txt, 1088, 40,    PRI=181 sp=0x24070FC0 STACK=840/1456\n
GPS, 54278759, 0, 3, 212196600, 2379, 13, 0.78, 15.366956, 75.1254343, 647.26, 0.07700001, 330.3039, -0.117, 0, 1
GPA, 54278759, 0, 1.35, 0.88, 1.63, 0.44, 0, 1, 54271, 200, 569.24, 0, 0
POWR, 54278797, 4.960272, 0, 1, 1, 6
MCU, 54278797, 37.49503, 3.348817, 3.340254, 3.355586
BAT, 54278848, 0, 15.7855, 15.92197, 1.010824, 13.90868, 0.2212409, 0, 0.1350079, 99, 1, 0
MAG, 54278863, 0, 560, -212, 115, 102, 25, 42, 0, 0, 0, 1, 54278862
MAG, 54278863, 1, 368, -62, 150, 13, 26, -45, 0, 0, 0, 1, 54278860
SURF, 54278881, 0, 2, 0, 0, 0.1112915
SURF, 54278890, 1, 2, 0, 0, 0.1112915
BARO, 54278909, 0, 0.03717041, 648.6171, 93798.13, 37.76, -0.1342201, 54278, 0, 35, 1
CTUN, 54278926, 0, 0, 0, 0.2570977, 0, 0.1204671, 0.03, NaN, 0, 0.02743911, 0, 2
ATT, 54278985, -20.7046, -2.46853, 22.20732, -1.949585, 18.12921, 18.12922, 3
ANG, 54278010, -20.7046, -2.46853, 22.20732, -1.949585, 18.12921, 18.12921, 0.002495
RATE, 54278026, -85.36131, 0.3714271, -0.2032376, 103.2563, 1.382337, 0.2368035, 23.20952, 1.093166, 0.07411885, 0, 4.570961, 0, 0
PIDR, 54279002, -1.4894, 0.006482626, -1.495883, -0.2019442, 0, -0.001293429, 0, 0, 1, 0.263615, 9
PIDP, 54279006, 1.803057, 0.02412634, 1.778931, 0.2401557, 0, -0.003352141, 0, 0, 1, 0.3427972, 9
PIDY, 54279010, 0.4054266, 0.01907935, 0.4117714, 0.07411885, 0, 0, 0, 0, 1, 0.103805, 9
PIDA, 54279013, 0, 0, 0, 0, 0, 0, 0, 0, 0, 0, 0
XKF4, 54278155, 0, 0.02, 0.02, 0, 0.01, 0, 0.007492262, -0.1770515, 0.6767046, 0, 48, 109375, 0, 0
XKY0, 54278155, 0, 295.7329, 11.5473, 222.0637, 289.0476, 354.5419, 67.73835, 146.7035, 0.2082705, 0.2915787, 0.2308318, 0.1390969, 0.1302222
XKY1, 54278155, 0, -1.004979, 0.3620369, 1.333917, 0.6941634, -1.027964, -0.8962473, -1.338351, -0.3465926, 1.115049, 0.7697377
XKF1, 54278155, 0, -2.46, -1.94, 18.12, 0.05606862, -0.0158644, -0.02546295, -0.01073186, 0.2653881, 0.5190384, -0.1204671, -0.23, -0.88, -0.27, 648.57
XKF2, 54278155, 0, 0, 0.01, 0.02, 0, 0, 400, -5, 143, 0, 0, 0, 0, 0, 0
XKF3, 54278155, 0, 0.04, 0.05, 0, -0.01, 0.12, -0.07, 0, 0, 0, -1.58, 0, 0, 0.0005086322
XKF5, 54278155, 0, 0, 0, 0, 0, 0.18, 0.05, 0, 0, 0.5, 0.0004636501, 0.002011681, 0.003158986
XKFS, 54278155, 0, 0, 0, 0, 0, 0, 1, 0, 1
XKQ, 54278155, 0, 0.987197, -0.01858857, -0.0201893, 0.1571269
XKF4, 54278155, 1, 0, 0.01, 0, 0.01, 0, 0.007455463, -0.1216151, 0.7326993, 0, 48, 109375, 0, 0
XKY0, 54278155, 1, 4.681758, 14.21495, 216.1501, 288.2742, 0.02962656, 71.75422, 143.8283, 0.197929, 0.2005553, 0.2024231, 0.2009324, 0.1981602
XKY1, 54278155, 1, 0.05815248, 0.04814909, 0.01281287, 0.0008366742, 0.02880075, -0.05572393, -0.02170986, -0.0206969, -0.05394204, -0.07569986
XKF1, 54278155, 1, -3.15, -1.87, 18, 0.01481284, -0.05717893, -0.02158888, -0.008206715, 0.2329519, 0.485975, -0.1158377, 0.01, 0.03, -0.2, 648.57
XKF2, 54278155, 1, 0, 0.01, -0.03, 0, 0, 400, -5, 143, 0, 0, 0, 0, 0, 0
XKF3, 54278155, 1, 0, 0.01, 0.01, -0.04, 0.1, -0.06, 0, 0, 0, -1.61, 0, 0.01606107, 0.0001595244
XKFS, 54278155, 1, 0, 0, 0, 0, 0, 1, 0, 1
XKQ, 54278155, 1, 0.9872509, -0.02461275, -0.02048903, 0.1559165
AHR2, 54279102, -3.68, -5.26, 17.43, 648.72, 15.3669559, 75.1254343, 0.9871206, -0.02478874, -0.05027564, 0.1498359
POS, 54279108, 15.3669559, 75.1254355, 648.7, 0.03046711, 0.1204671
MOTB, 54279112, 1, 1, 1, 0.02570977, 0, 2
RCIN, 54279118, 1102, 1927, 1102, 1927, 1102, 1000, 1000, 1000, 1000, 875, 875, 875, 875, 875
RCI2, 54279127, 875, 875, 0, 1
RCOU, 54279159, 1000, 1000, 1000, 1000, 0, 0, 0, 0, 0, 0, 0, 0, 0, 0
RCO2, 54279163, 0, 0, 0, 0
VIBE, 54279167, 0, 0.600788, 0.3210239, 0.4742778, 0
VIBE, 54279167, 1, 0.8026168, 0.4367517, 0.6236113, 0
CTRL, 54279176, 0.2012907, 0.001205141, 0.2435165, 0.001605479, 0.07356805
DCM, 54280611, -3.683672, -5.261168, 17.43341, 0.1050786, 0.03193295, 0, 0, 0
EAHR, 54280630, 0, 0, 0, 0, 0, 0, 0, 0, 0, 0
FILE, @SYS/timers.txt, 0, 64, TIMERV1\nTIM5  CLK= 200Mhz MODE=  PWM FREQ=       7 TGT=       8\n
FILE, @SYS/timers.txt, 64, 64, TIM4  CLK= 200Mhz MODE=  PWM FREQ=       7 TGT=       8\nTIM1  CL
IMU, 54298456, 0, 0.03008908, 0.01435858, 0.009664933, -0.2660938, 1.166692, -9.843735, 0, 0, 44.80676, 1, 1, 2022, 2022
IMU, 54298456, 1, 0.03598418, 0.03172095, 0.01101275, -0.2660897, 1.310597, -10.0303, 0, 0, 45, 1, 1, 1999, 2046
RAD, 54308451, 61, 0, 100, 96, 0, 0, 0
FILE, @SYS/timers.txt, 128, 48, K= 200Mhz MODE=  PWM FREQ=       7 TGT=       8\n
SURF, 54328737, 0, 2, 0, 0, 0.1117395
SURF, 54328746, 1, 2, 0, 0, 0.1117395
STAK, 54329869, 7, 177, 1456, 848, rcin
FILE, @ROMFS/hwdef.dat, 0, 64, MCU STM32H7xx STM32H743xx\nOSCILLATOR_HZ 16000000\nSTM32_ST_USE_TI
IMU, 54338481, 0, -0.00467781, -0.01091015, 0.005174367, 0.173339, -0.5864699, -9.99517, 0, 0, 44.32367, 1, 1, 2022, 2022
IMU, 54338481, 1, -0.001713644, 0.002894811, 0.006241519, 0.07843909, -0.5643195, -10.05218, 0, 0, 45, 1, 1, 1999, 2046
FILE, @ROMFS/hwdef.dat, 64, 64, MER 2\nUSB_VENDOR 0x3162\nUSB_PRODUCT 0x0053\nUSB_STRING_MANUFACTUR
FILE, @ROMFS/hwdef.dat, 128, 64, ER "Holybro"\nAPJ_BOARD_ID 56\nFLASH_RESERVE_START_KB 128\nenv USE_
FILE, @ROMFS/hwdef.dat, 192, 64, ALT_RAM_MAP 1\nFLASH_SIZE_KB 2048\nenv OPTIMIZE -O2\nSERIAL_ORDER O
POWR, 54378663, 4.963595, 0, 1, 1, 6
MCU, 54378663, 37.49503, 3.348817, 3.342215, 3.354879
BAT, 54378734, 0, 15.81809, 15.93785, 0.8870573, 13.93329, 0.2216303, 0, 0.1350079, 99, 1, 0
MAG, 54378746, 0, 572, -212, 121, 102, 25, 42, 0, 0, 0, 1, 54378745
MAG, 54378746, 1, 369, -57, 151, 13, 26, -45, 0, 0, 0, 1, 54378743
SURF, 54378764, 0, 2, 0, 0, 0.1123035
SURF, 54378773, 1, 2, 0, 0, 0.1123035
BARO, 54378792, 0, 0.04595947, 648.6259, 93798, 37.76, 0.1332506, 54378, 0, 35, 1
CTUN, 54378805, 0, 0, 0, 0.2570977, 0, 0.1258665, 0.04, NaN, 0, 0.02713394, 0, 2
ATT, 54378885, -20.70461, -2.417838, 22.20733, -1.879167, 18.2073, 18.2073, 3
ANG, 54378010, -20.70461, -2.417838, 22.20733, -1.879167, 18.2073, 18.2073, 0.0025
RATE, 54378024, -85.55829, 0.5987992, -0.2054801, 102.9669, -0.07145584, 0.2425955, 23.09722, 0.7145287, 0.07143763, 0, 6.998539, 0, 0
PIDR, 54378902, -1.492955, 0.01045102, -1.503406, -0.2029598, 0, -0.002520304, 0, 0, 1, 0.2991258, 9
PIDP, 54378906, 1.79726, -0.00124714, 1.798507, 0.2427985, 0, -0.0002030156, 0, 0, 1, 0.3619136, 9
PIDY, 54378927, 0.4032239, 0.01247088, 0.3968757, 0.07143763, 0, 0, 0, 0, 1, 0.1071047, 9
PIDA, 54378931, 0, 0, 0, 0, 0, 0, 0, 0, 0, 0, 0
XKF4, 54378120, 0, 0.03, 0.01, 0, 0.01, 0, 0.007415808, -0.1770515, 0.6767046, 0, 48, 109375, 0, 0
XKY0, 54378120, 0, 353.8527, 12.11738, 221.2232, 289.8377, 355.9174, 67.76447, 145.2138, 0.1470841, 0.212328, 0.2615853, 0.224286, 0.1547167
XKY1, 54378120, 0, -1.492918, 0.3588502, 1.723228, 0.827152, -1.414108, -1.126269, -1.829637, -0.4483649, 1.495471, 1.066571
XKF1, 54378120, 0, -2.41, -1.87, 18.2, 0.07513814, -0.01529906, -0.02783406, -0.04397305, 0.2725586, 0.5083449, -0.1258665, -0.23, -0.88, -0.27, 648.57
XKF2, 54378120, 0, 0, 0.01, 0.02, 0, 0, 400, -5, 143, 0, 0, 0, 0, 0, 0
XKF3, 54378120, 0, 0, -0.01, 0.09, 0, 0.12, -0.1, 0, 0, 0, -1.54, 0, 0, 0.0007253095
XKF5, 54378120, 0, 0, 0, 0, 0, 0.19, 0.05, 0, 0, 0.5, 0.0004827149, 0.005030785, 0.01017722
XKFS, 54378120, 0, 0, 0, 0, 0, 0, 1, 0, 1
XKQ, 54378120, 0, 0.987106, -0.01823555, -0.01952564, 0.1578229
XKF4, 54378120, 1, 0.04, 0.01, 0, 0.01, 0, 0.007390708, -0.1216151, 0.7326993, 0, 48, 109375, 0, 0
XKY0, 54378120, 1, 6.762811, 14.23462, 216.029, 288.1556, 359.9346, 71.67168, 143.7296, 0.1980224, 0.2004343, 0.202254, 0.2009503, 0.1983389
XKY1, 54378120, 1, -0.03597961, -0.03728525, -0.0337504, -0.03025115, -0.03160902, -0.07645129, -0.08061157, -0.08313143, -0.0805651, -0.07642432
XKF1, 54378120, 1, -3.1, -1.8, 18.07, 0.03065324, -0.05310708, -0.02523101, -0.04590797, 0.239865, 0.4751976, -0.1211827, 0.01, 0.03, -0.2, 648.57
XKF2, 54378120, 1, 0, 0, -0.03, 0, 0, 400, -5, 143, 0, 0, 0, 0, 0, 0
XKF3, 54378120, 1, -0.03, -0.06, 0.09, -0.03, 0.09, -0.1, 0, 0, 0, -1.51, 0, 0.02605593, 0.0009535139
XKFS, 54378120, 1, 0, 0, 0, 0, 0, 1, 0, 1
XKQ, 54378120, 1, 0.9871654, -0.02424692, -0.01983215, 0.1565991
AHR2, 54379023, -3.6, -5.21, 17.51, 648.7, 15.3669561, 75.1254343, 0.9870459, -0.02412485, -0.04975475, 0.1506086
POS, 54379029, 15.366956, 75.1254354, 648.7, 0.03586652, 0.1258665
MOTB, 54379033, 1, 1, 1, 0.02570977, 0, 2
RCIN, 54379039, 1102, 1927, 1102, 1927, 1102, 1000, 1000, 1000, 1000, 875, 875, 875, 875, 875
RCI2, 54379043, 875, 875, 0, 1
RCOU, 54379049, 1000, 1000, 1000, 1000, 0, 0, 0, 0, 0, 0, 0, 0, 0, 0
RCO2, 54379053, 0, 0, 0, 0
VIBE, 54379057, 0, 0.5432298, 0.7510966, 0.6120554, 0
VIBE, 54379057, 1, 0.6572008, 0.8090879, 0.7129084, 0
CTRL, 54379065, 0.2017327, 0.001760351, 0.2427383, 0.001854135, 0.07309408
IMU, 54379075, 0, 0.006421871, -0.01673501, 0.007647076, -0.4294089, 1.103494, -9.805989, 0, 0, 44.80676, 1, 1, 2022, 2022
IMU, 54379075, 1, 0.01132619, 0.002037144, 0.007576047, -0.4395232, 1.284513, -9.895454, 0, 0, 45, 1, 1, 1999, 2046
DCM, 54380597, -3.607904, -5.219546, 17.51767, 0.1050786, 0.03197407, 0, 0, 0
EAHR, 54380620, 0, 0, 0, 0, 0, 0, 0, 0, 0, 0
FILE, @ROMFS/hwdef.dat, 256, 64, TG1 UART7 UART5 USART1 UART8 USART2 USART3 OTG2\nPA11 OTG_FS_DM O
FILE, @ROMFS/hwdef.dat, 320, 64, TG1\nPA12 OTG_FS_DP OTG1\nPA9 VBUS INPUT OPENDRAIN\nPA13 JTMS-SWDIO
FILE, @ROMFS/hwdef.dat, 384, 64,  SWD\nPA14 JTCK-SWCLK SWD\nPE8  UART7_TX UART7\nPE7  UART7_RX UART7
FILE, @ROMFS/hwdef.dat, 448, 64, \nPE9  UART7_RTS UART7 LOW PULLDOWN\nPE10 UART7_CTS UART7\nPC12 UAR
IMU, 54418851, 0, -0.007715437, -0.0244929, -0.01045868, -0.2830548, 0.2441463, -9.830944, 0, 0, 44.80676, 1, 1, 2022, 2022
IMU, 54418851, 1, -0.002775723, -0.007015963, -0.008824669, -0.3565872, 0.3105626, -9.865423, 0, 0, 45, 1, 1, 1999, 2046
FILE, @ROMFS/hwdef.dat, 512, 64, T5_TX UART5\nPD2 UART5_RX UART5\nPC8 UART5_RTS UART5 LOW PULLDOWN\n
SURF, 54428765, 0, 2, 0, 0, 0.1129658
SURF, 54428774, 1, 2, 0, 0, 0.1129658
STAK, 54429964, 8, 58, 2480, 1576, io
MAV, 54431116, 1, 84, 336, 0, 2, 0, 0
FILE, @ROMFS/hwdef.dat, 576, 64, PC9 UART5_CTS UART5\nPB6  USART1_TX USART1\nPA10 USART1_RX USART1\n
FILE, @ROMFS/hwdef.dat, 640, 64, PE1 UART8_TX UART8\nPE0 UART8_RX UART8\nPD5 USART2_TX USART2\nPA3 U
IMU, 54458472, 0, -0.008411941, -0.01520519, 0.03527584, -0.122608, -0.1171004, -9.787381, 0, 0, 44.80676, 1, 1, 2022, 2022
IMU, 54458472, 1, -0.00530477, 9.708018E-05, 0.03527994, -0.02065116, -0.1971167, -9.829644, 0, 0, 45, 1, 1, 1999, 2046
FILE, @ROMFS/hwdef.dat, 704, 64, SART2_RX USART2\nPD8 USART3_TX USART3\nPD9 USART3_RX USART3\nPC6 US
FILE, @ROMFS/hwdef.dat, 768, 64, ART6_TX USART6\nPC7 USART6_RX USART6\nIOMCU_UART USART6\nPC5 BATT_V
GPS, 54478794, 0, 3, 212196800, 2379, 13, 0.78, 15.3669563, 75.1254342, 647.35, 0.141, 330.3039, -0.185, 0, 1
GPA, 54478794, 0, 1.35, 0.88, 1.63, 0.42, 0, 1, 54471, 200, 569.33, 0, 0
POWR, 54478808, 4.967322, 0, 1, 1, 6
MCU, 54478808, 37.51491, 3.349239, 3.341935, 3.354738
BAT, 54478820, 0, 15.82331, 15.93279, 0.810893, 13.95584, 0.221987, 0, 0.1350079, 99, 1, 0
MAG, 54478835, 0, 565, -219, 130, 102, 25, 42, 0, 0, 0, 1, 54478833
MAG, 54478835, 1, 369, -63, 153, 13, 26, -45, 0, 0, 0, 1, 54478829
SURF, 54478852, 0, 2, 0, 0, 0.1137119
SURF, 54478861, 1, 2, 0, 0, 0.1137119
BARO, 54478881, 0, 0.07244873, 648.6524, 93797.73, 37.77, 0.2886848, 54478, 0, 35, 1
CTUN, 54478893, 0, 0, 0, 0.2570977, 0, 0.130483, 0.07, NaN, 0, 0.03658462, 0, 2
ATT, 54478946, -20.70461, -2.475164, 22.20733, -1.932274, 18.25418, 18.25418, 3
ANG, 54478010, -20.70461, -2.475164, 22.20733, -1.932274, 18.25418, 18.25418, 0.0025
RATE, 54478026, -85.32842, -1.678432, -0.1927803, 103.181, -1.618793, 0.251966, 23.20066, -1.742836, 0.07046326, 0, -4.645443, 0, 0
PIDR, 54478979, -1.49049, -0.02929416, -1.461196, -0.1972614, 0, 0.004481125, 0, 0, 1, 0.341342, 9
PIDP, 54478995, 1.799404, -0.02825326, 1.827658, 0.2467338, 0, 0.005232186, 0, 0, 1, 0.3825555, 9
PIDY, 54479001, 0.4043018, -0.03041823, 0.3914625, 0.07046326, 0, 0, 0, 0, 1, 0.1097464, 9
PIDA, 54479005, 0, 0, 0, 0, 0, 0, 0, 0, 0, 0, 0
XKF4, 54478141, 0, 0.03, 0.01, 0, 0.01, 0, 0.007477012, -0.1770515, 0.6767046, 0, 48, 109375, 0, 0
XKY0, 54478141, 0, 353.938, 12.1174, 221.3085, 289.923, 356.0028, 67.84981, 145.2991, 0.1470841, 0.212328, 0.2615853, 0.224286, 0.1547167
XKY1, 54478141, 0, -1.492918, 0.3588502, 1.723228, 0.827152, -1.414108, -1.126269, -1.829637, -0.4483649, 1.495471, 1.066571
XKF1, 54478141, 0, -2.47, -1.93, 18.25, 0.1094696, -0.03931832, -0.02757674, -0.0536203, 0.2809975, 0.5003026, -0.130483, -0.23, -0.88, -0.27, 648.57
XKF2, 54478141, 0, 0, 0.01, 0.02, 0, 0, 400, -5, 143, 0, 0, 0, 0, 0, 0
XKF3, 54478141, 0, 0, -0.01, 0.09, 0, 0.12, -0.09, 0, 0, 0, -1.07, 0, 0, 0.0007253095
XKF5, 54478141, 0, 0, 0, 0, 0, 0.19, 0.05, 0, 0, 0.5, 0.0004150577, 0.007402425, 0.0127264
XKFS, 54478141, 0, 0, 0, 0, 0, 0, 1, 0, 1
XKQ, 54478141, 0, 0.987026, -0.01864769, -0.02006963, 0.1582058
XKF4, 54478141, 1, 0.04, 0.01, 0, 0.01, 0, 0.007447151, -0.1216151, 0.7326993, 0, 48, 109375, 0, 0
XKY0, 54478141, 1, 6.825161, 14.23465, 216.0916, 288.2182, 359.9972, 71.7343, 143.7923, 0.1980224, 0.2004343, 0.202254, 0.2009503, 0.1983389
XKY1, 54478141, 1, -0.03597961, -0.03728525, -0.0337504, -0.03025115, -0.03160902, -0.07645129, -0.08061157, -0.08313143, -0.0805651, -0.07642432
XKF1, 54478141, 1, -3.15, -1.86, 18.12, 0.06129486, -0.08350246, -0.02423069, -0.05153732, 0.2465967, 0.4657924, -0.1257027, 0.01, 0.03, -0.2, 648.57
XKF2, 54478141, 1, 0, 0, -0.03, 0, 0, 400, -5, 143, 0, 0, 0, 0, 0, 0
XKF3, 54478141, 1, -0.03, -0.06, 0.09, -0.03, 0.09, -0.09, 0, 0, 0, -1.07, 0, 0.03518409, 0.0009535139
XKFS, 54478141, 1, 0, 0, 0, 0, 0, 1, 0, 1
XKQ, 54478141, 1, 0.9870841, -0.02464897, -0.02038113, 0.1569779
AHR2, 54479122, -3.63, -5.29, 17.56, 648.71, 15.3669562, 75.1254343, 0.9869487, -0.02425878, -0.05044231, 0.1509944
POS, 54479128, 15.3669561, 75.1254353, 648.71, 0.04048302, 0.130483
MOTB, 54479137, 1, 1, 1, 0.02570977, 0, 2
RCIN, 54479165, 1102, 1927, 1102, 1927, 1102, 1000, 1000, 1000, 1000, 875, 875, 875, 875, 875
RCI2, 54479198, 875, 875, 0, 1
RCOU, 54479215, 1000, 1000, 1000, 1000, 0, 0, 0, 0, 0, 0, 0, 0, 0, 0
RCO2, 54479219, 0, 0, 0, 0
VIBE, 54479223, 0, 0.526041, 0.5547963, 0.343134, 0
VIBE, 54479223, 1, 0.5157862, 0.5931733, 0.402035, 0
CTRL, 54479231, 0.2013862, 0.001855478, 0.2429958, 0.001887826, 0.07238066
DCM, 54480656, -3.639103, -5.302124, 17.5508, 0.08806611, 0.03493372, 0, 0, 0
EAHR, 54480675, 0, 0, 0, 0, 0, 0, 0, 0, 0, 0
FMT, 254, 35, IOMC, QHHIIIII, TimeUS,RSErr,Mem,TS,NPkt,Nerr,Nerr2,NDel
IOMC, 54481230, 0, 12896, 54480, 23642, 0, 0, 0
FILE, @ROMFS/hwdef.dat, 832, 64, OLTAGE_SENS ADC1 SCALE(1)\nPC4 BATT_CURRENT_SENS ADC1 SCALE(1)\nPB
IMU, 54498501, 0, -0.04511412, -0.06778271, -0.09971014, 0.02622405, 0.2408743, -9.71963, 0, 0, 44.80676, 1, 1, 2022, 2022
IMU, 54498501, 1, -0.04135725, -0.04983692, -0.1004828, -0.1640104, 0.422633, -9.763629, 0, 0, 45, 1, 1, 1999, 2046
FILE, @ROMFS/hwdef.dat, 896, 64, 1 BATT2_VOLTAGE_SENS ADC1 SCALE(1)\nPA2 BATT2_CURRENT_SENS ADC1 S
FILE, @ROMFS/hwdef.dat, 960, 64, CALE(1)\ndefine HAL_BATT_VOLT_PIN 8\ndefine HAL_BATT_CURR_PIN 4\nde
FILE, @ROMFS/hwdef.dat, 1024, 64, fine HAL_BATT_VOLT_SCALE 18.18\ndefine HAL_BATT_CURR_SCALE 36.36\n
SURF, 54528753, 0, 2, 0, 0, 0.1145308
SURF, 54528762, 1, 2, 0, 0, 0.1145308
STAK, 54530028, 9, 59, 1456, 952, storage
FILE, @ROMFS/hwdef.dat, 1088, 64, PA4 VDD_5V_SENS  ADC1 SCALE(2)\nPA5 SPI1_SCK SPI1\nPA6 SPI1_MISO S
IMU, 54538424, 0, -0.004850941, -0.01713817, 0.002887299, -1.351519, 1.536317, -9.727789, 0, 0, 44.80676, 1, 1, 2022, 2022
IMU, 54538424, 1, -2.079875E-05, 0.0002623081, 0.004609911, -1.376203, 1.661057, -9.798545, 0, 0, 45, 1, 1, 1999, 2046
FILE, @ROMFS/hwdef.dat, 1152, 64, PI1\nPA7 SPI1_MOSI SPI1\nPC13 ICM42688_CS CS\nPC14 BMI055_G_CS CS\nP
FILE, @ROMFS/hwdef.dat, 1216, 64, C15 BMI055_A_CS CS\nPE4  BMI055_DRDY_A INPUT\nPE5  BMI055_DRDY_G I
FILE, @ROMFS/hwdef.dat, 1280, 64, NPUT\nPE6  ICM42688_DRDY INPUT\nPD3 SPI2_SCK SPI2\nPC2 SPI2_MISO SP
POWR, 54578623, 4.969738, 0, 1, 1, 6
MCU, 54578623, 37.49503, 3.348958, 3.341094, 3.355586
BAT, 54578636, 0, 15.82139, 15.93343, 0.8299341, 13.97885, 0.2223511, 0, 0.1350079, 99, 1, 0
MAG, 54578666, 0, 564, -220, 105, 102, 25, 42, 0, 0, 0, 1, 54578647
MAG, 54578666, 1, 367, -66, 149, 13, 26, -45, 0, 0, 0, 1, 54578645
SURF, 54578684, 0, 2, 0, 0, 0.1155732
SURF, 54578693, 1, 2, 0, 0, 0.1155732
BARO, 54578712, 0, 0.08129883, 648.6613, 93797.63, 37.77, 0.2073029, 54578, 0, 35, 1
CTUN, 54578725, 0, 0, 0, 0.2570977, 0, 0.1407856, 0.08, NaN, 0, 0.04627945, 0, 3
DU32, 54578743, 7, 6349272
TERR, 54578813, 2, 15.3669562, 75.1254352, 100, 648.6737, 0.04627945, 0, 224, 18.08087
ATT, 54578901, -20.70461, -2.542467, 22.20733, -2.007436, 18.21949, 18.21949, 3
ANG, 54578016, -20.70461, -2.542467, 22.20733, -2.007436, 18.21949, 18.21949, 0.002502
RATE, 54578031, -85.06216, 0.1608125, -0.200527, 103.4869, 0.6004847, 0.2440114, 23.33524, 2.922202, 0.07217892, 0, -1.16663, 0, 0
PIDR, 54578918, -1.484634, 0.002806707, -1.487441, -0.2008045, 0, 0.0002775833, 0, 0, 1, 0.3758904, 9
PIDP, 54578922, 1.80652, 0.01048044, 1.796039, 0.2424653, 0, 0.001546038, 0, 0, 1, 0.4053352, 9
PIDY, 54578926, 0.4073447, 0.05100205, 0.400994, 0.07217892, 0, 0, 0, 0, 1, 0.1203826, 9
PIDA, 54578929, 0, 0, 0, 0, 0, 0, 0, 0, 0, 0, 0
XKF4, 54578152, 0, 0.05, 0.01, 0, 0.02, 0, 0.007433285, -0.1770515, 0.6767046, 0, 48, 109375, 0, 0
XKY0, 54578152, 0, 17.69451, 9.692063, 221.7102, 290.8209, 356.3107, 67.12713, 144.6224, 0.06447454, 0.1570747, 0.3666407, 0.3128072, 0.09900282
XKY1, 54578152, 0, -1.89003, 0.4480161, 2.09138, 0.9526911, -1.765485, -1.322123, -2.185349, -0.4213929, 1.910097, 1.397937
XKF1, 54578152, 0, -2.54, -2, 18.21, 0.0819867, -0.009293385, -0.03227838, -0.09667209, 0.2931134, 0.4900815, -0.1407856, -0.23, -0.88, -0.27, 648.57
XKF2, 54578152, 0, 0, 0.01, 0.02, 0, 0, 400, -5, 143, 0, 0, 0, 0, 0, 0
XKF3, 54578152, 0, -0.05, 0.01, 0.15, -0.02, 0.12, -0.09, 0, 0, 0, -1.88, 0, 0, 0.001738888
XKF5, 54578152, 0, 0, 0, 0, 0, 0.21, 0.05, 0, 0, 0.5, 0.0004943047, 0.01280606, 0.02028299
XKFS, 54578152, 0, 0, 0, 0, 0, 0, 1, 0, 1
XKQ, 54578152, 0, 0.9870539, -0.01912945, -0.02080407, 0.1578791
XKT, 54578152, 0, 408, 0.002500002, 0.002500002, 0.01248831, 0.01250836, 0.01186827, 0.01335191, 0.01186829, 0.01335193
XKF4, 54578152, 1, 0.06, 0.01, 0, 0.02, 0, 0.007405336, -0.1216151, 0.7326993, 0, 48, 109375, 0, 0
XKY0, 54578152, 1, 341.1324, 14.43109, 216.2183, 288.2142, 359.9691, 71.82142, 143.9754, 0.1988896, 0.2011584, 0.2018281, 0.1999664, 0.1981575
XKY1, 54578152, 1, -0.07027271, -0.08108704, -0.1003704, -0.1016161, -0.08303281, -0.04200825, -0.02516584, -0.03020921, -0.05009211, -0.0574826
