FMT, 128, 89, FMT, BBnNZ, Type,Length,Name,Format,Columns
FMT, 118, 44, FMTU, QBNN, TimeUS,FmtType,UnitIds,MultIds
FMT, 163, 54, IMU, QBffffffIIfBBHH, TimeUS,I,GyrX,GyrY,GyrZ,AccX,AccY,AccZ,EG,EA,T,GH,AH,GHz,AHz
IMU, 17997203, 0, 0.001228264, -0.008654824, -0.001600417, 0.4306883, 0.8640715, -9.879297, 0, 0, 45.28986, 1, 1, 2022, 2022
IMU, 17997203, 1, 0.001739388, -0.001867018, -0.004715496, 0.442401, 0.8529441, -9.787587, 0, 0, 46, 1, 1, 2000, 2043
FMT, 119, 76, UNIT, QbZ, TimeUS,Id,Label
FMT, 120, 20, MULT, Qbd, TimeUS,Id,Mult
FMT, 32, 35, PARM, QNff, TimeUS,Name,Value,Default
FMT, 94, 51, GPS, QBBIHBcLLeffffB, TimeUS,I,Status,GMS,GWk,NSats,HDop,Lat,Lng,Alt,Spd,GCrs,VZ,Yaw,U
FMT, 95, 39, GPA, QBCCCCfBIHeHH, TimeUS,I,VDop,HAcc,VAcc,SAcc,YAcc,VV,SMS,Delta,AEl,RTCMFU,RTCMFD
FMT, 99, 22, UBX1, QBHBBHI, TimeUS,Instance,noisePerMS,jamInd,aPower,agcCnt,config
FMT, 100, 16, UBX2, QBbBbB, TimeUS,Instance,ofsI,magI,ofsQ,magQ
FMT, 96, 42, GRAW, QIHBBddfBbB, TimeUS,WkMS,Week,numSV,sv,cpMes,prMes,doMes,mesQI,cno,lli
FMT, 97, 24, GRXH, QdHbBB, TimeUS,rcvTime,week,leapS,numMeas,recStat
FMT, 98, 41, GRXS, QddfBBBHBBBBB, TimeUS,prMes,cpMes,doMes,gnss,sv,freq,lock,cno,prD,cpD,doD,trk
FMT, 101, 23, SBPH, QIII, TimeUS,CrcError,LastInject,IARhyp
FMT, 102, 67, SBRH, QQQQQQQQ, TimeUS,msg_flag,1,2,3,4,5,6
FMT, 103, 123, SBRM, QQQQQQQQQQQQQQQ, TimeUS,msg_flag,1,2,3,4,5,6,7,8,9,10,11,12,13
FMT, 104, 23, SBRE, QHIiBB, TimeUS,GWk,GMS,ns_residual,level,quality
FMT, 59, 75, MSG, QZ, TimeUS,Message
FMT, 60, 39, RCIN, QHHHHHHHHHHHHHH, TimeUS,C1,C2,C3,C4,C5,C6,C7,C8,C9,C10,C11,C12,C13,C14
FMT, 61, 18, RCI2, QHHHB, TimeUS,C15,C16,OMask,Flags
FMT, 62, 39, RCOU, QHHHHHHHHHHHHHH, TimeUS,C1,C2,C3,C4,C5,C6,C7,C8,C9,C10,C11,C12,C13,C14
FMT, 207, 19, RCO2, QHHHH, TimeUS,C15,C16,C17,C18
FMT, 208, 39, RCO3, QHHHHHHHHHHHHHH, TimeUS,C19,C20,C21,C22,C23,C24,C25,C26,C27,C28,C29,C30,C31,C32
FMT, 63, 19, RSSI, Qff, TimeUS,RXRSSI,RXLQ
FMT, 64, 43, BARO, QBfffcfIffB, TimeUS,I,Alt,AltAMSL,Press,Temp,CRt,SMS,Offset,GndTemp,Health
FMT, 65, 24, BARD, QBfff, TimeUS,I,DynPrX,DynPrY,DynPrZ
FMT, 66, 25, CANF, QBIBBBBBBBBB, TimeUS,Bus,Id,DLC,B0,B1,B2,B3,B4,B5,B6,B7
FMT, 67, 81, CAFD, QBIBQQQQQQQQ, TimeUS,Bus,Id,DLC,D0,D1,D2,D3,D4,D5,D6,D7
FMT, 196, 50, PL, QBBfffffffIIB, TimeUS,Heal,TAcq,pX,pY,vX,vY,mX,mY,mZ,LastMeasMS,EKFOutl,Est
FMT, 68, 24, POWR, QffHHB, TimeUS,Vcc,VServo,Flags,AccFlags,Safety
FMT, 69, 27, MCU, Qffff, TimeUS,MTemp,MVolt,MVmin,MVmax
FMT, 93, 46, CMD, QHHHffffLLfB, TimeUS,CTot,CNum,CId,Prm1,Prm2,Prm3,Prm4,Lat,Lng,Alt,Frame
FMT, 92, 46, MISE, QHHHffffLLfB, TimeUS,CTot,CNum,CId,Prm1,Prm2,Prm3,Prm4,Lat,Lng,Alt,Frame
FMT, 78, 48, MAVC, QBBBBBHffffiifBB, TimeUS,TS,TC,SS,SC,Fr,Cmd,P1,P2,P3,P4,X,Y,Z,Res,WL
FMT, 79, 20, RAD, QBBBBBHH, TimeUS,RSSI,RemRSSI,TxBuf,Noise,RemNoise,RxErrors,Fixed
FMT, 81, 46, CAM, QBHIHLLeeeccC, TimeUS,I,Img,GPSTime,GPSWeek,Lat,Lng,Alt,RelAlt,GPSAlt,R,P,Y
FMT, 82, 46, TRIG, QBHIHLLeeeccC, TimeUS,I,Img,GPSTime,GPSWeek,Lat,Lng,Alt,RelAlt,GPSAlt,R,P,Y
FMT, 83, 48, MNT, QBfffffffff, TimeUS,I,DRoll,Roll,DPitch,Pitch,DYawB,YawB,DYawE,YawE,Dist
FMT, 114, 41, ARSP, QBffcffBBffB, TimeUS,I,Airspeed,DiffPress,Temp,RawPress,Offset,U,H,Hp,TR,Pri
FMT, 88, 41, BAT, QBfffffcfBBB, TimeUS,Inst,Volt,VoltR,Curr,CurrTot,EnrgTot,Temp,Res,RemPct,H,SH
FMT, 89, 40, BCL, QBfHHHHHHHHHHHH, TimeUS,Instance,Volt,V1,V2,V3,V4,V5,V6,V7,V8,V9,V10,V11,V12
FMT, 113, 35, MAG, QBhhhhhhhhhBI, TimeUS,I,MagX,MagY,MagZ,OfsX,OfsY,OfsZ,MOX,MOY,MOZ,Health,S
FMT, 122, 14, MODE, QMBB, TimeUS,Mode,ModeNum,Rsn
FMT, 116, 17, RFND, QBCBBb, TimeUS,Instance,Dist,Stat,Orient,Quality
FMT, 117, 36, DMS, QIIIIBBBBBBBBB, TimeUS,N,Dp,RT,RS,Fa,Fmn,Fmx,Pa,Pmn,Pmx,Sa,Smn,Smx
FMT, 174, 41, BCN, QBBfffffff, TimeUS,Health,Cnt,D0,D1,D2,D3,PosX,PosY,PosZ
FMT, 175, 57, PRX, QBBfffffffffff, TimeUS,Layer,He,D0,D45,D90,D135,D180,D225,D270,D315,DUp,CAn,CDis
FMT, 176, 44, PRXR, QBffffffff, TimeUS,Layer,D0,D45,D90,D135,D180,D225,D270,D315
FMT, 179, 61, PM, QHHHIIHHIIIIIIQ, TimeUS,LR,NLon,NL,MaxT,Mem,Load,ErrL,InE,ErC,SPIC,I2CC,I2CI,Ex,R
FMT, 178, 29, SRTL, QBHHBfff, TimeUS,Active,NumPts,MaxPts,Action,N,E,D
FMT, 170, 48, OABR, QBBHHHBfLLiLLi, TimeUS,Type,Act,DYaw,Yaw,DP,RChg,Mar,DLt,DLg,DAlt,OLt,OLg,OAlt
FMT, 171, 31, OADJ, QBBBBLLLL, TimeUS,State,Err,CurrPoint,TotPoints,DLat,DLng,OALat,OALng
FMT, 172, 37, SA, QBffffffB, TimeUS,State,DVelX,DVelY,DVelZ,MVelX,MVelY,MVelZ,Back
FMT, 173, 21, OAVG, QBBLL, TimeUS,version,point_num,Lat,Lon
FMT, 77, 45, SIM, QccCfLLffff, TimeUS,Roll,Pitch,Yaw,Alt,Lat,Lng,Q1,Q2,Q3,Q4
FMT, 84, 38, TERR, QBLLHffHHf, TimeUS,Status,Lat,Lng,Spacing,TerrH,CHeight,Pending,Loaded,ROfs
FMT, 86, 40, ESC, QBffffcfcf, TimeUS,Instance,RPM,RawRPM,Volt,Curr,Temp,CTot,MotTemp,Err
FMT, 87, 15, EDT2, QBBBB, TimeUS,Instance,Stress,MaxStress,Status
FMT, 85, 46, CSRV, QBfffBfffffB, TimeUS,Id,Pos,Force,Speed,Pow,PosCmd,V,A,MotT,PCBT,Err
FMT, 105, 52, PIDR, QffffffffffB, TimeUS,Tar,Act,Err,P,I,D,FF,DFF,Dmod,SRate,Flags
FMT, 106, 52, PIDP, QffffffffffB, TimeUS,Tar,Act,Err,P,I,D,FF,DFF,Dmod,SRate,Flags
FMT, 107, 52, PIDY, QffffffffffB, TimeUS,Tar,Act,Err,P,I,D,FF,DFF,Dmod,SRate,Flags
FMT, 108, 52, PIDA, QffffffffffB, TimeUS,Tar,Act,Err,P,I,D,FF,DFF,Dmod,SRate,Flags
FMT, 109, 52, PIDS, QffffffffffB, TimeUS,Tar,Act,Err,P,I,D,FF,DFF,Dmod,SRate,Flags
FMT, 110, 52, PIDN, QffffffffffB, TimeUS,Tar,Act,Err,P,I,D,FF,DFF,Dmod,SRate,Flags
FMT, 111, 52, PIDE, QffffffffffB, TimeUS,Tar,Act,Err,P,I,D,FF,DFF,Dmod,SRate,Flags
FMT, 112, 56, DSTL, QBfLLeccfeffff, TimeUS,Stg,THdg,Lat,Lng,Alt,XT,Travel,L1I,Loiter,Des,P,I,D
FMT, 161, 32, ACC, QBQfff, TimeUS,I,SampleUS,AccX,AccY,AccZ
FMT, 162, 32, GYR, QBQfff, TimeUS,I,SampleUS,GyrX,GyrY,GyrZ
FMT, 166, 28, VIBE, QBfffI, TimeUS,IMU,VibeX,VibeY,VibeZ,Clip
FMT, 164, 31, ISBH, QHBBHHQf, TimeUS,N,type,instance,mul,smp_cnt,SampleUS,smp_rate
FMT, 165, 207, ISBD, QHHaaa, TimeUS,N,seqno,x,y,z
FMT, 129, 15, RFRH, QI, TimeUS,TF
FMT, 130, 5, RFRF, BB, FTypes,Slow
FMT, 138, 38, RFRN, IIIfIfffBBB, HLat,HLon,HAlt,E2T,AM,TX,TY,TZ,VC,EKT,Flags
FMT, 131, 4, REV2, B, Event
FMT, 132, 15, RSO2, III, Lat,Lon,Alt
FMT, 133, 11, RWA2, ff, Airspeed,uncertainty
FMT, 134, 4, REV3, B, Event
FMT, 135, 15, RSO3, III, Lat,Lon,Alt
FMT, 136, 11, RWA3, ff, Airspeed,Uncertainty
FMT, 137, 16, REY3, ffIB, yawangle,yawangleerr,timestamp_ms,type
FMT, 139, 13, RISH, HBBfBB, LR,PG,PA,LD,AC,GC
FMT, 140, 37, RISI, ffffffffBB, DVX,DVY,DVZ,DAX,DAY,DAZ,DVDT,DADT,Flags,I
FMT, 148, 5, RASH, BB, Primary,NumInst
FMT, 149, 14, RASI, fIBBB, pd,UpdateMS,H,Use,I
FMT, 141, 5, RBRH, BB, Primary,NumInst
FMT, 142, 13, RBRI, IfBB, LastUpdate,Alt,H,I
FMT, 143, 8, RRNH, hhB, GCl,MaxD,NumSensors
FMT, 144, 20, RRNI, fffHBBB, PX,PY,PZ,Dist,Orient,Status,I
FMT, 145, 5, RGPH, BB, NumInst,Primary
FMT, 146, 23, RGPI, ffffBBBB, OX,OY,OZ,Lg,Flags,Stat,NSats,I
FMT, 147, 58, RGPJ, IffffffIiiiffHB, TS,VX,VY,VZ,SA,Y,YA,YT,Lat,Lon,Alt,HA,VA,HD,I
FMT, 153, 14, RMGH, fBBBBBBB, Dec,Avail,NumInst,AutoDec,NumEna,LOE,C,FUsable
FMT, 154, 35, RMGI, IffffffBBBB, LU,OX,OY,OZ,FX,FY,FZ,UFY,H,HSF,I
FMT, 150, 33, RBCH, ffffiiiBB, PX,PY,PZ,AE,OLat,OLng,OAlt,Flags,NumInst
FMT, 151, 25, RBCI, IffffBB, LU,PX,PY,PZ,Dist,H,I
FMT, 152, 21, RVOH, fffIBB, OX,OY,OZ,Del,H,Ena
FMT, 155, 40, ROFH, ffffIffffB, FX,FY,GX,GY,Tms,PX,PY,PZ,HgtOvr,Qual
FMT, 156, 49, REPH, fffffffffIIH, PX,PY,PZ,Q1,Q2,Q3,Q4,PEr,AEr,TS,RT,D
FMT, 157, 19, RSLL, IIfI, Lat,Lng,PosAccSD,TS
FMT, 158, 25, REVH, ffffIH, VX,VY,VZ,Er,TS,D
FMT, 159, 31, RWOH, ffIffff, DA,DT,TS,PX,PY,PZ,R
FMT, 160, 53, RBOH, ffffffffIfffH, Q,DPX,DPY,DPZ,DAX,DAY,DAZ,DT,TS,OX,OY,OZ,D
FMT, 43, 37, XKF0, QBBccCCcccccccc, TimeUS,C,ID,rng,innov,SIV,TR,BPN,BPE,BPD,OFH,OFL,OFN,OFE,OFD
FMT, 44, 56, XKF1, QBccCfffffffccce, TimeUS,C,Roll,Pitch,Yaw,VN,VE,VD,dPD,PN,PE,PD,GX,GY,GZ,OH
FMT, 45, 46, XKF2, QBccccchhhhhhfff, TimeUS,C,AX,AY,AZ,VWN,VWE,MN,ME,MD,MX,MY,MZ,IDX,IDY,IS
FMT, 46, 42, XKF3, QBcccccchhhccff, TimeUS,C,IVN,IVE,IVD,IPN,IPE,IPD,IMX,IMY,IMZ,IYAW,IVT,RErr,ErSc
FMT, 47, 44, XKF4, QBcccccfffHBIHb, TimeUS,C,SV,SP,SH,SM,SVT,errRP,OFN,OFE,FS,TS,SS,GPS,PI
FMT, 48, 41, XKF5, QBBhhhcccCCfff, TimeUS,C,NI,FIX,FIY,AFI,HAGL,offset,RI,rng,Herr,eAng,eVel,ePos
FMT, 49, 36, XKFD, QBffffff, TimeUS,C,IX,IY,IZ,IVX,IVY,IVZ
FMT, 50, 29, XKFM, QBBffff, TimeUS,C,OGNM,GLR,ALR,GDR,ADR
FMT, 51, 20, XKFS, QBBBBBBBBB, TimeUS,C,MI,BI,GI,AI,SS,GPS_GTA,GPS_CHK_WAIT,MAG_FUSION
FMT, 52, 28, XKQ, QBffff, TimeUS,C,Q1,Q2,Q3,Q4
FMT, 53, 48, XKT, QBIffffffff, TimeUS,C,Cnt,IMUMin,IMUMax,EKFMin,EKFMax,AngMin,AngMax,VMin,VMax
FMT, 54, 20, XKTV, QBff, TimeUS,C,TVS,TVD
FMT, 55, 60, XKV1, QBffffffffffff, TimeUS,C,V00,V01,V02,V03,V04,V05,V06,V07,V08,V09,V10,V11
FMT, 56, 60, XKV2, QBffffffffffff, TimeUS,C,V12,V13,V14,V15,V16,V17,V18,V19,V20,V21,V22,V23
FMT, 57, 60, XKY0, QBffffffffffff, TimeUS,C,YC,YCS,Y0,Y1,Y2,Y3,Y4,W0,W1,W2,W3,W4
FMT, 58, 52, XKY1, QBffffffffff, TimeUS,C,IVN0,IVN1,IVN2,IVN3,IVN4,IVE0,IVE1,IVE2,IVE3,IVE4
FMT, 41, 60, NKY0, QBffffffffffff, TimeUS,C,YC,YCS,Y0,Y1,Y2,Y3,Y4,W0,W1,W2,W3,W4
FMT, 42, 52, NKY1, QBffffffffff, TimeUS,C,IVN0,IVN1,IVN2,IVN3,IVN4,IVE0,IVE1,IVE2,IVE3,IVE4
FMT, 70, 45, AHR2, QccCfLLffff, TimeUS,Roll,Pitch,Yaw,Alt,Lat,Lng,Q1,Q2,Q3,Q4
FMT, 71, 19, AOA, Qff, TimeUS,AOA,SSA
FMT, 72, 36, ATT, QffffffB, TimeUS,DesRoll,Roll,DesPitch,Pitch,DesYaw,Yaw,AEKF
FMT, 73, 24, ORGN, QBLLe, TimeUS,Type,Lat,Lng,Alt
FMT, 74, 31, POS, QLLfff, TimeUS,Lat,Lng,Alt,RelHomeAlt,RelOriginAlt
FMT, 76, 35, ATSC, Qffffff, TimeUS,AngPScX,AngPScY,AngPScZ,PDScX,PDScY,PDScZ
FMT, 204, 51, VSTB, Qffffffffff, TimeUS,GyrX,GyrY,GyrZ,AccX,AccY,AccZ,Q1,Q2,Q3,Q4
FMT, 90, 38, MON, QIbIHHHHHII, TimeUS,Dly,Tsk,IErr,IErrCnt,IErrLn,MM,MC,SmLn,SPICnt,I2CCnt
FMT, 91, 47, WDOG, QbIHHHHHHHIBIIn, TimeUS,Tsk,IE,IEC,IEL,MvMsg,MvCmd,SmLn,FL,FT,FA,FP,ICSR,LR,TN
FMT, 210, 20, UART, QBff, TimeUS,I,Tx,Rx
FMT, 115, 21, RPM, QBffB, TimeUS,I,RPM,Qual,H
FMT, 209, 27, FNCE, QBBBLLBf, TimeUS,Tot,Seq,Type,Lat,Lng,Count,Radius
FMT, 177, 33, DSF, QIHIIII, TimeUS,Dp,Blk,Bytes,FMn,FMx,FAv
FMT, 121, 24, RALY, QBBLLhB, TimeUS,Tot,Seq,Lat,Lng,Alt,Flags
FMT, 183, 23, MAV, QBHHHBHH, TimeUS,chan,txp,rxp,rxdp,flags,ss,tf
FMT, 167, 43, VISO, Qffffffff, TimeUS,dt,AngDX,AngDY,AngDZ,PosDX,PosDY,PosDZ,conf
FMT, 168, 58, VISP, QQIffffffffBBb, TimeUS,RTimeUS,CTimeMS,PX,PY,PZ,R,P,Y,PErr,AErr,Rst,Ign,Q
FMT, 169, 42, VISV, QQIffffBBb, TimeUS,RTimeUS,CTimeMS,VX,VY,VZ,VErr,Rst,Ign,Q
FMT, 180, 28, OF, QBffff, TimeUS,Qual,flowX,flowY,bodyX,bodyY
FMT, 182, 21, WENC, Qfbfb, TimeUS,Dist0,Qual0,Dist1,Qual1
FMT, 185, 35, ADSB, QIiiiHHhH, TimeUS,ICAO_address,Lat,Lng,Alt,Heading,Hor_vel,Ver_vel,Squark
FMT, 181, 12, EV, QB, TimeUS,Id
FMT, 186, 18, ARM, QBIBB, TimeUS,ArmState,ArmChecks,Forced,Method
FMT, 184, 13, ERR, QBB, TimeUS,Subsys,ECode
FMT, 187, 35, WINC, QBBBBBfffHfb, TimeUS,Heal,ThEnd,Mov,Clut,Mode,DLen,Len,DRate,Tens,Vcc,Temp
FMT, 188, 47, PSCN, Qfffffffff, TimeUS,DPN,TPN,PN,DVN,TVN,VN,DAN,TAN,AN
FMT, 189, 47, PSCE, Qfffffffff, TimeUS,DPE,TPE,PE,DVE,TVE,VE,DAE,TAE,AE
FMT, 190, 47, PSCD, Qfffffffff, TimeUS,DPD,TPD,PD,DVD,TVD,VD,DAD,TAD,AD
FMT, 191, 35, PSON, Qffffff, TimeUS,TPON,PON,TVON,VON,TAON,AON
FMT, 192, 35, PSOE, Qffffff, TimeUS,TPOE,POE,TVOE,VOE,TAOE,AOE
FMT, 193, 35, PSOD, Qffffff, TimeUS,TPOD,POD,TVOD,VOD,TAOD,AOD
FMT, 194, 35, PSOT, Qffffff, TimeUS,TPOT,POT,TVOT,VOT,TAOT,AOT
FMT, 75, 63, RATE, Qfffffffffffff, TimeUS,RDes,R,ROut,PDes,P,POut,YDes,Y,YOut,ADes,A,AOut,AOutSlew
FMT, 195, 39, ANG, Qfffffff, TimeUS,DesRoll,Roll,DesPitch,Pitch,DesYaw,Yaw,Dt
FMT, 201, 33, STAK, QBBHHN, TimeUS,Id,Pri,Total,Free,Name
FMT, 202, 88, FILE, NIBZ, FileName,Offset,Length,Data
FMT, 197, 78, AISR, QBBBZ, TimeUS,num,total,ID,payload
FMT, 198, 41, AIS1, QBBIBbHbLLHHBBbI, US,typ,rep,mmsi,nav,rot,sog,pos,lon,lat,cog,hed,sec,man,raim,rad
FMT, 199, 38, AIS4, QBIHBBBBBBLLBBI, US,rep,mmsi,year,mth,day,h,m,s,fix,lon,lat,epfd,raim,rad
FMT, 200, 175, AIS5, QBIBINZBHHBBBBZB, US,rep,mmsi,ver,imo,cal,nam,typ,bow,stn,prt,str,fix,dght,dst,dte
FMT, 203, 39, SCR, QNIii, TimeUS,Name,Runtime,Total_mem,Run_mem
FMT, 206, 90, VER, QBHBBBBIZHBB, TimeUS,BT,BST,Maj,Min,Pat,FWT,GH,FWS,APJ,BU,FV
FMT, 205, 32, MOTB, QfffffB, TimeUS,LiftMax,BatVolt,ThLimit,ThrAvMx,ThrOut,FailFlags
FMT, 6, 24, PTUN, QBfff, TimeUS,Param,TunVal,TunMin,TunMax
FMT, 0, 55, CTUN, Qffffffefffhh, TimeUS,ThI,ABst,ThO,ThH,DAlt,Alt,BAlt,DSAlt,SAlt,TAlt,DCRt,CRt
FMT, 1, 14, D16, QBh, TimeUS,Id,Value
FMT, 2, 14, DU16, QBH, TimeUS,Id,Value
FMT, 3, 16, D32, QBi, TimeUS,Id,Value
FMT, 4, 16, DU32, QBI, TimeUS,Id,Value
FMT, 5, 16, DFLT, QBf, TimeUS,Id,Value
FMT, 9, 47, SIDD, Qfffffffff, TimeUS,Time,Targ,F,Gx,Gy,Gz,Ax,Ay,Az
FMT, 10, 40, SIDS, QBfffffff, TimeUS,Ax,Mag,FSt,FSp,TFin,TC,TR,TFout
FMT, 8, 49, GUIP, QBfffbffffff, TimeUS,Type,pX,pY,pZ,Terrain,vX,vY,vZ,aX,aY,aZ
FMT, 11, 44, GUIA, QBffffffff, TimeUS,Type,Roll,Pitch,Yaw,RollRt,PitchRt,YawRt,Thrust,ClimbRt
FMT, 249, 25, SURF, QBBfff, TimeUS,I,St,D,FD,TO
SURF, 18007149, 0, 2, 0, 0, 0.3159687
SURF, 18007198, 1, 2, 0, 0, 0.3159687
IMU, 18037367, 0, -0.001255774, -0.008815191, 0.01005912, 0.4164476, 0.7837396, -9.892147, 0, 0, 45.28986, 1, 1, 2022, 2022
IMU, 18037367, 1, -0.0008596641, -0.0009522294, 0.006959499, 0.4254975, 0.7373614, -9.818279, 0, 0, 46, 1, 1, 2000, 2043
POWR, 18057200, 4.945971, 0, 1, 1, 6
MCU, 18057200, 41.35189, 3.347973, 3.340254, 3.355162
BAT, 18057214, 0, 14.67105, 15.06991, 0.9963603, 2.918497, 0.04308882, 0, 0.4003196, 99, 1, 0
MAG, 18057229, 0, -517, -27, 168, -382, 367, 647, 0, 0, 0, 1, 18057228
MAG, 18057229, 1, -417, -143, 168, 59, 22, -40, 0, 0, 0, 1, 18057223
SURF, 18057247, 0, 2, 0, 0, 0.3079723
SURF, 18057256, 1, 2, 0, 0, 0.3079723
BARO, 18057276, 0, -0.1705933, -0.1705933, 93312, 42.5, -0.150528, 18057, 0, 35, 1
CTUN, 18057284, 0, 0, 0, 0.431117, 0, 0.1495402, -0.17, NaN, 0, NaN, 0, 27
ATT, 18057329, -20.70457, -4.431086, 22.20741, 2.822814, 179.6132, 179.6132, 3
ANG, 18056761, -20.70457, -4.431086, 22.20741, 2.822814, 179.6132, 179.6132, 0.0025
RATE, 18056773, -75.70525, 0.1087638, -0.1787312, 82.56662, 0.09977065, 0.1943733, 20.1268, 0.1434316, 0.06273913, 0, 7.126904, 0, 0
PIDR, 18057346, -1.32122, 0.001898286, -1.323118, -0.1786209, 0, -0.0001102548, 0, 0, 1, 0.4319538, 9
PIDP, 18057350, 1.441151, 0.001741326, 1.439409, 0.1943203, 0, 5.306211E-05, 0, 0, 1, 0.4428534, 9
PIDY, 18057367, 0.3513171, 0.002503353, 0.3485507, 0.06273913, 0, 0, 0, 0, 1, 0.04752214, 9
PIDA, 18057389, 0, 0, 0, 0, 0, 0, 0, 0, 0, 0, 0
XKF4, 18056904, 0, 0, 0, 0.01, 0.01, 0, 0.03378996, 0, 0, 0, 50, 67751, 512, 0
XKF1, 18056904, 0, -4.43, 2.82, 179.61, 0.04545258, -0.05070197, -0.2798367, 0.01195618, 0, 0, -0.1495402, -0.13, -0.63, 0.05, 0
XKF2, 18056904, 0, 0, 0, -0.04, 0, 0, 486, 0, 183, 0, 0, 0, 0, 0, 0
XKF3, 18056904, 0, 0, 0, 0, 0.01, -0.02, -0.26, 0, 0, 0, 1.04, 0, 0, 0
XKF5, 18056904, 0, 0, 0, 0, 0, 0.15, 0.04, 0, 0, 0.5, 0.0016572, 0.01201388, 0.01957766
XKFS, 18056904, 0, 0, 0, 0, 0, 0, 0, 0, 1
XKQ, 18056904, 0, 0.002419443, -0.0247431, -0.03856386, 0.9989468
XKV1, 18056904, 0, 0.002753093, 0.0001414376, 0.0001388002, 4.104234E-07, 0.1763717, 0.1769455, 0.1444049, 0.1632198, 0.1630769, 0.5625011, 5.399112E-09, 5.857663E-09
XKV2, 18056904, 0, 9.896394E-08, 6.188389E-06, 6.188388E-06, 1.137393E-06, 0, 0, 0, 0, 0, 0, 0, 0
XKF4, 18056904, 1, 0, 0, 0, 0.01, 0, 0.03372656, 0, 0, 0, 50, 67751, 512, 0
XKF1, 18056904, 1, -4.47, 2.74, 179.48, 0.00827927, -0.02113263, -0.07796276, 0.08422248, 0, 0, -0.04465461, -0.06, -0.04, -0.05, 0
XKF2, 18056904, 1, 0, 0, -0.01, 0, 0, 484, 0, 188, 0, 0, 0, 0, 0, 0
XKF3, 18056904, 1, 0, 0, 0, 0, 0, -0.19, 0, 0, 0, 0.91, 0, 0, 0
XKFS, 18056904, 1, 0, 0, 0, 0, 0, 0, 0, 1
XKQ, 18056904, 1, -0.003537185, 0.02414356, 0.03892633, -0.9989441
AHR2, 18057488, -4.68, 2.1, 179.94, -0.16, 0, 0, -0.0002306946, -0.01838959, -0.0408258, 0.998997
MOTB, 18057494, 1, 1, 1, 0.0431117, 0, 2
RCIN, 18057500, 1102, 1927, 1102, 1927, 1206, 2000, 1000, 1000, 1000, 1000, 1000, 875, 875, 875
RCI2, 18057504, 875, 875, 0, 1
RCOU, 18057510, 1000, 1000, 1000, 1000, 0, 0, 0, 0, 1000, 0, 0, 0, 0, 0
RCO2, 18057513, 0, 0, 0, 0
VIBE, 18057518, 0, 0.0318714, 0.04417867, 0.02055479, 0
VIBE, 18057518, 1, 0.07102751, 0.08144116, 0.07786539, 0
FMT, 247, 31, CTRL, Qfffff, TimeUS,RMSRollP,RMSRollD,RMSPitchP,RMSPitchD,RMSYaw
CTRL, 18057527, 0.1783889, 0.0004728381, 0.1945671, 0.0004138729, 0.06337535
FMT, 252, 43, DCM, Qffffffff, TimeUS,Roll,Pitch,Yaw,ErrRP,ErrYaw,VWN,VWE,VWD
DCM, 18059348, -4.681362, 2.104978, 179.9402, 0.006189394, 0.01604179, 0, 0, 0
FMT, 251, 51, EAHR, QffffffLLfI, TimeUS,Roll,Pitch,Yaw,VN,VE,VD,Lat,Lon,Alt,Flg
EAHR, 18059447, 0, 0, 0, 0, 0, 0, 0, 0, 0, 0
GPS, 18077318, 0, 1, 39262000, 2380, 0, 99.99, 15.3693162, 75.1237122, 659.41, 0, 0, 0, 0, 1
GPA, 18077318, 0, 99.99, 655.35, 655.35, 655.35, 0, 1, 18054, 200, 581.4, 0, 0
IMU, 18077369, 0, -0.001074827, -0.009009743, 0.001016225, 0.5017111, 0.7802582, -9.886819, 0, 0, 45.28986, 1, 1, 2022, 2022
IMU, 18077369, 1, -0.0005323362, -0.001090223, -0.0006254327, 0.5220441, 0.7600297, -9.801134, 0, 0, 46, 1, 1, 2000, 2043
MSG, 18085344, ArduCopter V4.6.2 (1ebd4d99)
MSG, 18085352, ChibiOS: 88b84600
VER, 18085357, 10, 5009, 4, 6, 2, 255, 515722649, ArduCopter V4.6.2 (1ebd4d99), 56, 2, 2
MSG, 18085374, Pixhawk6C 003D0048 3133510F 31343630
MSG, 18085382, Param space used: 938/5376
MSG, 18085389, RC Protocol: SBUS
MSG, 18085399, RCOut: PWM:1-16
MSG, 18085404, New mission
CMD, 18087342, 4, 0, 16, 0, 0, 0, 0, 0, 0, 0, 0
CMD, 18087365, 4, 1, 22, 1, 0, 0, 0, 0, 0, 10, 3
CMD, 18087388, 4, 2, 16, 10, 0, 0, 0, 15.367361, 75.1254623, 10, 3
CMD, 18087395, 4, 3, 20, 0, 0, 0, 0, 0, 0, 0, 0
MSG, 18087400, New rally
MSG, 18087405, New fence
FNCE, 18087432, 10, 0, 98, 15.3694775, 75.1243937, 10, 0
FNCE, 18087438, 10, 1, 98, 15.3694025, 75.1246646, 10, 0
FNCE, 18087443, 10, 2, 98, 15.3694775, 75.1248684, 10, 0
FNCE, 18087449, 10, 3, 98, 15.3696456, 75.1249086, 10, 0
FNCE, 18087454, 10, 4, 98, 15.3699042, 75.1248443, 10, 0
FNCE, 18087459, 10, 5, 98, 15.3702533, 75.1247826, 10, 0
FNCE, 18087468, 10, 6, 98, 15.3703154, 75.1244822, 10, 0
FNCE, 18087474, 10, 7, 98, 15.3700982, 75.124281, 10, 0
FNCE, 18087480, 10, 8, 98, 15.3698292, 75.1241469, 10, 0
FNCE, 18087485, 10, 9, 98, 15.3695111, 75.1241147, 10, 0
MSG, 18087494, Frame: QUAD/X
MODE, 18087499, Stabilize, 0, 1
MSG, 18087509, GPS 1: probing for u-blox at 230400 baud
SURF, 18107121, 0, 2, 0, 0, 0.3002361
SURF, 18107130, 1, 2, 0, 0, 0.3002361
FILE, @SYS/uarts.txt, 0, 64, UARTV1\nSERIAL0 OTG1  TX =       0 RX =       0 TXBD=     0 RXBD=
IMU, 18117404, 0, 0.002328284, -0.00876777, 0.002795778, 0.4133286, 0.8342317, -9.891771, 0, 0, 45.28986, 1, 1, 2022, 2022
IMU, 18117404, 1, 3.314729E-05, -0.00168866, 0.0006442934, 0.4412853, 0.8142573, -9.802094, 0, 0, 46, 1, 1, 2000, 2043
FILE, @SYS/uarts.txt, 64, 64,      0 FE=0 OE=0 NE=0 FlowCtrl=0\nSERIAL1 UART7 TX*=     960 RX*=
FILE, @SYS/uarts.txt, 128, 64,     1205 TXBD=   546 RXBD=   685 FE=0 OE=0 NE=0 FlowCtrl=0\nSERIA
FILE, @SYS/uarts.txt, 192, 64, L2 UART5 TX*=     514 RX*=       0 TXBD=   292 RXBD=     0 FE=0 
STAK, 18155214, 20, 181, 1456, 824, SPI1
POWR, 18157149, 4.950503, 0, 1, 1, 6
MCU, 18157149, 41.33201, 3.348395, 3.340674, 3.354456
BAT, 18157184, 0, 14.66849, 15.07365, 1.012106, 2.946604, 0.04350112, 0, 0.4003196, 99, 1, 0
MAG, 18157197, 0, -524, -23, 152, -382, 367, 647, 0, 0, 0, 1, 18157196
MAG, 18157197, 1, -416, -144, 166, 59, 22, -40, 0, 0, 0, 1, 18157195
SURF, 18157222, 0, 2, 0, 0, 0.2928651
SURF, 18157233, 1, 2, 0, 0, 0.2928651
BARO, 18157255, 0, -0.1176758, -0.1176758, 93311.41, 42.5, -0.1892853, 18157, 0, 35, 1
CTUN, 18157262, 0, 0, 0, 0.431117, 0, 0.1507659, -0.11, NaN, 0, NaN, 0, 28
ATT, 18157309, -20.70457, -4.417832, 22.20741, 2.836847, 179.5817, 179.5817, 3
ANG, 18156761, -20.70457, -4.417832, 22.20741, 2.836847, 179.5817, 179.5817, 0.0025
RATE, 18156773, -75.75947, 0.001171444, -0.1780339, 82.50899, 0.1468741, 0.1939991, 20.10288, 0.4865438, 0.0626414, 0, 7.864857, 0, 0
PIDR, 18157326, -1.322236, 2.044556E-05, -1.322257, -0.1785047, 0, 0.0004707204, 0, 0, 1, 0.390799, 9
PIDP, 18157329, 1.440193, 0.002563437, 1.437629, 0.1940799, 0, -8.087971E-05, 0, 0, 1, 0.4006601, 9
PIDY, 18157333, 0.3508963, 0.008491792, 0.3480078, 0.0626414, 0, 0, 0, 0, 1, 0.04458096, 9
PIDA, 18157337, 0, 0, 0, 0, 0, 0, 0, 0, 0, 0, 0
XKF4, 18156860, 0, 0, 0, 0.01, 0.01, 0, 0.03454724, 0, 0, 0, 50, 67751, 512, 0
XKF1, 18156860, 0, -4.41, 2.83, 179.58, 0.04749666, -0.05512503, -0.2840549, -0.09988835, 0, 0, -0.1507659, -0.13, -0.63, 0.06, 0
XKF2, 18156860, 0, 0, 0, -0.04, 0, 0, 486, 0, 183, 0, 0, 0, 0, 0, 0
XKF3, 18156860, 0, 0, 0, 0, 0.01, -0.02, -0.28, 0, 0, 0, 1.18, 0, 0, 0
XKF5, 18156860, 0, 0, 0, 0, 0, 0.17, 0.04, 0, 0, 0.5, 0.001708138, 0.01107531, 0.008280655
XKFS, 18156860, 0, 0, 0, 0, 0, 0, 0, 0, 1
XKQ, 18156860, 0, 0.002692135, -0.02487571, -0.03844096, 0.9989476
XKF4, 18156860, 1, 0, 0, 0, 0.01, 0, 0.03448229, 0, 0, 0, 50, 67751, 512, 0
XKF1, 18156860, 1, -4.47, 2.75, 179.45, 0.006772421, -0.0227447, -0.07729942, 0.03221127, 0, 0, -0.03696396, -0.06, -0.04, -0.04, 0
XKF2, 18156860, 1, 0, 0, -0.01, 0, 0, 484, 0, 188, 0, 0, 0, 0, 0, 0
XKF3, 18156860, 1, 0, 0, 0, 0, -0.01, -0.19, 0, 0, 0, 1.05, 0, 0, 0
XKFS, 18156860, 1, 0, 0, 0, 0, 0, 0, 0, 1
XKQ, 18156860, 1, -0.003777578, 0.02416679, 0.03887741, -0.9989446
AHR2, 18157477, -4.68, 2.06, 179.95, -0.17, 0, 0, -0.0003352268, -0.0180383, -0.04083101, 0.9990032
MOTB, 18157482, 1, 1, 1, 0.0431117, 0, 2
RCIN, 18157488, 1102, 1927, 1102, 1927, 1206, 2000, 1000, 1000, 1000, 1000, 1000, 875, 875, 875
RCI2, 18157492, 875, 875, 0, 1
RCOU, 18157498, 1000, 1000, 1000, 1000, 0, 0, 0, 0, 1000, 0, 0, 0, 0, 0
RCO2, 18157502, 0, 0, 0, 0
VIBE, 18157506, 0, 0.03114106, 0.04960623, 0.01717896, 0
VIBE, 18157506, 1, 0.07449326, 0.08723209, 0.07903319, 0
CTRL, 18157515, 0.1785123, 0.0004427783, 0.1944493, 0.0003442845, 0.06319416
IMU, 18157525, 0, -0.002278274, -0.008533402, 0.009544958, 0.4526652, 0.774789, -9.887886, 0, 0, 45.28986, 1, 1, 2022, 2022
IMU, 18157525, 1, -0.002460423, -4.224107E-05, 0.006007539, 0.4776494, 0.7281104, -9.788576, 0, 0, 46, 1, 1, 2000, 2043
DCM, 18159349, -4.681895, 2.06647, 179.9551, 0.006508728, 0.01682848, 0, 0, 0
EAHR, 18159371, 0, 0, 0, 0, 0, 0, 0, 0, 0, 0
FILE, @SYS/uarts.txt, 256, 64, OE=0 NE=0 FlowCtrl=0\nSERIAL3 UART1 TX*=    1242 RX*=    7607 TXB
FILE, @SYS/uarts.txt, 320, 64, D=   707 RXBD=  4330 FE=137 OE=0 NE=158 FlowCtrl=0\nSERIAL4 UART8
FILE, @SYS/uarts.txt, 384, 64,  TX*=       0 RX*=       0 TXBD=     0 RXBD=     0 FE=0 OE=0 NE=
IMU, 18197208, 0, 2.876227E-05, -0.009295112, -0.001075077, 0.4871619, 0.8023361, -9.881054, 0, 0, 45.28986, 1, 1, 2022, 2022
IMU, 18197208, 1, -0.0007835216, 0.0004968531, -0.00517058, 0.5055525, 0.7909162, -9.792349, 0, 0, 46, 1, 1, 2000, 2043
FILE, @SYS/uarts.txt, 448, 64, 0 FlowCtrl=0\nSERIAL5 UART2 TX =       0 RX =       0 TXBD=     0
SURF, 18207172, 0, 2, 0, 0, 0.2859263
SURF, 18207182, 1, 2, 0, 0, 0.2859263
FILE, @SYS/uarts.txt, 512, 64,  RXBD=     0 FE=0 OE=0 NE=0 FlowCtrl=0\nSERIAL6 UART3 TX =       
FILE, @SYS/uarts.txt, 576, 64, 0 RX =       0 TXBD=     0 RXBD=     0 FE=0 OE=0 NE=0 FlowCtrl=0
IMU, 18237387, 0, -0.001045124, -0.01059675, 0.0009061187, 0.436423, 0.8163555, -9.876101, 0, 0, 45.28986, 1, 1, 2022, 2022
IMU, 18237387, 1, -0.001557785, -0.0008307994, 0.0002676208, 0.4505689, 0.7993202, -9.794506, 0, 0, 46, 1, 1, 2000, 2043
FILE, @SYS/uarts.txt, 640, 64, \nSERIAL7 OTG2  TX =       0 RX =       0 TXBD=     0 RXBD=     0
FILE, @SYS/uarts.txt, 704, 64,  FE=0 OE=0 NE=0 FlowCtrl=0\nIOMCU   UART6 TX*=   82440 RX*=   667
FILE, @SYS/uarts.txt, 768, 53, 42 TXBD= 46928 RXBD= 37992 FE=0 OE=0 NE=0 FlowCtrl=0\n
STAK, 18255874, 255, 255, 1536, 1324, ISR
POWR, 18257146, 4.954028, 0, 1, 1, 6
MCU, 18257146, 41.33201, 3.348676, 3.340954, 3.355444
BAT, 18257159, 0, 14.67206, 15.0944, 1.046526, 2.97567, 0.04392757, 0, 0.40357, 99, 1, 0
MAG, 18257171, 0, -524, -24, 156, -382, 367, 647, 0, 0, 0, 1, 18257170
MAG, 18257171, 1, -416, -143, 166, 59, 22, -40, 0, 0, 0, 1, 18257168
SURF, 18257189, 0, 2, 0, 0, 0.2794672
SURF, 18257227, 1, 2, 0, 0, 0.2794672
BARO, 18257248, 0, 0.03820801, 0.03820801, 93309.66, 42.51, -0.1425934, 18257, 0, 35, 1
CTUN, 18257282, 0, 0, 0, 0.431117, 0, 0.1581737, 0.03, NaN, 0, NaN, 0, 28
ATT, 18257328, -20.70458, -4.409253, 22.20742, 2.84706, 179.5374, 179.5374, 3
ANG, 18256762, -20.70458, -4.409253, 22.20742, 2.84706, 179.5374, 179.5374, 0.0025
RATE, 18256775, -75.7943, 0.006817276, -0.1784718, 82.46685, 0.1174363, 0.193832, 20.08622, 0.1273986, 0.06293443, 0, 7.48167, 0, 0
PIDR, 18257348, -1.322828, 0.0001189839, -1.322947, -0.1785978, 0, 0.0001260686, 0, 0, 1, 0.353565, 9
PIDP, 18257351, 1.439408, 0.00204965, 1.437358, 0.1940434, 0, -0.0002113586, 0, 0, 1, 0.3624865, 9
PIDY, 18257355, 0.3505976, 0.002223524, 0.3496357, 0.06293443, 0, 0, 0, 0, 1, 0.04128012, 9
PIDA, 18257359, 0, 0, 0, 0, 0, 0, 0, 0, 0, 0, 0
XKF4, 18256864, 0, 0, 0, 0.01, 0, 0, 0.03529978, 0, 0, 0, 50, 67751, 512, 0
XKF1, 18256864, 0, -4.4, 2.84, 179.53, 0.05039375, -0.05855544, -0.287618, -0.1534819, 0, 0, -0.1581737, -0.13, -0.63, 0.06, 0
XKF2, 18256864, 0, 0, 0, -0.04, 0, 0, 486, 0, 183, 0, 0, 0, 0, 0, 0
XKF3, 18256864, 0, 0, 0, 0, 0.02, -0.03, -0.25, 0, 0, 0, 0.79, 0, 0, 0
XKF5, 18256864, 0, 0, 0, 0, 0, 0.19, 0.04, 0, 0, 0.5, 0.001437337, 0.01047422, 0.01510888
XKFS, 18256864, 0, 0, 0, 0, 0, 0, 0, 0, 1
XKQ, 18256864, 0, 0.003076776, -0.02497938, -0.03835611, 0.9989471
XKF4, 18256864, 1, 0, 0, 0, 0, 0, 0.03523459, 0, 0, 0, 50, 67751, 512, 0
XKF1, 18256864, 1, -4.47, 2.75, 179.41, 0.006423657, -0.02346475, -0.07648335, 0.009623677, 0, 0, -0.03223199, -0.06, -0.04, -0.04, 0
XKF2, 18256864, 1, 0, 0, -0.01, 0, 0, 484, 0, 188, 0, 0, 0, 0, 0, 0
XKF3, 18256864, 1, 0, 0, 0, 0, -0.01, -0.14, 0, 0, 0, 0.66, 0, 0, 0
XKFS, 18256864, 1, 0, 0, 0, 0, 0, 0, 0, 1
XKQ, 18256864, 1, -0.004143821, 0.02418237, 0.03886621, -0.9989432
AHR2, 18257516, -4.68, 2.02, 179.95, -0.11, 0, 0, -0.0003373279, -0.01766624, -0.04086887, 0.9990083
MOTB, 18257522, 1, 1, 1, 0.0431117, 0, 2
RCIN, 18257528, 1102, 1927, 1102, 1927, 1206, 2000, 1000, 1000, 1000, 1000, 1000, 875, 875, 875
RCI2, 18257531, 875, 875, 0, 1
RCOU, 18257538, 1000, 1000, 1000, 1000, 0, 0, 0, 0, 1000, 0, 0, 0, 0, 0
RCO2, 18257541, 0, 0, 0, 0
VIBE, 18257545, 0, 0.02747949, 0.03468795, 0.01688427, 0
VIBE, 18257545, 1, 0.06643359, 0.07625097, 0.07621057, 0
CTRL, 18257554, 0.1785853, 0.0003799119, 0.194346, 0.0002918683, 0.06304105
DCM, 18259379, -4.68591, 2.023611, 179.9561, 0.006508728, 0.01773398, 0, 0, 0
EAHR, 18259396, 0, 0, 0, 0, 0, 0, 0, 0, 0, 0
GPS, 18277307, 0, 1, 39262200, 2380, 0, 99.99, 15.3693162, 75.1237122, 659.41, 0, 0, 0, 0, 1
GPA, 18277307, 0, 99.99, 655.35, 655.35, 655.35, 0, 1, 18254, 200, 581.4, 0, 0
IMU, 18277359, 0, 0.001335524, -0.00878935, 0.001086378, 0.4405254, 0.8242935, -9.890087, 0, 0, 45.28986, 1, 1, 2022, 2022
IMU, 18277359, 1, 0.001775422, -0.002853871, -0.0008827548, 0.4432194, 0.8200563, -9.793572, 0, 0, 46, 1, 1, 2000, 2043
FILE, @SYS/memory.txt, 0, 64, MemInfoV1\nSTART=0x24000000 LEN=512k FREE=  3248 LRG=  1160 TYPE=
FILE, @SYS/memory.txt, 64, 64, 4\nSTART=0x30000000 LEN=256k FREE=262136 LRG=262136 TYPE=8\nSTART=
FILE, @SYS/memory.txt, 128, 64, 0x20000000 LEN=128k FREE=112544 LRG=112544 TYPE=2\nSTART=0x000004
SURF, 18307177, 0, 2, 0, 0, 0.2735444
SURF, 18307187, 1, 2, 0, 0, 0.2735444
FILE, @SYS/memory.txt, 192, 64, 00 LEN= 63k FREE= 64504 LRG= 64504 TYPE=2\nSTART=0x30040000 LEN= 
IMU, 18317380, 0, -0.001085644, -0.009129941, 0.0057274, 0.4547291, 0.8129594, -9.888161, 0, 0, 45.28986, 1, 1, 2022, 2022
IMU, 18317380, 1, -0.0002711288, -0.0004077917, 0.003524097, 0.4583929, 0.7927651, -9.80717, 0, 0, 46, 1, 1, 2000, 2043
FILE, @SYS/memory.txt, 256, 64, 32k FREE= 32760 LRG= 32760 TYPE=8\nSTART=0x38000000 LEN= 64k FREE
FILE, @SYS/memory.txt, 320, 26, = 56808 LRG= 56152 TYPE=1\n
MAV, 18352159, 1, 38, 62, 0, 2, 0, 0
STAK, 18355887, 0, 182, 7168, 4176, ArduCopter
POWR, 18357166, 4.95282, 0, 1, 1, 6
MCU, 18357166, 41.33201, 3.348535, 3.340954, 3.354173
BAT, 18357179, 0, 14.67169, 15.09731, 1.047625, 3.004778, 0.04435464, 0, 0.4062727, 99, 1, 0
MAG, 18357191, 0, -524, -24, 160, -382, 367, 647, 0, 0, 0, 1, 18357189
MAG, 18357191, 1, -415, -144, 166, 59, 22, -40, 0, 0, 0, 1, 18357188
SURF, 18357212, 0, 2, 0, 0, 0.2682017
SURF, 18357220, 1, 2, 0, 0, 0.2682017
BARO, 18357240, 0, 0.01177979, 0.01177979, 93309.98, 42.51, 0.2442932, 18357, 0, 35, 1
CTUN, 18357247, 0, 0, 0, 0.431117, 0, 0.1714448, 0.01, NaN, 0, NaN, 0, 29
ATT, 18357294, -20.70457, -4.394622, 22.20742, 2.861815, 179.5079, 179.5079, 3
ANG, 18356763, -20.70457, -4.394622, 22.20742, 2.861815, 179.5079, 179.5079, 0.002493
RATE, 18356776, -75.85419, 0.1453928, -0.1793528, 82.40655, 0.1664513, 0.1937074, 20.05834, 0.07203057, 0.06261048, 0, 7.238388, 0, 0
PIDR, 18357317, -1.323784, 0.002537583, -1.326322, -0.1790535, 0, -0.0002993045, 0, 0, 1, 0.3198785, 9
PIDP, 18357321, 1.438374, 0.002905123, 1.435469, 0.1937883, 0, -8.089186E-05, 0, 0, 1, 0.3279501, 9
PIDY, 18357325, 0.3501768, 0.001257171, 0.347836, 0.06261048, 0, 0, 0, 0, 1, 0.03812117, 9
PIDA, 18357328, 0, 0, 0, 0, 0, 0, 0, 0, 0, 0, 0
XKF4, 18356911, 0, 0, 0, 0, 0, 0, 0.03604684, 0, 0, 0, 50, 67751, 512, 0
XKF1, 18356911, 0, -4.39, 2.86, 179.5, 0.05448986, -0.06361078, -0.2920081, -0.1909161, 0, 0, -0.1714448, -0.13, -0.63, 0.07, 0
XKF2, 18356911, 0, 0, 0, -0.04, 0, 0, 486, 0, 183, 0, 0, 0, 0, 0, 0
XKF3, 18356911, 0, 0, 0, 0, 0.02, -0.03, -0.11, 0, 0, 0, 0.85, 0, 0, 0
XKF5, 18356911, 0, 0, 0, 0, 0, 0.21, 0.04, 0, 0, 0.5, 0.001263755, 0.01075213, 0.02597571
XKFS, 18356911, 0, 0, 0, 0, 0, 0, 0, 0, 1
XKQ, 18356911, 0, 0.003332024, -0.02511744, -0.03822146, 0.998948
XKF4, 18356911, 1, 0, 0, 0, 0, 0, 0.03598139, 0, 0, 0, 50, 67751, 512, 0
XKF1, 18356911, 1, -4.46, 2.75, 179.39, 0.007868093, -0.02594659, -0.07598238, -0.01409472, 0, 0, -0.03104467, -0.06, -0.04, -0.03, 0
XKF2, 18356911, 1, 0, 0, -0.01, 0, 0, 484, 0, 188, 0, 0, 0, 0, 0, 0
XKF3, 18356911, 1, 0, 0, 0, 0, -0.01, 0.01, 0, 0, 0, 0.72, 0, 0, 0
XKFS, 18356911, 1, 0, 0, 0, 0, 0, 0, 0, 1
XKQ, 18356911, 1, -0.004325121, 0.02422666, 0.03880192, -0.9989438
AHR2, 18357453, -4.68, 1.98, 179.96, 0.03, 0, 0, -0.0004076037, -0.01735157, -0.04084857, 0.9990146
MOTB, 18357458, 1, 1, 1, 0.0431117, 0, 2
RCIN, 18357464, 1102, 1927, 1102, 1927, 1206, 2000, 1000, 1000, 1000, 1000, 1000, 875, 875, 875
RCI2, 18357468, 875, 875, 0, 1
RCOU, 18357474, 1000, 1000, 1000, 1000, 0, 0, 0, 0, 1000, 0, 0, 0, 0, 0
RCO2, 18357477, 0, 0, 0, 0
VIBE, 18357482, 0, 0.02667983, 0.03634073, 0.01584127, 0
VIBE, 18357482, 1, 0.07240313, 0.07404353, 0.07697134, 0
CTRL, 18357490, 0.1787057, 0.0003600552, 0.1942098, 0.000250165, 0.06297665
IMU, 18357500, 0, 0.0002299952, -0.008206363, 0.002545849, 0.4633311, 0.7703618, -9.882545, 0, 0, 45.28986, 1, 1, 2022, 2022
IMU, 18357500, 1, -0.002673624, -0.0008789778, 0.001856955, 0.4939274, 0.7513192, -9.779181, 0, 0, 46, 1, 1, 2000, 2043
DCM, 18359352, -4.683518, 1.987635, 179.9654, 0.007205235, 0.01835567, 0, 0, 0
EAHR, 18359374, 0, 0, 0, 0, 0, 0, 0, 0, 0, 0
FILE, @SYS/threads.txt, 0, 64, ThreadsV2\nISR           PRI=255 sp=0x24000000 STACK=1324/1536\nAr
FILE, @SYS/threads.txt, 64, 64, duCopter    PRI=182 sp=0x24000600 STACK=4176/7168\nidle          
FILE, @SYS/threads.txt, 128, 64, PRI=  1 sp=0x240214B0 STACK=288/496\nUART_RX       PRI= 60 sp=0x2
IMU, 18397207, 0, -0.0007986032, -0.008966894, 0.002931579, 0.4751408, 0.833477, -9.891451, 0, 0, 45.28986, 1, 1, 2022, 2022
IMU, 18397207, 1, -0.001651756, -0.001791987, 0.001378187, 0.4807273, 0.7925953, -9.804837, 0, 0, 46, 1, 1, 2000, 2043
FILE, @SYS/threads.txt, 192, 64, 407B0E8 STACK=880/1200\nOTG1          PRI= 60 sp=0x2407A1A0 STACK
SURF, 18407130, 0, 2, 0, 0, 0.263477
SURF, 18407139, 1, 2, 0, 0, 0.263477
FILE, @SYS/threads.txt, 256, 64, =480/752\nmonitor       PRI=183 sp=0x2401CE20 STACK=1096/1456\ntim
FILE, @SYS/threads.txt, 320, 64, er         PRI=181 sp=0x2401E3E0 STACK=1528/1968\nrcout         P
FILE, @SYS/threads.txt, 384, 64, RI=181 sp=0x2401DA00 STACK=656/944\nrcin          PRI=177 sp=0x24
IMU, 18437372, 0, -0.001418288, -0.008987988, -0.001805332, 0.4269934, 0.7771786, -9.872096, 0, 0, 45.28986, 1, 1, 2022, 2022
IMU, 18437372, 1, -0.001493411, -9.586961E-06, -0.0056154, 0.4522066, 0.7259005, -9.78342, 0, 0, 46, 1, 1, 2000, 2043
FILE, @SYS/threads.txt, 448, 64, 01D410 STACK=984/1456\nio            PRI= 58 sp=0x2401C430 STACK=
FILE, @SYS/threads.txt, 512, 64, 1576/2480\nstorage       PRI= 59 sp=0x2401DDF0 STACK=952/1456\nUAR
STAK, 18456267, 1, 1, 496, 288, idle
POWR, 18457233, 4.951611, 0, 1, 1, 6
MCU, 18457233, 41.33201, 3.348676, 3.341094, 3.354597
BAT, 18457248, 0, 14.67361, 15.10219, 1.049639, 3.033957, 0.04478281, 0, 0.4083105, 99, 1, 0
MAG, 18457264, 0, -517, -23, 168, -382, 367, 647, 0, 0, 0, 1, 18457261
MAG, 18457264, 1, -417, -143, 168, 59, 22, -40, 0, 0, 0, 1, 18457259
SURF, 18457284, 0, 2, 0, 0, 0.2593851
SURF, 18457292, 1, 2, 0, 0, 0.2593851
BARO, 18457312, 0, -0.1618042, -0.1618042, 93311.92, 42.52, 0.521965, 18457, 0, 35, 1
CTUN, 18457320, 0, 0, 0, 0.431117, 0, 0.1887329, -0.16, NaN, 0, NaN, 0, 29
ATT, 18457367, -20.70458, -4.385327, 22.20742, 2.87325, 179.4683, 179.4683, 3
ANG, 18456761, -20.70458, -4.385328, 22.20742, 2.87325, 179.4683, 179.4683, 0.002496
RATE, 18456773, -75.89191, 0.08803211, -0.1791595, 82.35925, 0.1149889, 0.1937923, 20.04091, -0.1383588, 0.06306586, 0, 8.881187, 0, 0
PIDR, 18457383, -1.324478, 0.00153645, -1.326014, -0.179012, 0, -0.0001475499, 0, 0, 1, 0.2894023, 9
PIDP, 18457412, 1.437505, 0.002006935, 1.435498, 0.1937922, 0, 6.555042E-08, 0, 0, 1, 0.296705, 9
PIDY, 18457434, 0.3498369, -0.002414817, 0.3503659, 0.06306586, 0, 0, 0, 0, 1, 0.03448921, 9
PIDA, 18457451, 0, 0, 0, 0, 0, 0, 0, 0, 0, 0, 0
XKF4, 18456867, 0, 0, 0, 0, 0, 0, 0.03678542, 0, 0, 0, 50, 67751, 512, 0
XKF1, 18456867, 0, -4.38, 2.87, 179.46, 0.057319, -0.06836751, -0.2967344, -0.2203397, 0, 0, -0.1887329, -0.13, -0.63, 0.08, 0
XKF2, 18456867, 0, 0, 0, -0.04, 0, 0, 486, 0, 183, 0, 0, 0, 0, 0, 0
XKF3, 18456867, 0, 0, 0, 0, 0.02, -0.04, -0.16, 0, 0, 0, 0.78, 0, 0, 0
XKF5, 18456867, 0, 0, 0, 0, 0, 0.23, 0.04, 0, 0, 0.5, 0.001157341, 0.01049821, 0.03163016
XKFS, 18456867, 0, 0, 0, 0, 0, 0, 0, 0, 1
XKQ, 18456867, 0, 0.003676138, -0.02523006, -0.03813117, 0.9989474
XKF4, 18456867, 1, 0, 0, 0, 0, 0, 0.03671922, 0, 0, 0, 50, 67751, 512, 0
XKF1, 18456867, 1, -4.46, 2.75, 179.35, 0.007024233, -0.02630332, -0.07605158, -0.03974691, 0, 0, -0.03270219, -0.06, -0.04, -0.03, 0
XKF2, 18456867, 1, 0, 0, -0.01, 0, 0, 484, 0, 188, 0, 0, 0, 0, 0, 0
XKF3, 18456867, 1, 0, 0, 0, 0, -0.01, -0.02, 0, 0, 0, 0.66, 0, 0, 0
XKFS, 18456867, 1, 0, 0, 0, 0, 0, 0, 0, 1
XKQ, 18456867, 1, -0.004649357, 0.02424307, 0.03881761, -0.9989414
AHR2, 18457532, -4.68, 1.94, 179.96, 0.01, 0, 0, -0.000363288, -0.01701523, -0.04086994, 0.9990195
MOTB, 18457537, 1, 1, 1, 0.0431117, 0, 2
RCIN, 18457543, 1102, 1927, 1102, 1927, 1206, 2000, 1000, 1000, 1000, 1000, 1000, 875, 875, 875
RCI2, 18457547, 875, 875, 0, 1
RCOU, 18457553, 1000, 1000, 1000, 1000, 0, 0, 0, 0, 1000, 0, 0, 0, 0, 0
RCO2, 18457557, 0, 0, 0, 0
VIBE, 18457561, 0, 0.03537204, 0.02788756, 0.01959006, 0
VIBE, 18457561, 1, 0.07637915, 0.06928184, 0.0739456, 0
CTRL, 18457570, 0.1788029, 0.0003015211, 0.1940847, 0.0002121478, 0.06291579
DCM, 18459348, -4.685953, 1.948954, 179.9622, 0.007205235, 0.01850716, 0, 0, 0
EAHR, 18459371, 0, 0, 0, 0, 0, 0, 0, 0, 0, 0
FILE, @SYS/threads.txt, 576, 64, T7         PRI= 60 sp=0x24078FF8 STACK=256/752\nUART5         PRI
FILE, @SYS/threads.txt, 640, 64, = 60 sp=0x240784B0 STACK=344/752\nUART1         PRI= 60 sp=0x2407
GPS, 18477222, 0, 1, 39262400, 2380, 0, 99.99, 15.3693162, 75.1237122, 659.41, 0, 0, 0, 0, 1
GPA, 18477222, 0, 99.99, 655.35, 655.35, 655.35, 0, 1, 18454, 200, 581.4, 0, 0
IMU, 18477274, 0, 0.0008798875, -0.008674461, 0.0033508, 0.4787379, 0.8770716, -9.880136, 0, 0, 45.28986, 1, 1, 2022, 2022
IMU, 18477274, 1, 0.001207084, -0.0008201121, 0.001000359, 0.4866146, 0.855372, -9.788772, 0, 0, 46, 1, 1, 2000, 2043
FILE, @SYS/threads.txt, 704, 64, 78E8 STACK=312/752\nUART8         PRI= 60 sp=0x24076D20 STACK=408
FILE, @SYS/threads.txt, 768, 64, /752\nOTG2          PRI= 60 sp=0x24075DD8 STACK=480/752\nUART6    
SURF, 18507173, 0, 2, 0, 0, 0.2559352
SURF, 18507186, 1, 2, 0, 0, 0.2559352
FILE, @SYS/threads.txt, 832, 64,      PRI=181 sp=0x24074F58 STACK=336/752\nIOMCU         PRI=183 s
RAD, 18517374, 69, 0, 100, 103, 0, 0, 0
IMU, 18517469, 0, -0.001053845, -0.00867517, 0.008391725, 0.418453, 0.747664, -9.911448, 0, 0, 45.28986, 1, 1, 2022, 2022
IMU, 18517469, 1, -0.001426185, -0.002060345, 0.007046849, 0.4227418, 0.7169923, -9.832153, 0, 0, 46, 1, 1, 2000, 2043
FILE, @SYS/threads.txt, 896, 64, p=0x2406AB30 STACK=920/1456\nlog_io        PRI= 59 sp=0x2406B2C0 
FILE, @SYS/threads.txt, 960, 64, STACK=728/2016\nI2C1          PRI=176 sp=0x2406BBD0 STACK=984/145
FILE, @SYS/threads.txt, 1024, 64, 6\nI2C0          PRI=176 sp=0x2406C4A0 STACK=984/1456\nSPI1       
STAK, 18556284, 2, 60, 1200, 880, UART_RX
FILE, @SYS/threads.txt, 1088, 40,    PRI=181 sp=0x24070FC0 STACK=824/1456\n
POWR, 18557128, 4.950302, 0, 1, 1, 6
MCU, 18557128, 41.35189, 3.348676, 3.341935, 3.354597
BAT, 18557141, 0, 14.67425, 15.10594, 1.0533, 3.063187, 0.04521172, 0, 0.4098414, 99, 1, 0
MAG, 18557153, 0, -521, -24, 163, -382, 367, 647, 0, 0, 0, 1, 18557152
MAG, 18557153, 1, -415, -144, 167, 59, 22, -40, 0, 0, 0, 1, 18557151
SURF, 18557201, 0, 2, 0, 0, 0.2530865
SURF, 18557210, 1, 2, 0, 0, 0.2530865
BARO, 18557250, 0, -0.1676025, -0.1676025, 93311.98, 42.52, 0.2132607, 18557, 0, 35, 1
CTUN, 18557258, 0, 0, 0, 0.431117, 0, 0.2065535, -0.16, NaN, 0, NaN, 0, 30
ATT, 18557309, -18.03876, -4.37299, 20.11529, 2.885916, 179.4447, 179.445, 3
ANG, 18556761, -18.03876, -4.37299, 20.11529, 2.885916, 179.4447, 179.445, 0.002493
RATE, 18556774, 9.830834, 0.1303834, 0.07554429, 17.15868, 0.1093932, 0.005255271, -11.07863, -0.3334129, 0.03149517, 0, 7.996559, 0, 0
PIDR, 18557325, -0.04935987, 0.002275619, -0.05163549, -0.006970791, 0, 0.08251508, 0, 0, 1, 0.5133445, 9
PIDP, 18557329, 0.4860625, 0.001909271, 0.4841533, 0.0653607, 0, -0.06010542, 0, 0, 1, 0.4383897, 9
PIDY, 18557333, -0.1237765, -0.005819154, 0.1749732, 0.03149517, 0, 0, 0, 0, 1, 0.05596088, 9
PIDA, 18557337, 0, 0, 0, 0, 0, 0, 0, 0, 0, 0, 0
XKF4, 18556860, 0, 0, 0, 0.01, 0, 0, 0.03751525, 0, 0, 0, 50, 67751, 512, 0
XKF1, 18556860, 0, -4.37, 2.88, 179.44, 0.06063714, -0.07366113, -0.3004834, -0.2185203, 0, 0, -0.2065535, -0.13, -0.63, 0.08, 0
XKF2, 18556860, 0, 0, 0, -0.04, 0, 0, 486, 0, 183, 0, 0, 0, 0, 0, 0
XKF3, 18556860, 0, 0, 0, 0, 0.03, -0.05, -0.36, 0, 0, 0, 0.68, 0, 0, 0
XKF5, 18556860, 0, 0, 0, 0, 0, 0.25, 0.04, 0, 0, 0.5, 0.001039716, 0.008884274, 0.02838177
XKFS, 18556860, 0, 0, 0, 0, 0, 0, 0, 0, 1
XKQ, 18556860, 0, 0.003877614, -0.0253478, -0.03801785, 0.998948
XKV1, 18556860, 0, 0.002681368, 0.0001745171, 0.0001724487, 4.81087E-07, 0.31418, 0.315446, 0.1520579, 0.3955709, 0.3957596, 0.7117234, 5.327767E-09, 5.708722E-09
XKV2, 18556860, 0, 8.547521E-08, 6.188767E-06, 6.188746E-06, 1.011786E-06, 0, 0, 0, 0, 0, 0, 0, 0
XKF4, 18556860, 1, 0, 0, 0, 0, 0, 0.03744926, 0, 0, 0, 50, 67751, 512, 0
XKF1, 18556860, 1, -4.46, 2.75, 179.34, 0.007312323, -0.02808609, -0.07606624, -0.04246155, 0, 0, -0.03450943, -0.06, -0.04, -0.02, 0
XKF2, 18556860, 1, 0, 0, -0.01, 0, 0, 484, 0, 188, 0, 0, 0, 0, 0, 0
XKF3, 18556860, 1, 0, 0, 0, 0, -0.02, -0.2, 0, 0, 0, 0.55, 0, 0, 0
XKFS, 18556860, 1, 0, 0, 0, 0, 0, 0, 0, 1
XKQ, 18556860, 1, -0.004807646, 0.02420666, 0.03876898, -0.9989434
AHR2, 18557482, -4.68, 1.91, 179.97, -0.16, 0, 0, -0.0004485072, -0.01669437, -0.04087374, 0.9990247
MOTB, 18557487, 1, 1, 1, 0.0431117, 0, 2
RCIN, 18557493, 1388, 1641, 1102, 1663, 1206, 2000, 1000, 1000, 1000, 1000, 1000, 875, 875, 875
RCI2, 18557496, 875, 875, 0, 1
RCOU, 18557503, 1000, 1000, 1000, 1000, 0, 0, 0, 0, 1000, 0, 0, 0, 0, 0
RCO2, 18557506, 0, 0, 0, 0
VIBE, 18557511, 0, 0.03192244, 0.04239454, 0.02009325, 0
VIBE, 18557511, 1, 0.07097541, 0.07233436, 0.0727444, 0
CTRL, 18557519, 0.1652937, 0.0313158, 0.1815582, 0.02238037, 0.06046161
IMU, 18557529, 0, -4.093389E-05, -0.009222169, -0.004325515, 0.4925312, 0.825906, -9.886176, 0, 0, 45.28986, 1, 1, 2022, 2022
IMU, 18557529, 1, -0.0002525895, -0.0007561059, -0.006932373, 0.5162604, 0.7900885, -9.798615, 0, 0, 46, 1, 1, 2000, 2043
DCM, 18559363, -4.686064, 1.912921, 179.9727, 0.007990668, 0.01900703, 0, 0, 0
EAHR, 18559403, 0, 0, 0, 0, 0, 0, 0, 0, 0, 0
FILE, @SYS/timers.txt, 0, 64, TIMERV1\nTIM5  CLK= 200Mhz MODE=  PWM FREQ=       7 TGT=       8\n
FILE, @SYS/timers.txt, 64, 64, TIM4  CLK= 200Mhz MODE=  PWM FREQ=       7 TGT=       8\nTIM1  CL
IMU, 18597231, 0, -0.001208377, -0.008135823, 0.002105517, 0.4319444, 0.8226224, -9.882668, 0, 0, 45.28986, 1, 1, 2022, 2022
IMU, 18597231, 1, -0.0009454083, -0.0004054609, -0.0005385485, 0.4456881, 0.7945364, -9.81034, 0, 0, 46, 1, 1, 2000, 2043
FILE, @SYS/timers.txt, 128, 48, K= 200Mhz MODE=  PWM FREQ=       7 TGT=       8\n
SURF, 18607141, 0, 2, 0, 0, 0.2508143
SURF, 18607150, 1, 2, 0, 0, 0.2508143
FILE, @ROMFS/hwdef.dat, 0, 64, MCU STM32H7xx STM32H743xx\nOSCILLATOR_HZ 16000000\nSTM32_ST_USE_TI
FILE, @ROMFS/hwdef.dat, 64, 64, MER 2\nUSB_VENDOR 0x3162\nUSB_PRODUCT 0x0053\nUSB_STRING_MANUFACTUR
IMU, 18637355, 0, 0.00010294, -0.008679394, -0.0001574347, 0.4459844, 0.8069743, -9.888552, 0, 0, 45.28986, 1, 1, 2022, 2022
IMU, 18637355, 1, -0.0008836068, -0.0020425, -0.003778943, 0.4611411, 0.7806714, -9.807231, 0, 0, 46, 1, 1, 2000, 2043
FILE, @ROMFS/hwdef.dat, 128, 64, ER "Holybro"\nAPJ_BOARD_ID 56\nFLASH_RESERVE_START_KB 128\nenv USE_
STAK, 18656320, 3, 60, 752, 480, OTG1
POWR, 18657171, 4.951309, 0, 1, 1, 6
MCU, 18657171, 41.31213, 3.348676, 3.341094, 3.354456
BAT, 18657189, 0, 14.67187, 15.10676, 1.057695, 3.092584, 0.04564303, 0, 0.4111617, 99, 1, 0
MAG, 18657201, 0, -522, -23, 159, -382, 367, 647, 0, 0, 0, 1, 18657199
MAG, 18657201, 1, -416, -143, 167, 59, 22, -40, 0, 0, 0, 1, 18657198
SURF, 18657219, 0, 2, 0, 0, 0.2490676
SURF, 18657227, 1, 2, 0, 0, 0.2490676
BARO, 18657247, 0, -0.07055664, -0.07055664, 93310.9, 42.53, -0.3436661, 18657, 0, 35, 1
CTUN, 18657254, 0, 0, 0, 0.431117, 0, 0.223196, -0.07, NaN, 0, NaN, 0, 30
ATT, 18657306, -9.553646, -4.361572, 10.93777, 2.898896, 179.4077, 179.4081, 3
ANG, 18656768, -9.553646, -4.361572, 10.93777, 2.898896, 179.4077, 179.4081, 0.002499
RATE, 18656784, 49.10108, 0.133073, 0.11065, -47.44426, 0.1095999, -0.1064785, -11.56007, -0.02974195, -0.03217949, 0, 7.595253, 0, 0
PIDR, 18657326, 0.8951188, 0.002322563, 0.8927963, 0.1205275, 0, -0.009877484, 0, 0, 1, 1.010351, 9
PIDP, 18657332, -0.8769332, 0.001912879, -0.8788461, -0.1186442, 0, 0.01216576, 0, 0, 1, 0.7841803, 9
PIDY, 18657336, -0.2360542, -0.000519095, -0.1787749, -0.03217949, 0, 0, 0, 0, 1, 0.1236948, 9
PIDA, 18657341, 0, 0, 0, 0, 0, 0, 0, 0, 0, 0, 0
XKF4, 18656905, 0, 0, 0, 0.01, 0, 0, 0.03823338, 0, 0, 0, 50, 67751, 512, 0
XKF1, 18656905, 0, -4.36, 2.89, 179.4, 0.06560235, -0.08049478, -0.302919, -0.1945987, 0, 0, -0.223196, -0.13, -0.63, 0.09, 0
XKF2, 18656905, 0, 0, 0, -0.04, 0, 0, 486, 0, 183, 0, 0, 0, 0, 0, 0
XKF3, 18656905, 0, 0, 0, 0, 0.03, -0.05, -0.38, 0, 0, 0, 0.75, 0, 0, 0
XKF5, 18656905, 0, 0, 0, 0, 0, 0.26, 0.04, 0, 0, 0.5, 0.001031366, 0.00801087, 0.0244773
XKFS, 18656905, 0, 0, 0, 0, 0, 0, 0, 0, 1
XKQ, 18656905, 0, 0.004197326, -0.02547278, -0.03790947, 0.9989476
XKF4, 18656905, 1, 0, 0, 0.01, 0, 0, 0.03816637, 0, 0, 0, 50, 67751, 512, 0
XKF1, 18656905, 1, -4.45, 2.74, 179.3, 0.008656005, -0.03192084, -0.07587594, -0.02359448, 0, 0, -0.03530251, -0.06, -0.04, -0.02, 0
XKF2, 18656905, 1, 0, 0, -0.01, 0, 0, 484, 0, 188, 0, 0, 0, 0, 0, 0
XKF3, 18656905, 1, 0, 0, 0, 0, -0.02, -0.2, 0, 0, 0, 0.63, 0, 0, 0
XKFS, 18656905, 1, 0, 0, 0, 0, 0, 0, 0, 1
XKQ, 18656905, 1, -0.005082147, 0.02419932, 0.03874466, -0.9989432
AHR2, 18657459, -4.68, 1.87, 179.96, -0.16, 0, 0, -0.000393678, -0.01638561, -0.04087967, 0.9990296
MOTB, 18657464, 1, 1, 1, 0.0431117, 0, 2
RCIN, 18657470, 1515, 1515, 1102, 1591, 1206, 2000, 1000, 1000, 1000, 1000, 1000, 875, 875, 875
RCI2, 18657474, 875, 875, 0, 1
RCOU, 18657480, 1000, 1000, 1000, 1000, 0, 0, 0, 0, 1000, 0, 0, 0, 0, 0
RCO2, 18657484, 0, 0, 0, 0
VIBE, 18657488, 0, 0.02475553, 0.03211898, 0.01340808, 0
VIBE, 18657488, 1, 0.06648218, 0.07088549, 0.07211175, 0
CTRL, 18657497, 0.1463607, 0.03860357, 0.1581843, 0.040358, 0.05089226
DCM, 18659348, -4.68683, 1.876763, 179.9688, 0.007990668, 0.01899253, 0, 0, 0
EAHR, 18659369, 0, 0, 0, 0, 0, 0, 0, 0, 0, 0
FILE, @ROMFS/hwdef.dat, 192, 64, ALT_RAM_MAP 1\nFLASH_SIZE_KB 2048\nenv OPTIMIZE -O2\nSERIAL_ORDER O
FMT, 254, 35, IOMC, QHHIIIII, TimeUS,RSErr,Mem,TS,NPkt,Nerr,Nerr2,NDel
IOMC, 18669949, 0, 12896, 18663, 5762, 0, 0, 0
FILE, @ROMFS/hwdef.dat, 256, 64, TG1 UART7 UART5 USART1 UART8 USART2 USART3 OTG2\nPA11 OTG_FS_DM O
GPS, 18677313, 0, 1, 39262600, 2380, 0, 99.99, 15.3693162, 75.1237122, 659.41, 0, 0, 0, 0, 1
GPA, 18677313, 0, 99.99, 655.35, 655.35, 655.35, 0, 1, 18654, 200, 581.4, 0, 0
IMU, 18677363, 0, -0.001194327, -0.007627728, 0.003058788, 0.4519902, 0.8417987, -9.882095, 0, 0, 45.28986, 1, 1, 2022, 2022
IMU, 18677363, 1, -0.0007654263, 0.0008970776, -9.216546E-05, 0.4528714, 0.8247121, -9.824802, 0, 0, 46, 1, 1, 2000, 2043
FILE, @ROMFS/hwdef.dat, 320, 64, TG1\nPA12 OTG_FS_DP OTG1\nPA9 VBUS INPUT OPENDRAIN\nPA13 JTMS-SWDIO
FILE, @ROMFS/hwdef.dat, 384, 64,  SWD\nPA14 JTCK-SWCLK SWD\nPE8  UART7_TX UART7\nPE7  UART7_RX UART7
SURF, 18707125, 0, 2, 0, 0, 0.2478043
SURF, 18707134, 1, 2, 0, 0, 0.2478043
FILE, @ROMFS/hwdef.dat, 448, 64, \nPE9  UART7_RTS UART7 LOW PULLDOWN\nPE10 UART7_CTS UART7\nPC12 UAR
IMU, 18717371, 0, -0.001440475, -0.008864106, 0.0008278392, 0.4599786, 0.7512543, -9.877888, 0, 0, 45.28986, 1, 1, 2022, 2022
IMU, 18717371, 1, -0.001553794, 0.0002844412, -0.001443048, 0.4809241, 0.712558, -9.772028, 0, 0, 45.5, 1, 1, 2000, 2043
FILE, @ROMFS/hwdef.dat, 512, 64, T5_TX UART5\nPD2 UART5_RX UART5\nPC8 UART5_RTS UART5 LOW PULLDOWN\n
FILE, @ROMFS/hwdef.dat, 576, 64, PC9 UART5_CTS UART5\nPB6  USART1_TX USART1\nPA10 USART1_RX USART1\n
FILE, @ROMFS/hwdef.dat, 640, 64, PE1 UART8_TX UART8\nPE0 UART8_RX UART8\nPD5 USART2_TX USART2\nPA3 U
FILE, @ROMFS/hwdef.dat, 704, 64, SART2_RX USART2\nPD8 USART3_TX USART3\nPD9 USART3_RX USART3\nPC6 US
POWR, 18757195, 4.949799, 0, 1, 1, 6
MCU, 18757195, 41.35189, 3.348676, 3.341374, 3.354456
BAT, 18757208, 0, 14.6673, 15.10337, 1.056779, 3.121947, 0.0460737, 0, 0.4126481, 99, 1, 0
MAG, 18757220, 0, -520, -24, 165, -382, 367, 647, 0, 0, 0, 1, 18757219
MAG, 18757220, 1, -416, -144, 166, 59, 22, -40, 0, 0, 0, 1, 18757217
SURF, 18757238, 0, 2, 0, 0, 0.2470175
SURF, 18757247, 1, 2, 0, 0, 0.2470175
BARO, 18757267, 0, -0.05291748, -0.05291748, 93310.7, 42.53, -0.3960037, 18757, 0, 35, 1
CTUN, 18757276, 0, 0, 0, 0.431117, 0, 0.2400069, -0.05, NaN, 0, NaN, 0, 30
ATT, 18757324, -4.394681, -4.354676, 5.030673, 2.911841, 179.3757, 179.3758, 3
ANG, 18756761, -4.394681, -4.354676, 5.030673, 2.911841, 179.3757, 179.3758, 0.0025
RATE, 18756774, 33.55416, 0.1310602, 0.0736947, -29.03532, 0.05822992, -0.06267381, -2.780686, -0.08097094, -0.02138138, 0, 7.55558, 0, 0
PIDR, 18757340, 0.6067386, 0.002287432, 0.6044511, 0.0816009, 0, -0.007906206, 0, 0, 1, 1.49437, 9
PIDP, 18757344, -0.5307168, 0.001016304, -0.5317332, -0.07178398, 0, 0.009110169, 0, 0, 1, 1.283808, 9
PIDY, 18757347, -0.05678055, -0.00141321, -0.1187855, -0.02138138, 0, 0, 0, 0, 1, 0.1858231, 9
PIDA, 18757365, 0, 0, 0, 0, 0, 0, 0, 0, 0, 0, 0
XKF4, 18756886, 0, 0, 0, 0.01, 0, 0, 0.03893847, 0, 0, 0, 50, 67751, 512, 0
XKF1, 18756886, 0, -4.35, 2.91, 179.37, 0.06845643, -0.08523747, -0.3046484, -0.1767018, 0, 0, -0.2400069, -0.13, -0.63, 0.09, 0
XKF2, 18756886, 0, 0, 0, -0.04, 0, 0, 486, 0, 183, 0, 0, 0, 0, 0, 0
XKF3, 18756886, 0, 0, 0, 0, 0.04, -0.06, -0.29, 0, 0, 0, 0.6, 0, 0, 0
XKF5, 18756886, 0, 0, 0, 0, 0, 0.28, 0.04, 0, 0, 0.5, 0.0009417119, 0.00768708, 0.02388024
XKFS, 18756886, 0, 0, 0, 0, 0, 0, 0, 0, 1
XKQ, 18756886, 0, 0.00447615, -0.02559604, -0.03784145, 0.9989458
XKF4, 18756886, 1, 0, 0, 0, 0, 0, 0.03887067, 0, 0, 0, 50, 67751, 512, 0
XKF1, 18756886, 1, -4.45, 2.75, 179.28, 0.007757889, -0.03311303, -0.07437821, -0.01060801, 0, 0, -0.0361273, -0.06, -0.04, -0.01, 0
XKF2, 18756886, 1, 0, 0, -0.01, 0, 0, 484, 0, 188, 0, 0, 0, 0, 0, 0
XKF3, 18756886, 1, 0, 0, 0, 0, -0.02, -0.1, 0, 0, 0, 0.48, 0, 0, 0
XKFS, 18756886, 1, 0, 0, 0, 0, 0, 0, 0, 1
XKQ, 18756886, 1, -0.005330959, 0.02424204, 0.03873179, -0.9989413
AHR2, 18757471, -4.69, 1.84, 179.96, -0.07, 0, 0, -0.0003828784, -0.01608173, -0.0409276, 0.9990326
MOTB, 18757476, 1, 1, 1, 0.0431117, 0, 2
RCIN, 18757486, 1515, 1515, 1102, 1588, 1206, 2000, 1000, 1000, 1000, 1000, 1000, 875, 875, 875
RCI2, 18757489, 875, 875, 0, 1
RCOU, 18757496, 1000, 1000, 1000, 1000, 0, 0, 0, 0, 1000, 0, 0, 0, 0, 0
RCO2, 18757499, 0, 0, 0, 0
VIBE, 18757503, 0, 0.02585047, 0.03755645, 0.01972625, 0
VIBE, 18757503, 1, 0.06784812, 0.07500542, 0.07311138, 0
CTRL, 18757512, 0.1323453, 0.03214485, 0.1396418, 0.03380637, 0.04482042
IMU, 18757522, 0, -3.460197E-05, -0.01012341, 0.0002634986, 0.4895837, 0.8425638, -9.882874, 0, 0, 45.28986, 1, 1, 2022, 2022
IMU, 18757522, 1, -0.0003471582, -0.001732453, -0.001624932, 0.5060863, 0.8296837, -9.780262, 0, 0, 45.5, 1, 1, 2000, 2043
STAK, 18757649, 4, 183, 1456, 1096, monitor
DCM, 18759349, -4.692364, 1.842139, 179.9689, 0.008790678, 0.01927911, 0, 0, 0
EAHR, 18759370, 0, 0, 0, 0, 0, 0, 0, 0, 0, 0
FILE, @ROMFS/hwdef.dat, 768, 64, ART6_TX USART6\nPC7 USART6_RX USART6\nIOMCU_UART USART6\nPC5 BATT_V
FILE, @ROMFS/hwdef.dat, 832, 64, OLTAGE_SENS ADC1 SCALE(1)\nPC4 BATT_CURRENT_SENS ADC1 SCALE(1)\nPB
FILE, @ROMFS/hwdef.dat, 896, 64, 1 BATT2_VOLTAGE_SENS ADC1 SCALE(1)\nPA2 BATT2_CURRENT_SENS ADC1 S
IMU, 18797234, 0, -0.0003155936, -0.009291537, 0.005523141, 0.4098965, 0.7805048, -9.886664, 0, 0, 45.28986, 1, 1, 2022, 2022
IMU, 18797234, 1, -0.0008206037, 0.000291696, 0.004017405, 0.412916, 0.7359934, -9.788894, 0, 0, 45.5, 1, 1, 2000, 2043
FILE, @ROMFS/hwdef.dat, 960, 64, CALE(1)\ndefine HAL_BATT_VOLT_PIN 8\ndefine HAL_BATT_CURR_PIN 4\nde
SURF, 18807104, 0, 2, 0, 0, 0.2466752
SURF, 18807114, 1, 2, 0, 0, 0.2466752
FILE, @ROMFS/hwdef.dat, 1024, 64, fine HAL_BATT_VOLT_SCALE 18.18\ndefine HAL_BATT_CURR_SCALE 36.36\n
FILE, @ROMFS/hwdef.dat, 1088, 64, PA4 VDD_5V_SENS  ADC1 SCALE(2)\nPA5 SPI1_SCK SPI1\nPA6 SPI1_MISO S
FILE, @ROMFS/hwdef.dat, 1152, 64, PI1\nPA7 SPI1_MOSI SPI1\nPC13 ICM42688_CS CS\nPC14 BMI055_G_CS CS\nP
IMU, 18837381, 0, 0.001126566, -0.007866805, -0.0008302878, 0.4606983, 0.8458946, -9.869702, 0, 0, 45.28986, 1, 1, 2022, 2022
IMU, 18837381, 1, 0.000942971, 0.0006999858, -0.004694188, 0.4774511, 0.827134, -9.776944, 0, 0, 45.5, 1, 1, 2000, 2043
FILE, @ROMFS/hwdef.dat, 1216, 64, C15 BMI055_A_CS CS\nPE4  BMI055_DRDY_A INPUT\nPE5  BMI055_DRDY_G I
FILE, @ROMFS/hwdef.dat, 1280, 64, NPUT\nPE6  ICM42688_DRDY INPUT\nPD3 SPI2_SCK SPI2\nPC2 SPI2_MISO SP
POWR, 18857171, 4.951611, 0, 1, 1, 6
MCU, 18857171, 41.37177, 3.348817, 3.340674, 3.355303
BAT, 18857186, 0, 14.66772, 15.10463, 1.055599, 3.151265, 0.04650373, 0, 0.4138909, 99, 1, 0
MAG, 18857198, 0, -518, -23, 163, -382, 367, 647, 0, 0, 0, 1, 18857197
MAG, 18857198, 1, -414, -144, 167, 59, 22, -40, 0, 0, 0, 1, 18857195
SURF, 18857219, 0, 2, 0, 0, 0.2467694
SURF, 18857227, 1, 2, 0, 0, 0.2467694
BARO, 18857247, 0, 0.02056885, 0.02056885, 93309.88, 42.54, 0.05619049, 18857, 0, 35, 1
CTUN, 18857254, 0, 0, 0, 0.431117, 0, 0.2571315, 0.02, NaN, 0, NaN, 0, 30
ATT, 18857299, -2.021219, -4.342081, 2.313659, 2.925632, 179.347, 179.347, 3
ANG, 18856761, -2.021219, -4.342081, 2.313659, 2.925632, 179.347, 179.347, 0.0025
RATE, 18856773, 25.95552, 0.1117975, 0.05869651, -20.56292, 0.1544107, -0.0460184, -0.6616782, -0.1859773, -0.008018535, 0, 7.75547, 0, 0
PIDR, 18857315, 0.462958, 0.001951234, 0.4610067, 0.06223591, 0, -0.003539399, 0, 0, 1, 1.890484, 9
PIDP, 18857319, -0.3699336, 0.002694975, -0.3726285, -0.05030486, 0, 0.004286453, 0, 0, 1, 1.692695, 9
PIDY, 18857323, -0.01362021, -0.003245917, -0.04454741, -0.008018535, 0, 0, 0, 0, 1, 0.2428496, 9
PIDA, 18857327, 0, 0, 0, 0, 0, 0, 0, 0, 0, 0, 0
XKF4, 18856861, 0, 0, 0, 0.01, 0, 0, 0.03962877, 0, 0, 0, 50, 67751, 512, 0
XKF1, 18856861, 0, -4.34, 2.92, 179.34, 0.07439405, -0.09187303, -0.3065962, -0.1717538, 0, 0, -0.2571315, -0.13, -0.63, 0.1, 0
XKF2, 18856861, 0, 0, 0, -0.04, 0, 0, 486, 0, 183, 0, 0, 0, 0, 0, 0
XKF3, 18856861, 0, 0, 0, 0, 0.04, -0.07, -0.29, 0, 0, 0, 0.67, 0, 0, 0
XKF5, 18856861, 0, 0, 0, 0, 0, 0.29, 0.04, 0, 0, 0.5, 0.0009209805, 0.007410071, 0.02286201
XKFS, 18856861, 0, 0, 0, 0, 0, 0, 0, 0, 1
XKQ, 18856861, 0, 0.004725365, -0.02572524, -0.03772441, 0.9989458
XKF4, 18856861, 1, 0, 0, 0, 0, 0, 0.03956094, 0, 0, 0, 50, 67751, 512, 0
XKF1, 18856861, 1, -4.45, 2.75, 179.25, 0.009700575, -0.03609729, -0.07386217, -0.01342085, 0, 0, -0.03752583, -0.06, -0.05, -0.01, 0
XKF2, 18856861, 1, 0, 0, -0.01, 0, 0, 484, 0, 188, 0, 0, 0, 0, 0, 0
XKF3, 18856861, 1, 0, 0, 0, 0, -0.02, -0.09, 0, 0, 0, 0.55, 0, 0, 0
XKFS, 18856861, 1, 0, 0, 0, 0, 0, 0, 0, 1
XKQ, 18856861, 1, -0.005568941, 0.02429419, 0.03868827, -0.9989404
AHR2, 18857467, -4.69, 1.8, 179.97, -0.05, 0, 0, -0.0003848793, -0.01578439, -0.0409265, 0.9990374
MOTB, 18857472, 1, 1, 1, 0.0431117, 0, 2
RCIN, 18857478, 1515, 1515, 1102, 1589, 1206, 2000, 1000, 1000, 1000, 1000, 1000, 875, 875, 875
RCI2, 18857482, 875, 875, 0, 1
RCOU, 18857488, 1000, 1000, 1000, 1000, 0, 0, 0, 0, 1000, 0, 0, 0, 0, 0
RCO2, 18857492, 0, 0, 0, 0
VIBE, 18857496, 0, 0.03026466, 0.03182359, 0.01856138, 0
VIBE, 18857496, 1, 0.07230686, 0.07292014, 0.07448352, 0
CTRL, 18857508, 0.1155008, 0.02648145, 0.1191617, 0.02787287, 0.03753367
STAK, 18857628, 5, 181, 1968, 1528, timer
DCM, 18859350, -4.692204, 1.808402, 179.9698, 0.008790678, 0.0193897, 0, 0, 0
EAHR, 18859372, 0, 0, 0, 0, 0, 0, 0, 0, 0, 0
FILE, @ROMFS/hwdef.dat, 1344, 64, I2\nPC3 SPI2_MOSI SPI2\nPD4 FRAM_CS CS\nPA8  TIM1_CH1 TIM1 PWM(1) G
FILE, @ROMFS/hwdef.dat, 1408, 64, PIO(50)\nPE11 TIM1_CH2 TIM1 PWM(2) GPIO(51)\nPE13 TIM1_CH3 TIM1 PW
GPS, 18877318, 0, 1, 39262800, 2380, 0, 99.99, 15.3693162, 75.1237122, 659.41, 0, 0, 0, 0, 1
GPA, 18877318, 0, 99.99, 655.35, 655.35, 655.35, 0, 1, 18854, 200, 581.4, 0, 0
IMU, 18877395, 0, -4.074656E-05, -0.008727894, -0.0004749601, 0.4393715, 0.8167108, -9.888453, 0, 0, 45.28986, 1, 1, 2022, 2022
IMU, 18877395, 1, -0.001763893, 0.0007952285, -0.002634421, 0.4531113, 0.789939, -9.792683, 0, 0, 45.5, 1, 1, 2000, 2043
FILE, @ROMFS/hwdef.dat, 1472, 64, M(3) GPIO(52)\nPE14 TIM1_CH4 TIM1 PWM(4) GPIO(53)\nPD14 TIM4_CH3 T
FILE, @ROMFS/hwdef.dat, 1536, 64, IM4 PWM(5) GPIO(54)\nPD15 TIM4_CH4 TIM4 PWM(6) GPIO(55)\nPA0  TIM5
SURF, 18907165, 0, 2, 0, 0, 0.2472754
SURF, 18907175, 1, 2, 0, 0, 0.2472754
FILE, @ROMFS/hwdef.dat, 1600, 64, _CH1 TIM5 PWM(7) GPIO(56)\nPA1  TIM5_CH2 TIM5 PWM(8) GPIO(57)\nPD0
IMU, 18917356, 0, -0.0006430038, -0.008490337, 0.002372052, 0.4715663, 0.7595474, -9.88408, 0, 0, 45.28986, 1, 1, 2022, 2022
IMU, 18917356, 1, -0.0009075867, 0.002041132, 0.0004632716, 0.493139, 0.7187557, -9.792981, 0, 0, 45.5, 1, 1, 2000, 2043
FILE, @ROMFS/hwdef.dat, 1664, 64,   CAN1_RX CAN1\nPD1  CAN1_TX CAN1\nPB5  CAN2_RX CAN2\nPB13 CAN2_TX 
FILE, @ROMFS/hwdef.dat, 1728, 64, CAN2\nPB7 I2C1_SDA I2C1\nPB8 I2C1_SCL I2C1\nPB10 I2C2_SCL I2C2\nPB11
FMT, 253, 28, HEAT, Qfbfff, TimeUS,Temp,Targ,P,I,Out
HEAT, 18934278, 45.28984, 45, -14.49184, 2.729216, 0
FILE, @ROMFS/hwdef.dat, 1792, 64,  I2C2_SDA I2C2\nPD12 I2C4_SCL I2C4\nPD13 I2C4_SDA I2C4\nI2C_ORDER I
FILE, @ROMFS/hwdef.dat, 1856, 64, 2C4 I2C1 I2C2\ndefine HAL_I2C_INTERNAL_MASK 1\nPB9 HEATER_EN OUTPU
POWR, 18957141, 4.951611, 0, 1, 1, 6
MCU, 18957141, 41.35189, 3.348676, 3.341655, 3.353609
BAT, 18957155, 0, 14.67453, 15.11401, 1.06099, 3.18073, 0.04693612, 0, 0.4142203, 99, 1, 0
MAG, 18957167, 0, -521, -22, 158, -382, 367, 647, 0, 0, 0, 1, 18957165
MAG, 18957167, 1, -416, -144, 166, 59, 22, -40, 0, 0, 0, 1, 18957164
SURF, 18957184, 0, 2, 0, 0, 0.2481834
SURF, 18957207, 1, 2, 0, 0, 0.2481834
BARO, 18957240, 0, -0.06176758, -0.06176758, 93310.78, 42.54, 0.3841782, 18957, 0, 35, 1
CTUN, 18957248, 0, 0, 0, 0.431117, 0, 0.2750164, -0.06, NaN, 0, NaN, 0, 30
DU32, 18957299, 7, 6349272
ATT, 18957351, -0.9295858, -4.332282, 1.064076, 2.939563, 179.3127, 179.3127, 3
ANG, 18956761, -0.9295858, -4.332282, 1.064076, 2.939563, 179.3127, 179.3127, 0.0025
RATE, 18956774, 22.41679, 0.09860094, 0.05158582, -16.67406, 0.1726817, -0.03863104, -0.1001801, -0.04979948, -0.002270418, 0, 7.160568, 0, 0
PIDR, 18957367, 0.3958706, 0.001720911, 0.3941497, 0.05321021, 0, -0.001624397, 0, 0, 1, 2.208013, 9
PIDP, 18957371, -0.2960452, 0.003013864, -0.299059, -0.04037297, 0, 0.001741927, 0, 0, 1, 2.023934, 9
PIDY, 18957375, -0.00233608, -0.0008691649, -0.01261344, -0.002270418, 0, 0, 0, 0, 1, 0.2865656, 9
PIDA, 18957378, 0, 0, 0, 0, 0, 0, 0, 0, 0, 0, 0
XKF4, 18956860, 0, 0, 0, 0.01, 0, 0, 0.04030028, 0, 0, 0, 50, 67751, 512, 0
XKF1, 18956860, 0, -4.33, 2.93, 179.31, 0.07754692, -0.09627272, -0.3084894, -0.1755892, 0, 0, -0.2750164, -0.13, -0.63, 0.1, 0
XKF2, 18956860, 0, 0, 0, -0.05, 0, 0, 486, 0, 183, 0, 0, 0, 0, 0, 0
XKF3, 18956860, 0, 0, 0, 0, 0.05, -0.08, -0.24, 0, 0, 0, 0.61, 0, 0, 0
XKF5, 18956860, 0, 0, 0, 0, 0, 0.31, 0.04, 0, 0, 0.5, 0.0008862, 0.007232808, 0.02372127
XKFS, 18956860, 0, 0, 0, 0, 0, 0, 0, 0, 1
XKQ, 18956860, 0, 0.005021865, -0.02585754, -0.03763044, 0.9989445
XKF4, 18956860, 1, 0, 0, 0, 0, 0, 0.04023267, 0, 0, 0, 50, 67751, 512, 0
XKF1, 18956860, 1, -4.45, 2.76, 179.22, 0.008528687, -0.03648554, -0.07367583, -0.02578171, 0, 0, -0.04024464, -0.06, -0.05, -0.01, 0
XKF2, 18956860, 1, 0, 0, -0.01, 0, 0, 484, 0, 188, 0, 0, 0, 0, 0, 0
XKF3, 18956860, 1, 0, 0, 0, 0.01, -0.03, -0.02, 0, 0, 0, 0.49, 0, 0, 0
XKFS, 18956860, 1, 0, 0, 0, 0, 0, 0, 0, 1
XKQ, 18956860, 1, -0.005810798, 0.02434036, 0.03867956, -0.9989383
AHR2, 18957514, -4.69, 1.77, 179.96, 0.02, 0, 0, -0.0003394843, -0.0155035, -0.04093983, 0.9990413
MOTB, 18957519, 1, 1, 1, 0.0431117, 0, 2
RCIN, 18957527, 1515, 1515, 1102, 1590, 1206, 2000, 1000, 1000, 1000, 1000, 1000, 875, 875, 875
RCI2, 18957531, 875, 875, 0, 1
RCOU, 18957538, 1000, 1000, 1000, 1000, 0, 0, 0, 0, 1000, 0, 0, 0, 0, 0
RCO2, 18957541, 0, 0, 0, 0
VIBE, 18957545, 0, 0.02316129, 0.02832888, 0.01360784, 0
VIBE, 18957545, 1, 0.07037365, 0.07033849, 0.07334606, 0
CTRL, 18957554, 0.09995995, 0.02170918, 0.100738, 0.02285659, 0.03081688
IMU, 18957564, 0, -0.0006037764, -0.008131902, 0.0009750168, 0.4698931, 0.800424, -9.884923, 0, 0, 45.28986, 1, 1, 2022, 2022
IMU, 18957564, 1, -0.0007956084, -0.0006036855, -0.001485455, 0.4859237, 0.781429, -9.800891, 0, 0, 45.5, 1, 1, 2000, 2043
UART, 18957610, 1, 21, 163
UART, 18957614, 2, 21, 0
UART, 18957617, 3, 30, 732
UART, 18957622, 100, 8378, 5126
DCM, 18959385, -4.693504, 1.776, 179.9664, 0.009718065, 0.01894621, 0, 0, 0
EAHR, 18959420, 0, 0, 0, 0, 0, 0, 0, 0, 0, 0
STAK, 18963229, 6, 181, 944, 656, rcout
FILE, @ROMFS/hwdef.dat, 1920, 64, T LOW GPIO(80)\ndefine HAL_HEATER_GPIO_PIN 80\ndefine HAL_HAVE_IMU
FILE, @ROMFS/hwdef.dat, 1984, 64, _HEATER 1\ndefine HAL_IMU_TEMP_DEFAULT 45\ndefine HAL_IMUHEAT_P_DE
DSF, 18987329, 0, 2065, 91553, 162882, 204731, 184387
FILE, @ROMFS/hwdef.dat, 2048, 64, FAULT 50\ndefine HAL_IMUHEAT_I_DEFAULT 0.07\nPB2 VDD_3V3_SENSORS1_
