FMT, 128, 89, FMT, BBnNZ, Type,Length,Name,Format,Columns
FMT, 119, 76, UNIT, QbZ, TimeUS,Id,Label
FMT, 118, 44, FMTU, QBNN, TimeUS,FmtType,UnitIds,MultIds
FMT, 120, 20, MULT, Qbd, TimeUS,Id,Mult
FMT, 32, 35, PARM, QNff, TimeUS,Name,Value,Default
FMT, 94, 51, GPS, QBBIHBcLLeffffB, TimeUS,I,Status,GMS,GWk,NSats,HDop,Lat,Lng,Alt,Spd,GCrs,VZ,Yaw,U
FMT, 95, 39, GPA, QBCCCCfBIHeHH, TimeUS,I,VDop,HAcc,VAcc,SAcc,YAcc,VV,SMS,Delta,AEl,RTCMFU,RTCMFD
FMT, 99, 22, UBX1, QBHBBHI, TimeUS,Instance,noisePerMS,jamInd,aPower,agcCnt,config
FMT, 100, 16, UBX2, QBbBbB, TimeUS,Instance,ofsI,magI,ofsQ,magQ
FMT, 96, 42, GRAW, QIHBBddfBbB, TimeUS,WkMS,Week,numSV,sv,cpMes,prMes,doMes,mesQI,cno,lli
FMT, 97, 24, GRXH, QdHbBB, TimeUS,rcvTime,week,leapS,numMeas,recStat
FMT, 98, 41, GRXS, QddfBBBHBBBBB, TimeUS,prMes,cpMes,doMes,gnss,sv,freq,lock,cno,prD,cpD,doD,trk
FMT, 101, 23, SBPH, QIII, TimeUS,CrcError,LastInject,IARhyp
FMT, 102, 67, SBRH, QQQQQQQQ, TimeUS,msg_flag,1,2,3,4,5,6
FMT, 103, 123, SBRM, QQQQQQQQQQQQQQQ, TimeUS,msg_flag,1,2,3,4,5,6,7,8,9,10,11,12,13
FMT, 104, 23, SBRE, QHIiBB, TimeUS,GWk,GMS,ns_residual,level,quality
FMT, 59, 75, MSG, QZ, TimeUS,Message
FMT, 60, 39, RCIN, QHHHHHHHHHHHHHH, TimeUS,C1,C2,C3,C4,C5,C6,C7,C8,C9,C10,C11,C12,C13,C14
FMT, 61, 18, RCI2, QHHHB, TimeUS,C15,C16,OMask,Flags
FMT, 62, 39, RCOU, QHHHHHHHHHHHHHH, TimeUS,C1,C2,C3,C4,C5,C6,C7,C8,C9,C10,C11,C12,C13,C14
FMT, 207, 19, RCO2, QHHHH, TimeUS,C15,C16,C17,C18
FMT, 208, 39, RCO3, QHHHHHHHHHHHHHH, TimeUS,C19,C20,C21,C22,C23,C24,C25,C26,C27,C28,C29,C30,C31,C32
FMT, 63, 19, RSSI, Qff, TimeUS,RXRSSI,RXLQ
FMT, 64, 43, BARO, QBfffcfIffB, TimeUS,I,Alt,AltAMSL,Press,Temp,CRt,SMS,Offset,GndTemp,Health
FMT, 65, 24, BARD, QBfff, TimeUS,I,DynPrX,DynPrY,DynPrZ
FMT, 66, 25, CANF, QBIBBBBBBBBB, TimeUS,Bus,Id,DLC,B0,B1,B2,B3,B4,B5,B6,B7
FMT, 67, 81, CAFD, QBIBQQQQQQQQ, TimeUS,Bus,Id,DLC,D0,D1,D2,D3,D4,D5,D6,D7
FMT, 196, 50, PL, QBBfffffffIIB, TimeUS,Heal,TAcq,pX,pY,vX,vY,mX,mY,mZ,LastMeasMS,EKFOutl,Est
FMT, 68, 24, POWR, QffHHB, TimeUS,Vcc,VServo,Flags,AccFlags,Safety
FMT, 69, 27, MCU, Qffff, TimeUS,MTemp,MVolt,MVmin,MVmax
FMT, 93, 46, CMD, QHHHffffLLfB, TimeUS,CTot,CNum,CId,Prm1,Prm2,Prm3,Prm4,Lat,Lng,Alt,Frame
FMT, 92, 46, MISE, QHHHffffLLfB, TimeUS,CTot,CNum,CId,Prm1,Prm2,Prm3,Prm4,Lat,Lng,Alt,Frame
FMT, 78, 48, MAVC, QBBBBBHffffiifBB, TimeUS,TS,TC,SS,SC,Fr,Cmd,P1,P2,P3,P4,X,Y,Z,Res,WL
FMT, 79, 20, RAD, QBBBBBHH, TimeUS,RSSI,RemRSSI,TxBuf,Noise,RemNoise,RxErrors,Fixed
FMT, 81, 46, CAM, QBHIHLLeeeccC, TimeUS,I,Img,GPSTime,GPSWeek,Lat,Lng,Alt,RelAlt,GPSAlt,R,P,Y
FMT, 82, 46, TRIG, QBHIHLLeeeccC, TimeUS,I,Img,GPSTime,GPSWeek,Lat,Lng,Alt,RelAlt,GPSAlt,R,P,Y
FMT, 83, 48, MNT, QBfffffffff, TimeUS,I,DRoll,Roll,DPitch,Pitch,DYawB,YawB,DYawE,YawE,Dist
FMT, 114, 41, ARSP, QBffcffBBffB, TimeUS,I,Airspeed,DiffPress,Temp,RawPress,Offset,U,H,Hp,TR,Pri
FMT, 88, 41, BAT, QBfffffcfBBB, TimeUS,Inst,Volt,VoltR,Curr,CurrTot,EnrgTot,Temp,Res,RemPct,H,SH
FMT, 89, 40, BCL, QBfHHHHHHHHHHHH, TimeUS,Instance,Volt,V1,V2,V3,V4,V5,V6,V7,V8,V9,V10,V11,V12
FMT, 113, 35, MAG, QBhhhhhhhhhBI, TimeUS,I,MagX,MagY,MagZ,OfsX,OfsY,OfsZ,MOX,MOY,MOZ,Health,S
FMT, 122, 14, MODE, QMBB, TimeUS,Mode,ModeNum,Rsn
FMT, 116, 17, RFND, QBCBBb, TimeUS,Instance,Dist,Stat,Orient,Quality
FMT, 117, 36, DMS, QIIIIBBBBBBBBB, TimeUS,N,Dp,RT,RS,Fa,Fmn,Fmx,Pa,Pmn,Pmx,Sa,Smn,Smx
FMT, 174, 41, BCN, QBBfffffff, TimeUS,Health,Cnt,D0,D1,D2,D3,PosX,PosY,PosZ
FMT, 175, 57, PRX, QBBfffffffffff, TimeUS,Layer,He,D0,D45,D90,D135,D180,D225,D270,D315,DUp,CAn,CDis
FMT, 176, 44, PRXR, QBffffffff, TimeUS,Layer,D0,D45,D90,D135,D180,D225,D270,D315
FMT, 179, 61, PM, QHHHIIHHIIIIIIQ, TimeUS,LR,NLon,NL,MaxT,Mem,Load,ErrL,InE,ErC,SPIC,I2CC,I2CI,Ex,R
FMT, 178, 29, SRTL, QBHHBfff, TimeUS,Active,NumPts,MaxPts,Action,N,E,D
FMT, 170, 48, OABR, QBBHHHBfLLiLLi, TimeUS,Type,Act,DYaw,Yaw,DP,RChg,Mar,DLt,DLg,DAlt,OLt,OLg,OAlt
FMT, 171, 31, OADJ, QBBBBLLLL, TimeUS,State,Err,CurrPoint,TotPoints,DLat,DLng,OALat,OALng
FMT, 172, 37, SA, QBffffffB, TimeUS,State,DVelX,DVelY,DVelZ,MVelX,MVelY,MVelZ,Back
FMT, 173, 21, OAVG, QBBLL, TimeUS,version,point_num,Lat,Lon
FMT, 77, 45, SIM, QccCfLLffff, TimeUS,Roll,Pitch,Yaw,Alt,Lat,Lng,Q1,Q2,Q3,Q4
FMT, 84, 38, TERR, QBLLHffHHf, TimeUS,Status,Lat,Lng,Spacing,TerrH,CHeight,Pending,Loaded,ROfs
FMT, 86, 40, ESC, QBffffcfcf, TimeUS,Instance,RPM,RawRPM,Volt,Curr,Temp,CTot,MotTemp,Err
FMT, 87, 15, EDT2, QBBBB, TimeUS,Instance,Stress,MaxStress,Status
FMT, 85, 46, CSRV, QBfffBfffffB, TimeUS,Id,Pos,Force,Speed,Pow,PosCmd,V,A,MotT,PCBT,Err
FMT, 105, 52, PIDR, QffffffffffB, TimeUS,Tar,Act,Err,P,I,D,FF,DFF,Dmod,SRate,Flags
FMT, 106, 52, PIDP, QffffffffffB, TimeUS,Tar,Act,Err,P,I,D,FF,DFF,Dmod,SRate,Flags
FMT, 107, 52, PIDY, QffffffffffB, TimeUS,Tar,Act,Err,P,I,D,FF,DFF,Dmod,SRate,Flags
FMT, 108, 52, PIDA, QffffffffffB, TimeUS,Tar,Act,Err,P,I,D,FF,DFF,Dmod,SRate,Flags
FMT, 109, 52, PIDS, QffffffffffB, TimeUS,Tar,Act,Err,P,I,D,FF,DFF,Dmod,SRate,Flags
FMT, 110, 52, PIDN, QffffffffffB, TimeUS,Tar,Act,Err,P,I,D,FF,DFF,Dmod,SRate,Flags
FMT, 111, 52, PIDE, QffffffffffB, TimeUS,Tar,Act,Err,P,I,D,FF,DFF,Dmod,SRate,Flags
FMT, 112, 56, DSTL, QBfLLeccfeffff, TimeUS,Stg,THdg,Lat,Lng,Alt,XT,Travel,L1I,Loiter,Des,P,I,D
FMT, 161, 32, ACC, QBQfff, TimeUS,I,SampleUS,AccX,AccY,AccZ
FMT, 162, 32, GYR, QBQfff, TimeUS,I,SampleUS,GyrX,GyrY,GyrZ
FMT, 163, 54, IMU, QBffffffIIfBBHH, TimeUS,I,GyrX,GyrY,GyrZ,AccX,AccY,AccZ,EG,EA,T,GH,AH,GHz,AHz
FMT, 166, 28, VIBE, QBfffI, TimeUS,IMU,VibeX,VibeY,VibeZ,Clip
FMT, 164, 31, ISBH, QHBBHHQf, TimeUS,N,type,instance,mul,smp_cnt,SampleUS,smp_rate
FMT, 165, 207, ISBD, QHHaaa, TimeUS,N,seqno,x,y,z
FMT, 129, 15, RFRH, QI, TimeUS,TF
FMT, 130, 5, RFRF, BB, FTypes,Slow
FMT, 138, 38, RFRN, IIIfIfffBBB, HLat,HLon,HAlt,E2T,AM,TX,TY,TZ,VC,EKT,Flags
FMT, 131, 4, REV2, B, Event
FMT, 132, 15, RSO2, III, Lat,Lon,Alt
FMT, 133, 11, RWA2, ff, Airspeed,uncertainty
FMT, 134, 4, REV3, B, Event
FMT, 135, 15, RSO3, III, Lat,Lon,Alt
FMT, 136, 11, RWA3, ff, Airspeed,Uncertainty
FMT, 137, 16, REY3, ffIB, yawangle,yawangleerr,timestamp_ms,type
FMT, 139, 13, RISH, HBBfBB, LR,PG,PA,LD,AC,GC
FMT, 140, 37, RISI, ffffffffBB, DVX,DVY,DVZ,DAX,DAY,DAZ,DVDT,DADT,Flags,I
FMT, 148, 5, RASH, BB, Primary,NumInst
FMT, 149, 14, RASI, fIBBB, pd,UpdateMS,H,Use,I
FMT, 141, 5, RBRH, BB, Primary,NumInst
FMT, 142, 13, RBRI, IfBB, LastUpdate,Alt,H,I
FMT, 143, 8, RRNH, hhB, GCl,MaxD,NumSensors
FMT, 144, 20, RRNI, fffHBBB, PX,PY,PZ,Dist,Orient,Status,I
FMT, 145, 5, RGPH, BB, NumInst,Primary
FMT, 146, 23, RGPI, ffffBBBB, OX,OY,OZ,Lg,Flags,Stat,NSats,I
FMT, 147, 58, RGPJ, IffffffIiiiffHB, TS,VX,VY,VZ,SA,Y,YA,YT,Lat,Lon,Alt,HA,VA,HD,I
FMT, 153, 14, RMGH, fBBBBBBB, Dec,Avail,NumInst,AutoDec,NumEna,LOE,C,FUsable
FMT, 154, 35, RMGI, IffffffBBBB, LU,OX,OY,OZ,FX,FY,FZ,UFY,H,HSF,I
FMT, 150, 33, RBCH, ffffiiiBB, PX,PY,PZ,AE,OLat,OLng,OAlt,Flags,NumInst
FMT, 151, 25, RBCI, IffffBB, LU,PX,PY,PZ,Dist,H,I
FMT, 152, 21, RVOH, fffIBB, OX,OY,OZ,Del,H,Ena
FMT, 155, 40, ROFH, ffffIffffB, FX,FY,GX,GY,Tms,PX,PY,PZ,HgtOvr,Qual
FMT, 156, 49, REPH, fffffffffIIH, PX,PY,PZ,Q1,Q2,Q3,Q4,PEr,AEr,TS,RT,D
FMT, 157, 19, RSLL, IIfI, Lat,Lng,PosAccSD,TS
FMT, 158, 25, REVH, ffffIH, VX,VY,VZ,Er,TS,D
FMT, 159, 31, RWOH, ffIffff, DA,DT,TS,PX,PY,PZ,R
FMT, 160, 53, RBOH, ffffffffIfffH, Q,DPX,DPY,DPZ,DAX,DAY,DAZ,DT,TS,OX,OY,OZ,D
FMT, 43, 37, XKF0, QBBccCCcccccccc, TimeUS,C,ID,rng,innov,SIV,TR,BPN,BPE,BPD,OFH,OFL,OFN,OFE,OFD
FMT, 44, 56, XKF1, QBccCfffffffccce, TimeUS,C,Roll,Pitch,Yaw,VN,VE,VD,dPD,PN,PE,PD,GX,GY,GZ,OH
FMT, 45, 46, XKF2, QBccccchhhhhhfff, TimeUS,C,AX,AY,AZ,VWN,VWE,MN,ME,MD,MX,MY,MZ,IDX,IDY,IS
FMT, 46, 42, XKF3, QBcccccchhhccff, TimeUS,C,IVN,IVE,IVD,IPN,IPE,IPD,IMX,IMY,IMZ,IYAW,IVT,RErr,ErSc
FMT, 47, 44, XKF4, QBcccccfffHBIHb, TimeUS,C,SV,SP,SH,SM,SVT,errRP,OFN,OFE,FS,TS,SS,GPS,PI
FMT, 48, 41, XKF5, QBBhhhcccCCfff, TimeUS,C,NI,FIX,FIY,AFI,HAGL,offset,RI,rng,Herr,eAng,eVel,ePos
FMT, 49, 36, XKFD, QBffffff, TimeUS,C,IX,IY,IZ,IVX,IVY,IVZ
FMT, 50, 29, XKFM, QBBffff, TimeUS,C,OGNM,GLR,ALR,GDR,ADR
FMT, 51, 20, XKFS, QBBBBBBBBB, TimeUS,C,MI,BI,GI,AI,SS,GPS_GTA,GPS_CHK_WAIT,MAG_FUSION
FMT, 52, 28, XKQ, QBffff, TimeUS,C,Q1,Q2,Q3,Q4
FMT, 53, 48, XKT, QBIffffffff, TimeUS,C,Cnt,IMUMin,IMUMax,EKFMin,EKFMax,AngMin,AngMax,VMin,VMax
FMT, 54, 20, XKTV, QBff, TimeUS,C,TVS,TVD
FMT, 55, 60, XKV1, QBffffffffffff, TimeUS,C,V00,V01,V02,V03,V04,V05,V06,V07,V08,V09,V10,V11
FMT, 56, 60, XKV2, QBffffffffffff, TimeUS,C,V12,V13,V14,V15,V16,V17,V18,V19,V20,V21,V22,V23
FMT, 57, 60, XKY0, QBffffffffffff, TimeUS,C,YC,YCS,Y0,Y1,Y2,Y3,Y4,W0,W1,W2,W3,W4
FMT, 58, 52, XKY1, QBffffffffff, TimeUS,C,IVN0,IVN1,IVN2,IVN3,IVN4,IVE0,IVE1,IVE2,IVE3,IVE4
FMT, 41, 60, NKY0, QBffffffffffff, TimeUS,C,YC,YCS,Y0,Y1,Y2,Y3,Y4,W0,W1,W2,W3,W4
FMT, 42, 52, NKY1, QBffffffffff, TimeUS,C,IVN0,IVN1,IVN2,IVN3,IVN4,IVE0,IVE1,IVE2,IVE3,IVE4
FMT, 70, 45, AHR2, QccCfLLffff, TimeUS,Roll,Pitch,Yaw,Alt,Lat,Lng,Q1,Q2,Q3,Q4
FMT, 71, 19, AOA, Qff, TimeUS,AOA,SSA
FMT, 72, 36, ATT, QffffffB, TimeUS,DesRoll,Roll,DesPitch,Pitch,DesYaw,Yaw,AEKF
FMT, 73, 24, ORGN, QBLLe, TimeUS,Type,Lat,Lng,Alt
FMT, 74, 31, POS, QLLfff, TimeUS,Lat,Lng,Alt,RelHomeAlt,RelOriginAlt
FMT, 76, 35, ATSC, Qffffff, TimeUS,AngPScX,AngPScY,AngPScZ,PDScX,PDScY,PDScZ
FMT, 204, 51, VSTB, Qffffffffff, TimeUS,GyrX,GyrY,GyrZ,AccX,AccY,AccZ,Q1,Q2,Q3,Q4
FMT, 90, 38, MON, QIbIHHHHHII, TimeUS,Dly,Tsk,IErr,IErrCnt,IErrLn,MM,MC,SmLn,SPICnt,I2CCnt
FMT, 91, 47, WDOG, QbIHHHHHHHIBIIn, TimeUS,Tsk,IE,IEC,IEL,MvMsg,MvCmd,SmLn,FL,FT,FA,FP,ICSR,LR,TN
FMT, 210, 20, UART, QBff, TimeUS,I,Tx,Rx
FMT, 115, 21, RPM, QBffB, TimeUS,I,RPM,Qual,H
FMT, 209, 27, FNCE, QBBBLLBf, TimeUS,Tot,Seq,Type,Lat,Lng,Count,Radius
FMT, 177, 33, DSF, QIHIIII, TimeUS,Dp,Blk,Bytes,FMn,FMx,FAv
FMT, 121, 24, RALY, QBBLLhB, TimeUS,Tot,Seq,Lat,Lng,Alt,Flags
FMT, 183, 23, MAV, QBHHHBHH, TimeUS,chan,txp,rxp,rxdp,flags,ss,tf
FMT, 167, 43, VISO, Qffffffff, TimeUS,dt,AngDX,AngDY,AngDZ,PosDX,PosDY,PosDZ,conf
FMT, 168, 58, VISP, QQIffffffffBBb, TimeUS,RTimeUS,CTimeMS,PX,PY,PZ,R,P,Y,PErr,AErr,Rst,Ign,Q
FMT, 169, 42, VISV, QQIffffBBb, TimeUS,RTimeUS,CTimeMS,VX,VY,VZ,VErr,Rst,Ign,Q
FMT, 180, 28, OF, QBffff, TimeUS,Qual,flowX,flowY,bodyX,bodyY
FMT, 182, 21, WENC, Qfbfb, TimeUS,Dist0,Qual0,Dist1,Qual1
FMT, 185, 35, ADSB, QIiiiHHhH, TimeUS,ICAO_address,Lat,Lng,Alt,Heading,Hor_vel,Ver_vel,Squark
FMT, 181, 12, EV, QB, TimeUS,Id
FMT, 186, 18, ARM, QBIBB, TimeUS,ArmState,ArmChecks,Forced,Method
FMT, 184, 13, ERR, QBB, TimeUS,Subsys,ECode
FMT, 187, 35, WINC, QBBBBBfffHfb, TimeUS,Heal,ThEnd,Mov,Clut,Mode,DLen,Len,DRate,Tens,Vcc,Temp
FMT, 188, 47, PSCN, Qfffffffff, TimeUS,DPN,TPN,PN,DVN,TVN,VN,DAN,TAN,AN
FMT, 189, 47, PSCE, Qfffffffff, TimeUS,DPE,TPE,PE,DVE,TVE,VE,DAE,TAE,AE
FMT, 190, 47, PSCD, Qfffffffff, TimeUS,DPD,TPD,PD,DVD,TVD,VD,DAD,TAD,AD
FMT, 191, 35, PSON, Qffffff, TimeUS,TPON,PON,TVON,VON,TAON,AON
FMT, 192, 35, PSOE, Qffffff, TimeUS,TPOE,POE,TVOE,VOE,TAOE,AOE
FMT, 193, 35, PSOD, Qffffff, TimeUS,TPOD,POD,TVOD,VOD,TAOD,AOD
FMT, 194, 35, PSOT, Qffffff, TimeUS,TPOT,POT,TVOT,VOT,TAOT,AOT
FMT, 75, 63, RATE, Qfffffffffffff, TimeUS,RDes,R,ROut,PDes,P,POut,YDes,Y,YOut,ADes,A,AOut,AOutSlew
FMT, 195, 39, ANG, Qfffffff, TimeUS,DesRoll,Roll,DesPitch,Pitch,DesYaw,Yaw,Dt
FMT, 201, 33, STAK, QBBHHN, TimeUS,Id,Pri,Total,Free,Name
FMT, 202, 88, FILE, NIBZ, FileName,Offset,Length,Data
FMT, 197, 78, AISR, QBBBZ, TimeUS,num,total,ID,payload
FMT, 198, 41, AIS1, QBBIBbHbLLHHBBbI, US,typ,rep,mmsi,nav,rot,sog,pos,lon,lat,cog,hed,sec,man,raim,rad
FMT, 199, 38, AIS4, QBIHBBBBBBLLBBI, US,rep,mmsi,year,mth,day,h,m,s,fix,lon,lat,epfd,raim,rad
FMT, 200, 175, AIS5, QBIBINZBHHBBBBZB, US,rep,mmsi,ver,imo,cal,nam,typ,bow,stn,prt,str,fix,dght,dst,dte
FMT, 203, 39, SCR, QNIii, TimeUS,Name,Runtime,Total_mem,Run_mem
FMT, 206, 90, VER, QBHBBBBIZHBB, TimeUS,BT,BST,Maj,Min,Pat,FWT,GH,FWS,APJ,BU,FV
FMT, 205, 32, MOTB, QfffffB, TimeUS,LiftMax,BatVolt,ThLimit,ThrAvMx,ThrOut,FailFlags
FMT, 6, 24, PTUN, QBfff, TimeUS,Param,TunVal,TunMin,TunMax
FMT, 0, 55, CTUN, Qffffffefffhh, TimeUS,ThI,ABst,ThO,ThH,DAlt,Alt,BAlt,DSAlt,SAlt,TAlt,DCRt,CRt
FMT, 1, 14, D16, QBh, TimeUS,Id,Value
FMT, 2, 14, DU16, QBH, TimeUS,Id,Value
FMT, 3, 16, D32, QBi, TimeUS,Id,Value
FMT, 4, 16, DU32, QBI, TimeUS,Id,Value
FMT, 5, 16, DFLT, QBf, TimeUS,Id,Value
FMT, 9, 47, SIDD, Qfffffffff, TimeUS,Time,Targ,F,Gx,Gy,Gz,Ax,Ay,Az
FMT, 10, 40, SIDS, QBfffffff, TimeUS,Ax,Mag,FSt,FSp,TFin,TC,TR,TFout
FMT, 8, 49, GUIP, QBfffbffffff, TimeUS,Type,pX,pY,pZ,Terrain,vX,vY,vZ,aX,aY,aZ
FMT, 11, 44, GUIA, QBffffffff, TimeUS,Type,Roll,Pitch,Yaw,RollRt,PitchRt,YawRt,Thrust,ClimbRt
IMU, 124641304, 0, -0.001123028, -0.01018918, 0.002980375, 0.2329161, 0.1808469, -9.801468, 0, 0, 45.28986, 1, 1, 2022, 2022
IMU, 124641304, 1, -0.002381932, -0.002230881, 0.005172968, 0.2536405, 0.0798181, -9.815965, 0, 0, 45.5, 1, 1, 1998, 2046
FMT, 249, 25, SURF, QBBfff, TimeUS,I,St,D,FD,TO
SURF, 124671986, 0, 2, 0, 0, 0.443334
SURF, 124672014, 1, 2, 0, 0, 0.443334
IMU, 124681302, 0, -6.885775E-05, -0.01044209, -0.006276338, 0.1641701, 0.1818056, -9.801087, 0, 0, 45.28986, 1, 1, 2022, 2022
IMU, 124681302, 1, -0.0001663106, 0.001545089, -0.005094392, 0.22284, 0.07873353, -9.836071, 0, 0, 45.5, 1, 1, 1998, 2046
MAV, 124698771, 1, 2241, 1073, 0, 6, 0, 0
GPS, 124701435, 0, 3, 28479800, 2381, 19, 0.55, 15.3674387, 75.1252738, 633.74, 0.06900001, 86.72844, 0.108, 0, 1
GPA, 124701435, 0, 0.91, 1.21, 1.63, 0.34, 0, 1, 124687, 200, 555.72, 0, 0
POWR, 124721677, 4.94859, 5.035824, 1, 1, 6
MCU, 124721677, 45.96421, 3.348254, 3.341374, 3.354879
BAT, 124721691, 0, 14.69815, 14.81072, 1.030231, 39.05696, 0.5787324, 0, 0.1092702, 98, 1, 0
MAG, 124721703, 0, -94, -404, 157, 31, 0, -44, 0, 0, 0, 1, 124721700
MAG, 124721703, 1, -236, -686, 595, 132, -200, 136, 0, 0, 0, 1, 124721701
SURF, 124721721, 0, 2, 0, 0, 0.4442256
SURF, 124721737, 1, 2, 0, 0, 0.4442256
BARO, 124721757, 0, 1.414673, 636.5146, 94131.59, 46.85, 1.091843, 124721, 0, 35, 1
CTUN, 124721770, -2.384186E-07, -4.711183E-10, 0, 0.4504386, 0.4634178, 0.4634178, 1.41, NaN, 0, 0.03911177, 1, 1
ATT, 124721830, -0.0001030061, 3.587233, 0.0003153084, 0.2955187, 101.2165, 101.2626, 3
ANG, 124720797, -0.0001030061, 3.586698, 0.0003153084, 0.2969624, 101.2165, 101.2165, 0.0025
RATE, 124720811, -16.13962, -0.006834838, -0.03802487, -1.338204, -0.02594362, -0.003249601, 0.04190625, -0.1640461, 0.0005769619, -1.020718, -1.020718, 0, 0
PIDR, 124721871, -0.281676, -0.0001192904, -0.2815567, -0.03801015, 0, -1.472167E-05, 0, 0, 1, 0.02754391, 9
PIDP, 124721905, -0.02332873, -0.0004528016, -0.02287593, -0.00308825, 0, -0.0001613506, 0, 0, 1, 0.02370948, 9
PIDY, 124721909, 0.0007309132, -0.002863145, 0.003205344, 0.0005769619, 0, 0, 0, 0, 1, 0.01024019, 9
PIDA, 124721928, -1.020718, -1.020718, 0, 0, -450.4388, 0, 0, 0, 1, 0, 13
PIDN, 124721933, 0.5679972, 0.5679972, 0, 0, 4.344025E-44, 0, 0, 0, 0, 0, 0
PIDE, 124721936, 2.962419, 2.962419, 0, 0, -4.344025E-44, 0, 0, 0, 0, 0, 0
XKF4, 124720944, 0, 0.04, 0, 0.05, 0, 0, 0.006226779, 0.05170668, -0.4367897, 0, 48, 109375, 0, 0
XKY0, 124720944, 0, 96.12823, 14.59071, 215.9043, 288.0297, 0.1219366, 72.05342, 143.9189, 0.1994844, 0.1989888, 0.1998889, 0.2009444, 0.2006935
XKY1, 124720944, 0, -0.03120128, -0.01532754, -0.005463559, -0.01525282, -0.03114714, -0.1027009, -0.1079188, -0.09442396, -0.08088323, -0.08600228
XKF1, 124720944, 0, 3.58, 0.29, 101.26, 0.005679972, 0.02962419, -0.01217564, -0.047615, -0.07481566, -0.6300186, -0.4634178, -0.03, -0.55, 0, 635.09
XKF2, 124720944, 0, 0.01, 0, 0, 0, 0, 408, -5, 149, 0, 0, 0, 0, 0, 0
XKF3, 124720944, 0, -0.01, -0.04, -0.12, -0.02, -0.02, 1.02, 0, 0, 0, -0.66, 0, 0, 0.002589842
XKF5, 124720944, 0, 0, 0, 0, 0, 1.49, 1.02, 0, 0, 0.5, 0.0001271936, 0.003168976, 0.002995359
XKFS, 124720944, 0, 0, 0, 0, 0, 0, 1, 0, 1
XKQ, 124720944, 0, 0.6341833, -0.013189, -0.001870272, 0.773068
XKF4, 124720944, 1, 0.05, 0, 0.05, 0, 0, 0.006221622, 0.04478012, -0.5910473, 0, 48, 109375, 0, 0
XKY0, 124720944, 1, 242.6207, 14.69426, 215.997, 287.9917, 359.9909, 71.99566, 143.9994, 0.2000358, 0.2000282, 0.1999816, 0.1999605, 0.199994
XKY1, 124720944, 1, -0.01950114, -0.02090677, -0.02060412, -0.01901159, -0.01832974, -0.09302156, -0.09379657, -0.09537276, -0.09557214, -0.09411906
XKF1, 124720944, 1, 4.19, 0.69, 101.14, 0.01310591, 0.003421166, -0.01758298, -0.05125679, -0.0675087, -0.6534331, -0.4666351, -0.04, -0.02, 0.03, 635.09
XKF2, 124720944, 1, 0, 0, -0.03, 0, 0, 409, -5, 147, 0, 0, 0, 0, 0, 0
XKF3, 124720944, 1, 0, -0.07, -0.12, -0.01, -0.04, 1.01, 0, 0, 0, -0.58, 0, 0.00649893, 0.002576897
XKFS, 124720944, 1, 0, 0, 0, 0, 0, 1, 0, 1
XKQ, 124720944, 1, 0.6350086, -0.01256746, 0.004456219, 0.77239
AHR2, 124722054, 3.65, 0.32, 101.51, 637.01, 15.3674387, 75.1252738, 0.6321456, 0.01794963, 0.0265089, 0.774188
POS, 124722060, 15.3674385, 75.1252736, 635.56, 0.04341781, 0.4634178
MOTB, 124722065, 1, 1, 1, 0.04504386, 0, 2
RCIN, 124722071, 1515, 1515, 1515, 1515, 1102, 2000, 2000, 875, 2000, 1495, 1000, 1000, 875, 875
RCI2, 124722075, 875, 875, 0, 1
RCOU, 124722098, 1000, 1000, 1000, 1000, 0, 0, 0, 0, 1495, 0, 0, 0, 0, 0
RCO2, 124722102, 0, 0, 0, 0
PSCN, 124722109, -0.07481566, -0.07481566, -0.07481566, 0.005679972, 0.005679972, 0.005679972, 0, 0, 2.779125E-05
PSCE, 124722114, -0.6300186, -0.6300186, -0.6300186, 0.02962419, 0.02962419, 0.02962419, 0, 0, -4.950742E-05
PSCD, 124722118, -0.4634178, -0.4634178, -0.4634178, -0.01217563, -0.01217563, -0.01217563, 0.01020718, 0.01020718, 0.01020718
VIBE, 124722123, 0, 0.02393824, 0.03103239, 0.0232072, 0
VIBE, 124722123, 1, 0.04196522, 0.07616656, 0.07894055, 0
FMT, 246, 31, CTRL, Qfffff, TimeUS,RMSRollP,RMSRollD,RMSPitchP,RMSPitchD,RMSYaw
CTRL, 124722131, 0.03797841, 0.0001109956, 0.003038646, 8.373686E-05, 0.000243968
IMU, 124722160, 0, -0.0007116632, -0.01021732, -0.002947201, 0.2086592, 0.1994496, -9.799054, 0, 0, 45.28986, 1, 1, 2022, 2022
IMU, 124722160, 1, -0.0009767099, -0.0006810417, -0.001859948, 0.2482177, 0.09801727, -9.851249, 0, 0, 45.5, 1, 1, 1998, 2046
MSG, 124722771, ArduCopter V4.6.2 (1ebd4d99)
MSG, 124722779, ChibiOS: 88b84600
VER, 124722784, 10, 5009, 4, 6, 2, 255, 515722649, ArduCopter V4.6.2 (1ebd4d99), 56, 2, 2
MSG, 124722800, Pixhawk6C 003D0048 3133510F 31343630
MSG, 124722808, Param space used: 1099/5376
MSG, 124722815, RC Protocol: SBUS
MSG, 124722825, RCOut: PWM:1-16
MSG, 124722830, New mission
FMT, 252, 43, DCM, Qffffffff, TimeUS,Roll,Pitch,Yaw,ErrRP,ErrYaw,VWN,VWE,VWD
DCM, 124723455, 3.653425, 0.326621, 101.515, 0.0511958, 0.007370962, 0, 0, 0
FMT, 251, 51, EAHR, QffffffLLfI, TimeUS,Roll,Pitch,Yaw,VN,VE,VD,Lat,Lon,Alt,Flg
EAHR, 124723493, 0, 0, 0, 0, 0, 0, 0, 0, 0, 0
CMD, 124723826, 4, 0, 16, 0, 0, 0, 0, 15.3674384, 75.1252737, 635.52, 0
CMD, 124723835, 4, 1, 22, 1, 0, 0, 0, 0, 0, 10, 3
CMD, 124723842, 4, 2, 16, 10, 0, 0, 0, 15.367361, 75.1254623, 10, 3
CMD, 124723894, 4, 3, 20, 0, 0, 0, 0, 0, 0, 0, 0
MSG, 124723910, New rally
MSG, 124723927, New fence
FNCE, 124723933, 13, 0, 98, 15.3678921, 75.1255175, 13, 0
FNCE, 124723939, 13, 1, 98, 15.3679102, 75.1257884, 13, 0
FNCE, 124723944, 13, 2, 98, 15.3677343, 75.1261049, 13, 0
FNCE, 124723949, 13, 3, 98, 15.3673256, 75.1262122, 13, 0
FNCE, 124723954, 13, 4, 98, 15.3670981, 75.1261585, 13, 0
FNCE, 124723960, 13, 5, 98, 15.3668498, 75.1260673, 13, 0
FNCE, 124723965, 13, 6, 98, 15.3668446, 75.1258903, 13, 0
FNCE, 124723970, 13, 7, 98, 15.3667722, 75.125563, 13, 0
FNCE, 124723976, 13, 8, 98, 15.3668213, 75.1253404, 13, 0
FNCE, 124723981, 13, 9, 98, 15.3669584, 75.1252198, 13, 0
FNCE, 124723986, 13, 10, 98, 15.3672843, 75.1251608, 13, 0
FNCE, 124723993, 13, 11, 98, 15.367636, 75.1252225, 13, 0
FNCE, 124724000, 13, 12, 98, 15.367861, 75.1253485, 13, 0
MSG, 124724011, Frame: QUAD/X
MODE, 124724015, Guided, 4, 2
ORGN, 124724022, 0, 15.3674392, 75.1252795, 635.1
ORGN, 124724026, 1, 15.3674384, 75.1252737, 635.52
MSG, 124724036, GPS 1: probing for u-blox at 230400 baud
MSG, 124724050, u-blox 1 HW: 00190000 SW: EXT CORE 4.04 (7f89f7)
FILE, @SYS/uarts.txt, 0, 64, UARTV1\nSERIAL0 OTG1  TX =       0 RX =       0 TXBD=     0 RXBD=
IMU, 124761311, 0, -0.0007545261, -0.01021682, 0.003220816, 0.179061, 0.1569298, -9.806562, 0, 0, 45.28986, 1, 1, 2022, 2022
IMU, 124761311, 1, -0.0007298734, 0.000869116, 0.004880107, 0.2194323, 0.0349424, -9.828818, 0, 0, 45.5, 1, 1, 1998, 2046
SURF, 124771895, 0, 2, 0, 0, 0.4451627
SURF, 124771904, 1, 2, 0, 0, 0.4451627
FILE, @SYS/uarts.txt, 64, 64,      0 FE=0 OE=0 NE=0 FlowCtrl=0\nSERIAL1 UART7 TX*=   87558 RX*=
FILE, @SYS/uarts.txt, 128, 64,    22242 TXBD=  7070 RXBD=  1795 FE=0 OE=0 NE=0 FlowCtrl=0\nSERIA
STAK, 124794859, 8, 58, 2480, 1576, io
FMT, 253, 28, HEAT, Qfbfff, TimeUS,Temp,Targ,P,I,Out
HEAT, 124798304, 45.28983, 45, -14.49165, 0.3043481, 0
FILE, @SYS/uarts.txt, 192, 64, L2 UART5 TX*=    3217 RX*=       0 TXBD=   259 RXBD=     0 FE=0 
IMU, 124801300, 0, -0.0001885807, -0.01026121, -0.002103218, 0.1971339, 0.2232848, -9.809071, 0, 0, 45.28986, 1, 1, 2022, 2022
IMU, 124801300, 1, 0.0001773, -0.0004693188, -0.001840895, 0.2401492, 0.1190671, -9.832824, 0, 0, 45.5, 1, 1, 1998, 2046
FMT, 254, 35, IOMC, QHHIIIII, TimeUS,RSErr,Mem,TS,NPkt,Nerr,Nerr2,NDel
IOMC, 124806874, 0, 12896, 124817, 59126, 0, 0, 0
FILE, @SYS/uarts.txt, 256, 64, OE=0 NE=0 FlowCtrl=0\nSERIAL3 UART1 TX*=    1934 RX*=   81059 TXB
POWR, 124821664, 4.949698, 5.026154, 1, 1, 6
MCU, 124821664, 45.96421, 3.348958, 3.340534, 3.356434
BAT, 124821678, 0, 14.70977, 14.82331, 1.03902, 39.08582, 0.5791569, 0, 0.1092702, 98, 1, 0
MAG, 124821689, 0, -94, -404, 156, 31, 0, -44, 0, 0, 0, 1, 124821687
MAG, 124821689, 1, -237, -686, 578, 132, -200, 136, 0, 0, 0, 1, 124821688
SURF, 124821707, 0, 2, 0, 0, 0.4461107
SURF, 124821716, 1, 2, 0, 0, 0.4461107
BARO, 124821736, 0, 1.21759, 636.3176, 94133.8, 46.85, 1.263638, 124821, 0, 35, 1
CTUN, 124821748, -2.384186E-07, -4.712035E-10, 0, 0.4504386, 0.4663735, 0.4663735, 1.21, NaN, 0, 0.03911177, 1, 1
ATT, 124821814, -0.0001030061, 3.587632, 0.0003153084, 0.2935269, 101.2202, 101.2663, 3
ANG, 124820798, -0.0001030061, 3.587098, 0.0003153084, 0.294971, 101.2202, 101.2202, 0.0025
RATE, 124820813, -16.14134, -0.04162821, -0.03775238, -1.329228, -0.01837449, -0.00316804, 0.04169088, -0.1093167, 0.000280291, 0.3203392, 0.3203392, 0, 0
PIDR, 124821831, -0.2817453, -0.0007265494, -0.2810187, -0.03793753, 0, 0.0001851527, 0, 0, 1, 0.02835891, 9
PIDP, 124821835, -0.02321508, -0.0003206953, -0.02289438, -0.003090742, 0, -7.729859E-05, 0, 0, 1, 0.02423739, 9
PIDY, 124821839, 0.0007273512, -0.001907937, 0.001557172, 0.000280291, 0, 0, 0, 0, 1, 0.01079189, 9
PIDA, 124821842, 0.3203392, 0.3203392, 0, 0, -450.4388, 0, 0, 0, 1, 0, 13
PIDN, 124821871, 0.4640797, 0.4640797, 0, 0, 4.344025E-44, 0, 0, 0, 0, 0, 0
PIDE, 124821904, 2.781965, 2.781965, 0, 0, -4.344025E-44, 0, 0, 0, 0, 0, 0
XKF4, 124820948, 0, 0.04, 0, 0.04, 0, 0, 0.00630554, 0.05170668, -0.4367897, 0, 48, 109375, 0, 0
XKY0, 124820948, 0, 96.11266, 14.59074, 215.8887, 288.0141, 0.1063679, 72.03786, 143.9034, 0.1994844, 0.1989888, 0.1998889, 0.2009444, 0.2006935
XKY1, 124820948, 0, -0.03120128, -0.01532754, -0.005463559, -0.01525282, -0.03114714, -0.1027009, -0.1079188, -0.09442396, -0.08088323, -0.08600228
XKF1, 124820948, 0, 3.58, 0.29, 101.26, 0.004640797, 0.02781965, -0.01102232, -0.02836368, -0.07423291, -0.6291761, -0.4663736, -0.03, -0.55, 0, 635.09
XKF2, 124820948, 0, 0.01, 0, 0, 0, 0, 408, -5, 149, 0, 0, 0, 0, 0, 0
XKF3, 124820948, 0, -0.01, -0.04, -0.12, -0.02, -0.02, 0.94, 0, 0, 0, -0.85, 0, 0, 0.002206163
XKF5, 124820948, 0, 0, 0, 0, 0, 1.5, 1.02, 0, 0, 0.5, 0.0001118725, 0.003220453, 0.006752492
XKFS, 124820948, 0, 0, 0, 0, 0, 0, 1, 0, 1
XKQ, 124820948, 0, 0.634159, -0.0131733, -0.001879029, 0.7730882
XKF4, 124820948, 1, 0.05, 0, 0.04, 0, 0, 0.006300691, 0.04478012, -0.5910473, 0, 48, 109375, 0, 0
XKY0, 124820948, 1, 242.6052, 14.69428, 215.9816, 287.9763, 359.9755, 71.98026, 143.984, 0.2000358, 0.2000282, 0.1999816, 0.1999605, 0.199994
XKY1, 124820948, 1, -0.01950114, -0.02090677, -0.02060412, -0.01901159, -0.01832974, -0.09302156, -0.09379657, -0.09537276, -0.09557214, -0.09411906
XKF1, 124820948, 1, 4.19, 0.69, 101.14, 0.01147221, 0.004029856, -0.01632386, -0.03091855, -0.06726088, -0.6517408, -0.4698648, -0.04, -0.02, 0.03, 635.09
XKF2, 124820948, 1, 0, 0, -0.02, 0, 0, 409, -5, 147, 0, 0, 0, 0, 0, 0
XKF3, 124820948, 1, 0, -0.07, -0.12, -0.01, -0.04, 0.94, 0, 0, 0, -0.77, 0, 0.00649893, 0.002194663
XKFS, 124820948, 1, 0, 0, 0, 0, 0, 1, 0, 1
XKQ, 124820948, 1, 0.6349782, -0.01251789, 0.004446871, 0.7724158
AHR2, 124822009, 3.62, 0.24, 101.52, 636.93, 15.3674387, 75.1252739, 0.6320728, 0.01836018, 0.02581549, 0.7742612
POS, 124822015, 15.3674385, 75.1252736, 635.56, 0.04637357, 0.4663736
MOTB, 124822019, 1, 1, 1, 0.04504386, 0, 2
RCIN, 124822050, 1515, 1515, 1515, 1515, 1102, 2000, 2000, 875, 2000, 1495, 1000, 1000, 875, 875
RCI2, 124822057, 875, 875, 0, 1
RCOU, 124822063, 1000, 1000, 1000, 1000, 0, 0, 0, 0, 1495, 0, 0, 0, 0, 0
RCO2, 124822067, 0, 0, 0, 0
PSCN, 124822073, -0.07423291, -0.07423291, -0.07423291, 0.004640797, 0.004640797, 0.004640797, 0, 0, 2.77944E-05
PSCE, 124822095, -0.629176, -0.629176, -0.629176, 0.02781964, 0.02781964, 0.02781964, 0, 0, -4.950565E-05
PSCD, 124822100, -0.4663735, -0.4663735, -0.4663735, -0.01102232, -0.01102232, -0.01102232, -0.003203392, -0.003203392, -0.003203392
VIBE, 124822104, 0, 0.02161517, 0.03553506, 0.02924738, 0
VIBE, 124822104, 1, 0.04605728, 0.07111624, 0.07573655, 0
CTRL, 124822113, 0.03800441, 0.0001307438, 0.003051572, 8.306205E-05, 0.0002745148
DCM, 124823464, 3.621156, 0.2392829, 101.5241, 0.0511958, 0.007650648, 0, 0, 0
EAHR, 124823482, 0, 0, 0, 0, 0, 0, 0, 0, 0, 0
FILE, @SYS/uarts.txt, 320, 64, D=   156 RXBD=  6545 FE=143 OE=0 NE=165 FlowCtrl=0\nSERIAL4 UART8
IMU, 124841300, 0, -0.001344049, -0.01075783, 6.081113E-05, 0.2067324, 0.1658366, -9.81143, 0, 0, 45.28986, 1, 1, 2022, 2022
IMU, 124841300, 1, -0.00146865, -0.004431997, 0.001176153, 0.2414551, 0.06033858, -9.830583, 0, 0, 45.5, 1, 1, 1998, 2046
FILE, @SYS/uarts.txt, 384, 64,  TX*=       0 RX*=       0 TXBD=     0 RXBD=     0 FE=0 OE=0 NE=
FILE, @SYS/uarts.txt, 448, 64, 0 FlowCtrl=0\nSERIAL5 UART2 TX =       0 RX =       0 TXBD=     0
RAD, 124861284, 64, 0, 100, 98, 0, 0, 0
SURF, 124871938, 0, 2, 0, 0, 0.4471001
SURF, 124871947, 1, 2, 0, 0, 0.4471001
FILE, @SYS/uarts.txt, 512, 64,  RXBD=     0 FE=0 OE=0 NE=0 FlowCtrl=0\nSERIAL6 UART3 TX =       
IMU, 124881312, 0, 0.0002494366, -0.009125309, 0.002646145, 0.1878959, 0.2059545, -9.812602, 0, 0, 45.28986, 1, 1, 2022, 2022
IMU, 124881312, 1, -0.0004764857, -0.002121943, 0.004584275, 0.2319063, 0.09726751, -9.823134, 0, 0, 45.5, 1, 1, 1998, 2046
FILE, @SYS/uarts.txt, 576, 64, 0 RX =       0 TXBD=     0 RXBD=     0 FE=0 OE=0 NE=0 FlowCtrl=0
STAK, 124895802, 9, 59, 1456, 904, storage
FILE, @SYS/uarts.txt, 640, 64, \nSERIAL7 OTG2  TX =       0 RX =       0 TXBD=     0 RXBD=     0
GPS, 124901414, 0, 3, 28480000, 2381, 19, 0.55, 15.3674387, 75.125274, 633.69, 0.108, 86.72844, -0.02, 0, 1
GPA, 124901414, 0, 0.91, 1.21, 1.63, 0.31, 0, 1, 124887, 200, 555.68, 0, 0
FILE, @SYS/uarts.txt, 704, 64,  FE=0 OE=0 NE=0 FlowCtrl=0\nIOMCU   UART6 TX*=  994490 RX*=  6167
POWR, 124921718, 4.950604, 5.028571, 1, 1, 6
MCU, 124921718, 45.96421, 3.348958, 3.342355, 3.354315
BAT, 124921731, 0, 14.71975, 14.83418, 1.047258, 39.11493, 0.5795853, 0, 0.1092702, 98, 1, 0
MAG, 124921743, 0, -94, -403, 157, 31, 0, -44, 0, 0, 0, 1, 124921740
MAG, 124921743, 1, -240, -685, 546, 132, -200, 136, 0, 0, 0, 1, 124921742
SURF, 124921761, 0, 2, 0, 0, 0.4481509
SURF, 124921769, 1, 2, 0, 0, 0.4481509
BARO, 124921792, 0, 1.376404, 636.4764, 94132, 46.85, 0.8050346, 124921, 0, 35, 1
CTUN, 124921804, -2.384186E-07, -4.712035E-10, 0, 0.4504386, 0.4712968, 0.4712968, 1.37, NaN, 0, 0.04911177, 1, 1
ATT, 124921937, -0.000103006, 3.587807, 0.0003153084, 0.2906901, 101.2258, 101.272, 3
ANG, 124920799, -0.000103006, 3.587276, 0.0003153084, 0.2921343, 101.2258, 101.2258, 0.002502
RATE, 124920811, -16.14214, -0.02499082, -0.03788749, -1.316455, -0.05300488, -0.002858293, 0.04129992, -0.14813, 0.0001121676, -0.6097794, -0.6097794, 0, 0
PIDR, 124921954, -0.2817608, -0.0004361721, -0.2813246, -0.03797882, 0, 9.133064E-05, 0, 0, 1, 0.02937221, 9
PIDP, 124921958, -0.02305245, -0.0009251097, -0.02212734, -0.002987191, 0, 0.0001288982, 0, 0, 1, 0.02447212, 9
PIDY, 124921962, 0.0007224065, -0.002585357, 0.0006231531, 0.0001121676, 0, 0, 0, 0, 1, 0.01118167, 9
PIDA, 124921966, -0.6097794, -0.6097794, 0, 0, -450.4388, 0, 0, 0, 1, 0, 13
PIDN, 124921970, 0.3828472, 0.3828472, 0, 0, 4.344025E-44, 0, 0, 0, 0, 0, 0
PIDE, 124921974, 2.916768, 2.916768, 0, 0, -4.344025E-44, 0, 0, 0, 0, 0, 0
XKF4, 124920977, 0, 0.02, 0, 0.03, 0, 0, 0.006331406, 0.05170668, -0.4367897, 0, 48, 109375, 0, 0
XKY0, 124920977, 0, 101.761, 14.73763, 215.7621, 288.018, 0.2363502, 72.11523, 143.8224, 0.1990873, 0.1977988, 0.1995442, 0.2019272, 0.2016426
XKY1, 124920977, 0, 0.01734805, 0.0361267, 0.04797808, 0.0365381, 0.01764717, -0.119038, -0.1254344, -0.1095352, -0.09338437, -0.09923541
XKF1, 124920977, 0, 3.58, 0.29, 101.27, 0.003828472, 0.02916768, -0.01073421, -0.04068623, -0.07414668, -0.6263297, -0.4712968, -0.03, -0.55, 0, 635.09
XKF2, 124920977, 0, 0, -0.01, 0, 0, 0, 408, -5, 149, 0, 0, 0, 0, 0, 0
XKF3, 124920977, 0, 0.03, -0.07, 0, -0.02, -0.02, 0.73, 0, 0, 0, -0.77, 0, 0, 0.001344547
XKF5, 124920977, 0, 0, 0, 0, 0, 1.51, 1.02, 0, 0, 0.5, 0.0001858111, 0.02250207, 0.02127044
XKFS, 124920977, 0, 0, 0, 0, 0, 0, 1, 0, 1
XKQ, 124920977, 0, 0.6341211, -0.0131531, -0.001894199, 0.7731196
XKV1, 124920977, 0, 0.0001583354, 4.961414E-06, 5.015456E-06, 0.0001065167, 0.0260784, 0.02608244, 0.01180898, 0.07702125, 0.07702127, 0.1519115, 3.915182E-11, 3.912645E-11
XKV2, 124920977, 0, 1.126984E-10, 3.931795E-06, 3.93184E-06, 5.697229E-08, 0, 0, 0, 0, 0, 0, 0, 0
XKF4, 124920977, 1, 0.03, 0, 0.03, 0, 0, 0.006326813, 0.04478012, -0.5910473, 0, 48, 109375, 0, 0
XKY0, 124920977, 1, 242.1069, 14.67416, 215.9915, 287.9652, 359.9614, 71.98535, 144.0039, 0.20018, 0.2001396, 0.1999062, 0.1998025, 0.1999716
XKY1, 124920977, 1, 0.03152917, 0.02913353, 0.02949911, 0.03212108, 0.03337565, -0.1071052, -0.1082681, -0.110906, -0.1113734, -0.1090241
XKF1, 124920977, 1, 4.18, 0.68, 101.15, 0.01036844, 0.007347645, -0.01532678, -0.04281713, -0.06739291, -0.6484342, -0.4750394, -0.04, -0.02, 0.03, 635.09
XKF2, 124920977, 1, -0.01, -0.01, -0.02, 0, 0, 409, -5, 147, 0, 0, 0, 0, 0, 0
XKF3, 124920977, 1, 0.03, -0.09, 0, -0.01, -0.04, 0.73, 0, 0, 0, -0.7, 0, 0.00649893, 0.001333919
XKFS, 124920977, 1, 0, 0, 0, 0, 0, 1, 0, 1
XKQ, 124920977, 1, 0.6349301, -0.01245075, 0.004335913, 0.7724571
AHR2, 124922074, 3.6, 0.16, 101.53, 636.73, 15.3674387, 75.1252741, 0.6319934, 0.01874134, 0.02525445, 0.7743353
POS, 124922080, 15.3674385, 75.1252736, 635.57, 0.05129677, 0.4712968
MOTB, 124922085, 1, 1, 1, 0.04504386, 0, 2
RCIN, 124922091, 1515, 1515, 1515, 1515, 1102, 2000, 2000, 875, 2000, 1495, 1000, 1000, 875, 875
RCI2, 124922094, 875, 875, 0, 1
RCOU, 124922101, 1000, 1000, 1000, 1000, 0, 0, 0, 0, 1495, 0, 0, 0, 0, 0
RCO2, 124922104, 0, 0, 0, 0
PSCN, 124922111, -0.07414668, -0.07414668, -0.07414668, 0.003828472, 0.003828472, 0.003828472, 0, 0, 2.779928E-05
PSCE, 124922115, -0.6263297, -0.6263297, -0.6263297, 0.02916768, 0.02916768, 0.02916768, 0, 0, -4.950291E-05
PSCD, 124922119, -0.4712968, -0.4712968, -0.4712968, -0.01073421, -0.01073421, -0.01073421, 0.006097794, 0.006097794, 0.006097794
VIBE, 124922136, 0, 0.02051465, 0.03068186, 0.02495942, 0
VIBE, 124922136, 1, 0.04188396, 0.06805363, 0.07757947, 0
CTRL, 124922161, 0.03802194, 0.0001343516, 0.003067388, 0.0001023339, 0.000243681
IMU, 124922171, 0, -0.001029272, -0.01067915, -0.002671416, 0.2097093, 0.1869057, -9.802811, 0, 0, 45.28986, 1, 1, 2022, 2022
IMU, 124922171, 1, -0.002601032, -0.002667007, -0.002870246, 0.2523664, 0.07734764, -9.808278, 0, 0, 45.5, 1, 1, 1998, 2046
DCM, 124923474, 3.600807, 0.1665883, 101.5336, 0.04615798, 0.008132732, 0, 0, 0
EAHR, 124923492, 0, 0, 0, 0, 0, 0, 0, 0, 0, 0
FILE, @SYS/uarts.txt, 768, 53, 26 TXBD= 10940 RXBD= 15118 FE=0 OE=0 NE=0 FlowCtrl=0\n
FILE, @SYS/memory.txt, 0, 64, MemInfoV1\nSTART=0x24000000 LEN=512k FREE=  2352 LRG=  1152 TYPE=
FILE, @SYS/memory.txt, 64, 64, 4\nSTART=0x30000000 LEN=256k FREE=262136 LRG=262136 TYPE=8\nSTART=
IMU, 124961284, 0, -0.0001809961, -0.01012928, -0.0007685011, 0.1870021, 0.1879854, -9.80763, 0, 0, 45.28986, 1, 1, 2022, 2022
IMU, 124961284, 1, -0.0003459139, 0.00139615, 0.0005910369, 0.2498022, 0.09235767, -9.830792, 0, 0, 45.5, 1, 1, 1998, 2046
SURF, 124971946, 0, 2, 0, 0, 0.4492812
SURF, 124971956, 1, 2, 0, 0, 0.4492812
FILE, @SYS/memory.txt, 128, 64, 0x20000000 LEN=128k FREE=112544 LRG=112544 TYPE=2\nSTART=0x000004
FILE, @SYS/memory.txt, 192, 64, 00 LEN= 63k FREE= 64504 LRG= 64504 TYPE=2\nSTART=0x30040000 LEN= 
STAK, 124996766, 10, 60, 752, 232, UART7
FILE, @SYS/memory.txt, 256, 64, 32k FREE= 32760 LRG= 32760 TYPE=8\nSTART=0x38000000 LEN= 64k FREE
IMU, 125001310, 0, -0.001073503, -0.01061346, 0.00108969, 0.2039879, 0.2063473, -9.808059, 0, 0, 45.28986, 1, 1, 2022, 2022
IMU, 125001310, 1, -0.001240918, -0.0001027038, 0.0005636881, 0.2493505, 0.09567732, -9.807842, 0, 0, 45.5, 1, 1, 1998, 2046
FILE, @SYS/memory.txt, 320, 26, = 56808 LRG= 56152 TYPE=1\n
POWR, 125021663, 4.949698, 5.028571, 1, 1, 6
MCU, 125021663, 45.94434, 3.348958, 3.342215, 3.354597
BAT, 125021694, 0, 14.71764, 14.83268, 1.052751, 39.14416, 0.5800155, 0, 0.1092702, 98, 1, 0
MAG, 125021706, 0, -94, -403, 155, 31, 0, -44, 0, 0, 0, 1, 125021704
MAG, 125021706, 1, -242, -685, 571, 132, -200, 136, 0, 0, 0, 1, 125021705
SURF, 125021725, 0, 2, 0, 0, 0.4505149
SURF, 125021734, 1, 2, 0, 0, 0.4505149
BARO, 125021753, 0, 1.346985, 636.447, 94132.35, 46.85, -0.008354167, 125021, 0, 35, 1
CTUN, 125021766, -2.384186E-07, -4.707772E-10, 0, 0.4504386, 0.47813, 0.47813, 1.34, NaN, 0, 0.04960005, 1, 1
ATT, 125021837, -0.0001030061, 3.586731, 0.0003153085, 0.2840054, 101.2295, 101.2756, 3
ANG, 125020797, -0.0001030061, 3.586205, 0.0003153085, 0.2854488, 101.2295, 101.2295, 0.002499
RATE, 125020811, -16.13744, -0.06975804, -0.0378122, -1.286359, -0.01686384, -0.00303947, 0.04023867, 0.08272535, 9.198433E-05, -0.4757881, -0.4757881, 0, 0
PIDR, 125021908, -0.2816876, -0.001217507, -0.2804701, -0.03786346, 0, 5.12648E-05, 0, 0, 1, 0.03028872, 9
PIDP, 125021923, -0.02251466, -0.0002943296, -0.02222033, -0.002999745, 0, -3.972501E-05, 0, 0, 1, 0.02478152, 9
PIDY, 125021932, 0.0007060255, 0.00144383, 0.000511024, 9.198433E-05, 0, 0, 0, 0, 1, 0.01140136, 9
PIDA, 125021938, -0.4757881, -0.4757881, 0, 0, -450.4388, 0, 0, 0, 1, 0, 13
PIDN, 125021942, 0.04758809, 0.04758809, 0, 0, 4.344025E-44, 0, 0, 0, 0, 0, 0
PIDE, 125021946, 3.610703, 3.610703, 0, 0, -4.344025E-44, 0, 0, 0, 0, 0, 0
XKF4, 125020967, 0, 0.02, 0, 0.04, 0, 0, 0.006410373, 0.05170668, -0.4367897, 0, 48, 109375, 0, 0
XKY0, 125020967, 0, 101.7633, 14.73766, 215.7645, 288.0203, 0.2386524, 72.11753, 143.8247, 0.1990873, 0.1977988, 0.1995442, 0.2019272, 0.2016426
XKY1, 125020967, 0, 0.01734805, 0.0361267, 0.04797808, 0.0365381, 0.01764717, -0.119038, -0.1254344, -0.1095352, -0.09338437, -0.09923541
XKF1, 125020967, 0, 3.58, 0.28, 101.27, 0.0004758809, 0.03610703, -0.01118632, -0.06599218, -0.07537485, -0.6191235, -0.47813, -0.03, -0.55, 0, 635.09
XKF2, 125020967, 0, 0, -0.01, 0, 0, 0, 408, -5, 149, 0, 0, 0, 0, 0, 0
XKF3, 125020967, 0, 0.03, -0.07, 0, -0.02, -0.02, 0.88, 0, 0, 0, -0.83, 0, 0, 0.001945791
XKF5, 125020967, 0, 0, 0, 0, 0, 1.52, 1.02, 0, 0, 0.5, 0.000168215, 0.01807854, 0.02135532
XKFS, 125020967, 0, 0, 0, 0, 0, 0, 1, 0, 1
XKQ, 125020967, 0, 0.634097, -0.0131139, -0.001938874, 0.7731398
XKF4, 125020967, 1, 0.03, 0, 0.04, 0, 0, 0.006404981, 0.04478012, -0.5910473, 0, 48, 109375, 0, 0
XKY0, 125020967, 1, 242.1111, 14.67418, 215.9957, 287.9694, 359.9656, 71.98959, 144.0081, 0.20018, 0.2001396, 0.1999062, 0.1998025, 0.1999716
XKY1, 125020967, 1, 0.03152917, 0.02913353, 0.02949911, 0.03212108, 0.03337565, -0.1071052, -0.1082681, -0.110906, -0.1113734, -0.1090241
XKF1, 125020967, 1, 4.18, 0.67, 101.16, 0.005980414, 0.01798541, -0.01515062, -0.06642224, -0.06899407, -0.6400824, -0.4819571, -0.04, -0.02, 0.03, 635.09
XKF2, 125020967, 1, -0.01, -0.01, -0.02, 0, 0, 409, -5, 147, 0, 0, 0, 0, 0, 0
XKF3, 125020967, 1, 0.03, -0.09, 0, -0.01, -0.04, 0.88, 0, 0, 0, -0.75, 0, 0.00649893, 0.001933496
XKFS, 125020967, 1, 0, 0, 0, 0, 0, 1, 0, 1
XKQ, 125020967, 1, 0.6348871, -0.01243616, 0.004296456, 0.7724929
AHR2, 125022034, 3.61, 0.14, 101.54, 636.89, 15.3674387, 75.1252742, 0.6319261, 0.01901022, 0.02525544, 0.7743837
POS, 125022040, 15.3674385, 75.1252737, 635.57, 0.05812999, 0.47813
MOTB, 125022044, 1, 1, 1, 0.04504386, 0, 2
RCIN, 125022051, 1515, 1515, 1515, 1515, 1102, 2000, 2000, 875, 2000, 1495, 1000, 1000, 875, 875
RCI2, 125022055, 875, 875, 0, 1
RCOU, 125022061, 1000, 1000, 1000, 1000, 0, 0, 0, 0, 1495, 0, 0, 0, 0, 0
RCO2, 125022064, 0, 0, 0, 0
PSCN, 125022071, -0.07537485, -0.07537485, -0.07537485, 0.0004758809, 0.0004758809, 0.0004758809, 0, 0, 2.780247E-05
PSCE, 125022075, -0.6191235, -0.6191235, -0.6191235, 0.03610703, 0.03610703, 0.03610703, 0, 0, -4.950113E-05
PSCD, 125022080, -0.47813, -0.47813, -0.47813, -0.01118632, -0.01118632, -0.01118632, 0.004757881, 0.004757881, 0.004757881
VIBE, 125022084, 0, 0.01730766, 0.02816516, 0.01653091, 0
VIBE, 125022084, 1, 0.03544092, 0.06198926, 0.07834823, 0
CTRL, 125022092, 0.038018, 0.0001332181, 0.003045838, 9.397288E-05, 0.0002361771
DCM, 125023465, 3.620406, 0.142069, 101.5433, 0.04615798, 0.008526103, 0, 0, 0
EAHR, 125023484, 0, 0, 0, 0, 0, 0, 0, 0, 0, 0
FILE, @SYS/threads.txt, 0, 64, ThreadsV2\nISR           PRI=255 sp=0x24000000 STACK=1276/1536\nAr
IMU, 125041283, 0, -0.0004754019, -0.01049947, 0.0009326792, 0.1946277, 0.1651914, -9.806055, 0, 0, 45.28986, 1, 1, 2022, 2022
IMU, 125041283, 1, -0.0005907211, 0.002523719, 0.002166499, 0.2463748, 0.05552356, -9.818896, 0, 0, 45.5, 1, 1, 1998, 2046
FILE, @SYS/threads.txt, 64, 64, duCopter    PRI=182 sp=0x24000600 STACK=4176/7168\nidle          
FILE, @SYS/threads.txt, 128, 64, PRI=  1 sp=0x240214B0 STACK=288/496\nUART_RX       PRI= 60 sp=0x2
SURF, 125071869, 0, 2, 0, 0, 0.4518633
SURF, 125071879, 1, 2, 0, 0, 0.4518633
FILE, @SYS/threads.txt, 192, 64, 407B0E8 STACK=880/1200\nOTG1          PRI= 60 sp=0x2407A1A0 STACK
IMU, 125081291, 0, -0.0006902058, -0.01003622, -0.002874194, 0.2059084, 0.2180371, -9.802435, 0, 0, 45.28986, 1, 1, 2022, 2022
IMU, 125081291, 1, -0.001259975, -0.001968219, -0.0003035307, 0.2560185, 0.1158207, -9.82197, 0, 0, 45.5, 1, 1, 1998, 2046
FILE, @SYS/threads.txt, 256, 64, =480/752\nmonitor       PRI=183 sp=0x2401CE20 STACK=1096/1456\ntim
STAK, 125096738, 11, 60, 752, 344, UART5
FILE, @SYS/threads.txt, 320, 64, er         PRI=181 sp=0x2401E3E0 STACK=1528/1968\nrcout         P
GPS, 125101446, 0, 3, 28480200, 2381, 19, 0.55, 15.3674387, 75.1252741, 633.71, 0.044, 86.72844, 0.041, 0, 1
GPA, 125101446, 0, 0.91, 1.21, 1.63, 0.31, 0, 1, 125087, 200, 555.69, 0, 0
FILE, @SYS/threads.txt, 384, 64, RI=181 sp=0x2401DA00 STACK=656/944\nrcin          PRI=177 sp=0x24
POWR, 125121455, 4.951611, 5.028571, 1, 1, 6
MCU, 125121455, 45.92445, 3.349098, 3.340954, 3.355162
BAT, 125121546, 0, 14.71838, 14.83371, 1.055497, 39.17344, 0.5804465, 0, 0.1092702, 98, 1, 0
MAG, 125121568, 0, -94, -403, 155, 31, 0, -44, 0, 0, 0, 1, 125121565
MAG, 125121568, 1, -235, -686, 578, 132, -200, 136, 0, 0, 0, 1, 125121567
SURF, 125121586, 0, 2, 0, 0, 0.4533383
SURF, 125121595, 1, 2, 0, 0, 0.4533383
BARO, 125121614, 0, 1.346985, 636.447, 94132.34, 46.86, -0.1756477, 125121, 0, 35, 1
CTUN, 125121627, -2.384186E-07, -4.705214E-10, 0, 0.4504386, 0.4855434, 0.4855434, 1.34, NaN, 0, 0.05960005, 1, 1
ATT, 125121688, -0.0001030061, 3.586535, 0.0003153085, 0.2776025, 101.2313, 101.2774, 3
ANG, 125120797, -0.0001030061, 3.586015, 0.0003153085, 0.2790456, 101.2313, 101.2313, 0.0025
RATE, 125120810, -16.13651, -0.02180676, -0.03808498, -1.25752, -0.07704416, -0.002662146, 0.03943666, 0.1326828, 0.0001972665, -1.156139, -1.156139, 0, 0
PIDR, 125121705, -0.2816334, -0.0003805997, -0.2812528, -0.03796913, 0, -0.0001158539, 0, 0, 1, 0.03103229, 9
PIDP, 125121709, -0.02200118, -0.001344674, -0.02065651, -0.002788629, 0, 0.0001264832, 0, 0, 1, 0.02503472, 9
PIDY, 125121712, 0.0006891286, 0.002315751, 0.001095925, 0.0001972665, 0, 0, 0, 0, 1, 0.01084023, 9
PIDA, 125121716, -1.156139, -1.156139, 0, 0, -450.4388, 0, 0, 0, 1, 0, 13
PIDN, 125121720, -0.1077507, -0.1077507, 0, 0, 4.344025E-44, 0, 0, 0, 0, 0, 0
PIDE, 125121724, 3.930343, 3.930343, 0, 0, -4.344025E-44, 0, 0, 0, 0, 0, 0
XKF4, 125120930, 0, 0.03, 0, 0.04, 0, 0, 0.006456026, 0.05170668, -0.4367897, 0, 48, 109375, 0, 0
XKY0, 125120930, 0, 93.33237, 14.50175, 215.8506, 288.0361, 0.1624048, 72.0549, 143.8622, 0.1991902, 0.1985511, 0.199911, 0.2013977, 0.20095
XKY1, 125120930, 0, -0.04547145, -0.0237481, -0.01038654, -0.02383212, -0.04541433, 0.04352144, 0.03644387, 0.05496402, 0.0733083, 0.06628217
XKF1, 125120930, 0, 3.58, 0.27, 101.27, -0.001077507, 0.03930343, -0.0116765, -0.08397634, -0.07607402, -0.6130404, -0.4855435, -0.03, -0.55, 0, 635.09
XKF2, 125120930, 0, 0.02, 0, 0, 0, 0, 408, -5, 149, 0, 0, 0, 0, 0, 0
XKF3, 125120930, 0, -0.03, 0.08, -0.05, -0.01, -0.03, 0.84, 0, 0, 0, -0.83, 0, 0, 0.001776588
XKF5, 125120930, 0, 0, 0, 0, 0, 1.52, 1.02, 0, 0, 0.5, 0.0001383384, 0.009054681, 0.008631409
XKFS, 125120930, 0, 0, 0, 0, 0, 0, 1, 0, 1
XKQ, 125120930, 0, 0.6340857, -0.01307176, -0.001975836, 0.7731498
XKF4, 125120930, 1, 0.03, 0, 0.04, 0, 0, 0.006473721, 0.04478012, -0.5910473, 0, 48, 109375, 0, 0
XKY0, 125120930, 1, 242.1134, 14.6742, 215.9949, 287.9803, 359.9764, 71.98862, 144, 0.2000916, 0.2000857, 0.1999613, 0.1998905, 0.1999709
XKY1, 125120930, 1, -0.03019996, -0.03208128, -0.03075021, -0.0280444, -0.02770509, 0.05715504, 0.0551439, 0.05273219, 0.0532535, 0.05598792
XKF1, 125120930, 1, 4.18, 0.66, 101.16, 0.003876447, 0.0245797, -0.01571616, -0.08455974, -0.07000259, -0.6332641, -0.4890095, -0.04, -0.02, 0.03, 635.09
XKF2, 125120930, 1, 0, -0.01, -0.02, 0, 0, 409, -5, 147, 0, 0, 0, 0, 0, 0
XKF3, 125120930, 1, -0.02, 0.06, -0.05, -0.01, -0.05, 0.84, 0, 0, 0, -0.76, 0, 0.00649893, 0.00176295
XKFS, 125120930, 1, 0, 0, 0, 0, 0, 1, 0, 1
XKQ, 125120930, 1, 0.6348817, -0.01240595, 0.004241196, 0.7724981
AHR2, 125121844, 3.63, 0.13, 101.54, 636.86, 15.3674387, 75.1252741, 0.6318773, 0.01912717, 0.0253183, 0.7744186
POS, 125121850, 15.3674385, 75.1252737, 635.58, 0.06554347, 0.4855435
MOTB, 125121855, 1, 1, 1, 0.04504386, 0, 2
RCIN, 125121861, 1515, 1515, 1515, 1515, 1102, 2000, 2000, 875, 2000, 1495, 1000, 1000, 875, 875
RCI2, 125121864, 875, 875, 0, 1
RCOU, 125121915, 1000, 1000, 1000, 1000, 0, 0, 0, 0, 1495, 0, 0, 0, 0, 0
RCO2, 125121918, 0, 0, 0, 0
PSCN, 125121925, -0.07607402, -0.07607402, -0.07607402, -0.001077507, -0.001077507, -0.001077507, 0, 0, 2.780402E-05
PSCE, 125121930, -0.6130404, -0.6130404, -0.6130404, 0.03930343, 0.03930343, 0.03930343, 0, 0, -4.950027E-05
PSCD, 125121934, -0.4855434, -0.4855434, -0.4855434, -0.0116765, -0.0116765, -0.0116765, 0.01156139, 0.01156139, 0.01156139
VIBE, 125121939, 0, 0.01551435, 0.02967203, 0.01547479, 0
VIBE, 125121939, 1, 0.03865536, 0.06969262, 0.07340126, 0
CTRL, 125121947, 0.03801217, 0.0001393193, 0.003001218, 9.030013E-05, 0.000220071
IMU, 125121957, 0, -0.0009728434, -0.01110719, 0.00222729, 0.20078, 0.1501851, -9.798574, 0, 0, 45.28986, 1, 1, 2022, 2022
IMU, 125121957, 1, -0.001349772, -0.002105776, 0.001430235, 0.2463439, 0.03205226, -9.843504, 0, 0, 45.5, 1, 1, 1998, 2046
DCM, 125123452, 3.633665, 0.1398774, 101.5502, 0.05320866, 0.008659253, 0, 0, 0
EAHR, 125123471, 0, 0, 0, 0, 0, 0, 0, 0, 0, 0
FILE, @SYS/threads.txt, 448, 64, 01D410 STACK=848/1456\nio            PRI= 58 sp=0x2401C430 STACK=
FILE, @SYS/threads.txt, 512, 64, 1576/2480\nstorage       PRI= 59 sp=0x2401DDF0 STACK=904/1456\nUAR
FILE, @SYS/threads.txt, 576, 64, T7         PRI= 60 sp=0x24078FF8 STACK=232/752\nUART5         PRI
IMU, 125161711, 0, -0.0003647268, -0.009980204, -0.001457457, 0.1877963, 0.2129728, -9.802131, 0, 0, 45.28986, 1, 1, 2022, 2022
IMU, 125161711, 1, -0.0008179948, 0.0009142608, -0.00191726, 0.2245267, 0.1210827, -9.840438, 0, 0, 45.5, 1, 1, 1998, 2046
FILE, @SYS/threads.txt, 640, 64, = 60 sp=0x240784B0 STACK=344/752\nUART1         PRI= 60 sp=0x2407
SURF, 125171558, 0, 2, 0, 0, 0.4549109
SURF, 125171567, 1, 2, 0, 0, 0.4549109
FILE, @SYS/threads.txt, 704, 64, 78E8 STACK=344/752\nUART8         PRI= 60 sp=0x24076D20 STACK=408
FILE, @SYS/threads.txt, 768, 64, /752\nOTG2          PRI= 60 sp=0x24075DD8 STACK=480/752\nUART6    
STAK, 125197561, 12, 60, 752, 344, UART1
IMU, 125201294, 0, -0.0009901364, -0.01048573, -0.003164366, 0.2110061, 0.1695998, -9.805534, 0, 0, 45.28986, 1, 1, 2022, 2022
IMU, 125201294, 1, -0.002925538, -0.002028391, -0.002049309, 0.2423713, 0.06263441, -9.843189, 0, 0, 45.5, 1, 1, 1998, 2046
FILE, @SYS/threads.txt, 832, 64,      PRI=181 sp=0x24074F58 STACK=336/752\nIOMCU         PRI=183 s
FILE, @SYS/threads.txt, 896, 64, p=0x2406AB30 STACK=664/1456\nlog_io        PRI= 59 sp=0x2406B2C0 
POWR, 125221445, 4.95282, 5.028571, 1, 1, 6
MCU, 125221445, 45.90457, 3.348958, 3.342916, 3.35601
BAT, 125221458, 0, 14.72661, 14.84267, 1.062088, 39.20292, 0.5808806, 0, 0.1092702, 98, 1, 0
MAG, 125221469, 0, -94, -404, 153, 31, 0, -44, 0, 0, 0, 1, 125221467
MAG, 125221469, 1, -235, -686, 558, 132, -200, 136, 0, 0, 0, 1, 125221468
SURF, 125221555, 0, 2, 0, 0, 0.456563
SURF, 125221564, 1, 2, 0, 0, 0.456563
BARO, 125221584, 0, 1.099976, 636.2, 94135.14, 46.86, -0.006504066, 125221, 0, 35, 1
CTUN, 125221596, -2.384186E-07, -4.705498E-10, 0, 0.4504386, 0.4922489, 0.4922489, 1.09, NaN, 0, 0.0702104, 1, 1
ATT, 125221655, -0.0001030061, 3.586578, 0.0003153085, 0.2770134, 101.228, 101.2741, 3
ANG, 125220802, -0.0001030061, 3.586059, 0.0003153085, 0.2784565, 101.228, 101.228, 0.002504
RATE, 125220814, -16.13672, 0.01579722, -0.03815673, -1.254864, -0.0461176, -0.00279824, 0.03928267, 0.00325707, 0.0003751266, -0.4864693, -0.4864693, 0, 0
PIDR, 125221672, -0.2816328, 0.0002757135, -0.2819085, -0.03805765, 0, -9.908043E-05, 0, 0, 1, 0.03135727, 9
PIDP, 125221676, -0.02189067, -0.0008049039, -0.02108576, -0.002846578, 0, 4.833806E-05, 0, 0, 1, 0.02536109, 9
PIDY, 125221680, 0.000685478, 5.684659E-05, 0.002084037, 0.0003751266, 0, 0, 0, 0, 1, 0.009807369, 9
PIDA, 125221683, -0.4864693, -0.4864693, 0, 0, -450.4388, 0, 0, 0, 1, 0, 13
PIDN, 125221688, 0.03230278, 0.03230278, 0, 0, 4.344025E-44, 0, 0, 0, 0, 0, 0
PIDE, 125221691, 3.512865, 3.512865, 0, 0, -4.344025E-44, 0, 0, 0, 0, 0, 0
XKF4, 125220941, 0, 0.03, 0, 0.04, 0, 0, 0.006534237, 0.05170668, -0.4367897, 0, 48, 109375, 0, 0
XKY0, 125220941, 0, 93.33048, 14.50178, 215.8487, 288.0342, 0.1605021, 72.053, 143.8603, 0.1991902, 0.1985511, 0.199911, 0.2013977, 0.20095
XKY1, 125220941, 0, -0.04547145, -0.0237481, -0.01038654, -0.02383212, -0.04541433, 0.04352144, 0.03644387, 0.05496402, 0.0733083, 0.06628217
XKF1, 125220941, 0, 3.58, 0.27, 101.27, 0.0003230278, 0.03512865, -0.0116182, -0.0745702, -0.07493391, -0.6109316, -0.4922489, -0.03, -0.55, 0, 635.09
XKF2, 125220941, 0, 0.02, 0, 0, 0, 0, 408, -5, 149, 0, 0, 0, 0, 0, 0
XKF3, 125220941, 0, -0.03, 0.08, -0.05, -0.01, -0.03, 0.84, 0, 0, 0, -0.78, 0, 0, 0.001764767
XKF5, 125220941, 0, 0, 0, 0, 0, 1.53, 1.02, 0, 0, 0.5, 0.0001587527, 0.005935726, 0.01173079
XKFS, 125220941, 0, 0, 0, 0, 0, 0, 1, 0, 1
XKQ, 125220941, 0, 0.634108, -0.01306761, -0.001978432, 0.7731315
XKF4, 125220941, 1, 0.03, 0, 0.04, 0, 0, 0.006521884, 0.04478012, -0.5910473, 0, 48, 109375, 0, 0
XKY0, 125220941, 1, 249.3442, 14.93029, 215.9926, 287.978, 359.9742, 71.98634, 143.9977, 0.2000916, 0.2000857, 0.1999613, 0.1998905, 0.1999709
XKY1, 125220941, 1, -0.03019996, -0.03208128, -0.03075021, -0.0280444, -0.02770509, 0.05715504, 0.0551439, 0.05273219, 0.0532535, 0.05598792
XKF1, 125220941, 1, 4.18, 0.67, 101.16, 0.004357366, 0.02288031, -0.01593072, -0.0750936, -0.0692822, -0.6296353, -0.4956571, -0.04, -0.02, 0.03, 635.09
XKF2, 125220941, 1, 0, -0.01, -0.02, 0, 0, 409, -5, 147, 0, 0, 0, 0, 0, 0
XKF3, 125220941, 1, -0.02, 0.06, -0.05, -0.01, -0.05, 0.84, 0, 0, 0, -0.7, 0, 0.00649893, 0.001751636
XKFS, 125220941, 1, 0, 0, 0, 0, 0, 1, 0, 1
XKQ, 125220941, 1, 0.6348808, -0.01242372, 0.004243561, 0.7724985
AHR2, 125221782, 3.61, 0.22, 101.55, 636.86, 15.3674387, 75.1252741, 0.631892, 0.01844187, 0.02570964, 0.7744103
POS, 125221788, 15.3674385, 75.1252738, 635.59, 0.07224891, 0.4922489
MOTB, 125221793, 1, 1, 1, 0.04504386, 0, 2
RCIN, 125221799, 1515, 1515, 1515, 1515, 1102, 2000, 2000, 875, 2000, 1495, 1000, 1000, 875, 875
RCI2, 125221803, 875, 875, 0, 1
RCOU, 125221809, 1000, 1000, 1000, 1000, 0, 0, 0, 0, 1495, 0, 0, 0, 0, 0
RCO2, 125221812, 0, 0, 0, 0
PSCN, 125221835, -0.07493391, -0.07493391, -0.07493391, 0.0003230278, 0.0003230278, 0.0003230278, 0, 0, 2.780118E-05
PSCE, 125221852, -0.6109316, -0.6109316, -0.6109316, 0.03512865, 0.03512865, 0.03512865, 0, 0, -4.950187E-05
PSCD, 125221858, -0.4922489, -0.4922489, -0.4922489, -0.0116182, -0.0116182, -0.0116182, 0.004864693, 0.004864693, 0.004864693
VIBE, 125221863, 0, 0.01359995, 0.02737454, 0.01671623, 0
VIBE, 125221863, 1, 0.04318304, 0.06855226, 0.07931983, 0
CTRL, 125221871, 0.03801808, 0.0001326687, 0.002962486, 9.339567E-05, 0.0002327658
DCM, 125223459, 3.618691, 0.2287487, 101.5511, 0.05320866, 0.008935765, 0, 0, 0
EAHR, 125223477, 0, 0, 0, 0, 0, 0, 0, 0, 0, 0
FILE, @SYS/threads.txt, 960, 64, STACK=712/2016\nI2C1          PRI=176 sp=0x2406BBD0 STACK=984/145
IMU, 125241295, 0, 0.0005844827, -0.01129996, 0.003361591, 0.1684448, 0.1994492, -9.804789, 0, 0, 45.28986, 1, 1, 2022, 2022
IMU, 125241295, 1, 0.001627922, 0.002648698, 0.00409623, 0.2233932, 0.1092054, -9.825321, 0, 0, 45.5, 1, 1, 1998, 2046
FILE, @SYS/threads.txt, 1024, 64, 6\nI2C0          PRI=176 sp=0x2406C4A0 STACK=984/1456\nSPI1       
FILE, @SYS/threads.txt, 1088, 64,    PRI=181 sp=0x24070FC0 STACK=832/1456\nFTP           PRI= 58 sp
FILE, @SYS/threads.txt, 1152, 28, =0x24032968 STACK=1368/2992\n
SURF, 125271577, 0, 2, 0, 0, 0.4583056
SURF, 125271587, 1, 2, 0, 0, 0.4583056
IMU, 125281338, 0, -0.00151961, -0.01051662, -0.00157999, 0.215431, 0.1999432, -9.798183, 0, 0, 45.28986, 1, 1, 2022, 2022
IMU, 125281338, 1, -0.001127161, -0.002065605, -0.002069503, 0.2546498, 0.10109, -9.846857, 0, 0, 45.5, 1, 1, 1998, 2046
FILE, @SYS/timers.txt, 0, 64, TIMERV1\nTIM5  CLK= 200Mhz MODE=  PWM FREQ=       7 TGT=       8\n
STAK, 125299072, 13, 60, 752, 408, UART8
GPS, 125301448, 0, 3, 28480400, 2381, 19, 0.55, 15.3674387, 75.1252742, 633.7, 0.035, 86.72844, -0.03, 0, 1
GPA, 125301448, 0, 0.91, 1.21, 1.63, 0.31, 0, 1, 125287, 200, 555.69, 0, 0
FILE, @SYS/timers.txt, 64, 64, TIM4  CLK= 200Mhz MODE=  PWM FREQ=       7 TGT=       8\nTIM1  CL
FILE, @SYS/timers.txt, 128, 48, K= 200Mhz MODE=  PWM FREQ=       7 TGT=       8\n
POWR, 125321491, 4.955136, 5.030989, 1, 1, 6
MCU, 125321491, 45.94434, 3.349098, 3.342075, 3.355021
BAT, 125321504, 0, 14.72167, 14.83687, 1.054216, 39.23222, 0.5813119, 0, 0.1092702, 98, 1, 0
MAG, 125321515, 0, -94, -404, 156, 31, 0, -44, 0, 0, 0, 1, 125321513
MAG, 125321515, 1, -234, -686, 578, 132, -200, 136, 0, 0, 0, 1, 125321514
SURF, 125321533, 0, 2, 0, 0, 0.4601403
SURF, 125321542, 1, 2, 0, 0, 0.4601403
BARO, 125321562, 0, 1.176453, 636.2764, 94134.28, 46.86, -0.2674293, 125321, 0, 35, 1
CTUN, 125321574, -2.384186E-07, -4.705498E-10, 0, 0.4504386, 0.4997415, 0.4997415, 1.17, NaN, 0, 0.0702104, 1, 1
DU32, 125321590, 7, 6316536
TERR, 125321635, 2, 15.3674385, 75.1252738, 100, 635.5198, 0.0702104, 0, 224, 3.289822
ATT, 125321719, -0.0001030061, 3.586477, 0.0003153085, 0.2751189, 101.2328, 101.2789, 3
ANG, 125320798, -0.0001030061, 3.585958, 0.0003153085, 0.2765621, 101.2328, 101.2328, 0.002501
RATE, 125320812, -16.13615, 0.03183767, -0.03828409, -1.246329, -0.04813432, -0.002831836, 0.03904904, -0.03787685, 0.0002392074, 0.2314568, 0.2314568, 0, 0
PIDR, 125321736, -0.2816207, 0.0005556722, -0.2821764, -0.03809382, 0, -0.000190276, 0, 0, 1, 0.02864365, 9
PIDP, 125321740, -0.02177543, -0.0008401023, -0.02093533, -0.002826269, 0, -5.566209E-06, 0, 0, 1, 0.02679031, 9
PIDY, 125321744, 0.0006817801, -0.0006610758, 0.00132893, 0.0002392074, 0, 0, 0, 0, 1, 0.009813322, 9
PIDA, 125321750, 0.2314568, 0.2314568, 0, 0, -450.4388, 0, 0, 0, 1, 0, 13
PIDN, 125321755, 0.05964853, 0.05964853, 0, 0, 4.344025E-44, 0, 0, 0, 0, 0, 0
PIDE, 125321758, 3.182063, 3.182063, 0, 0, -4.344025E-44, 0, 0, 0, 0, 0, 0
XKF4, 125320968, 0, 0, 0, 0.02, 0.01, 0, 0.006593798, 0.05170668, -0.4367897, 0, 48, 109375, 0, 0
XKY0, 125320968, 0, 100.7918, 14.71466, 215.7974, 288.0101, 0.1871649, 72.08372, 143.843, 0.1992204, 0.1981892, 0.199655, 0.2016028, 0.2013326
XKY1, 125320968, 0, -0.0006565027, 0.02305091, 0.03891398, 0.02503832, 0.0006550089, -0.03423467, -0.04327949, -0.02349819, -0.002360481, -0.008954389
XKF1, 125320968, 0, 3.58, 0.27, 101.27, 0.0005964853, 0.03182063, -0.01222244, -0.0760028, -0.07415436, -0.6086796, -0.4997415, -0.03, -0.55, 0, 635.09
XKF2, 125320968, 0, 0.01, -0.01, 0, 0, 0, 408, -5, 149, 0, 0, 0, 0, 0, 0
XKF3, 125320968, 0, 0.01, 0, 0.01, -0.02, -0.04, 0.58, 0, 0, 0, -0.87, 0, 0, 0.0008544709
XKF5, 125320968, 0, 0, 0, 0, 0, 1.54, 1.02, 0, 0, 0.5, 0.0001366248, 0.003863756, 0.01444944
XKFS, 125320968, 0, 0, 0, 0, 0, 0, 1, 0, 1
XKQ, 125320968, 0, 0.6340756, -0.01305531, -0.001990156, 0.7731583
XKF4, 125320968, 1, 0, 0, 0.02, 0, 0, 0.006600129, 0.04478012, -0.5910473, 0, 48, 109375, 0, 0
XKY0, 125320968, 1, 249.34, 14.93031, 215.9901, 287.9673, 359.9643, 71.98528, 144.0012, 0.2001576, 0.2001199, 0.1999165, 0.1998285, 0.1999774
XKY1, 125320968, 1, 0.01582467, 0.01372778, 0.01671385, 0.02065774, 0.02010744, -0.01915229, -0.02297349, -0.02614945, -0.02429031, -0.0199651
XKF1, 125320968, 1, 4.18, 0.67, 101.16, 0.004057823, 0.02165256, -0.01716065, -0.07833589, -0.06870003, -0.6265242, -0.50323, -0.04, -0.02, 0.03, 635.09
XKF2, 125320968, 1, 0, -0.01, -0.02, 0, 0, 409, -5, 147, 0, 0, 0, 0, 0, 0
XKF3, 125320968, 1, 0.02, -0.01, 0.01, -0.01, -0.05, 0.58, 0, 0, 0, -0.79, 0, 0.007396095, 0.0008442227
XKFS, 125320968, 1, 0, 0, 0, 0, 0, 1, 0, 1
XKQ, 125320968, 1, 0.6348771, -0.01244505, 0.004292404, 0.772501
AHR2, 125321871, 3.6, 0.29, 101.55, 636.61, 15.3674387, 75.1252742, 0.6318421, 0.01793806, 0.02600848, 0.7744529
POS, 125321909, 15.3674385, 75.1252738, 635.59, 0.07974151, 0.4997415
MOTB, 125321925, 1, 1, 1, 0.04504386, 0, 2
RCIN, 125321935, 1515, 1515, 1515, 1515, 1102, 2000, 2000, 875, 2000, 1495, 1000, 1000, 875, 875
RCI2, 125321939, 875, 875, 0, 1
RCOU, 125321945, 1000, 1000, 1000, 1000, 0, 0, 0, 0, 1495, 0, 0, 0, 0, 0
RCO2, 125321949, 0, 0, 0, 0
PSCN, 125321955, -0.07415436, -0.07415436, -0.07415436, 0.0005964853, 0.0005964853, 0.0005964853, 0, 0, 2.780534E-05
PSCE, 125321960, -0.6086796, -0.6086796, -0.6086796, 0.03182063, 0.03182063, 0.03182063, 0, 0, -4.949953E-05
PSCD, 125321964, -0.4997415, -0.4997415, -0.4997415, -0.01222244, -0.01222244, -0.01222244, -0.002314568, -0.002314568, -0.002314568
VIBE, 125321968, 0, 0.01739784, 0.02853099, 0.01602992, 0
VIBE, 125321968, 1, 0.04296984, 0.07050006, 0.07378336, 0
CTRL, 125321977, 0.03801894, 0.000141273, 0.002926129, 0.0001017739, 0.0002169694
IMU, 125321987, 0, -3.727125E-05, -0.01060553, -0.0007517665, 0.1856778, 0.1690585, -9.811989, 0, 0, 45.28986, 1, 1, 2022, 2022
IMU, 125321987, 1, 0.0003157927, 0.002234665, 0.0005829792, 0.2350536, 0.05363052, -9.842715, 0, 0, 45.5, 1, 1, 1998, 2046
PM, 125321999, 400, 0, 4000, 2684, 588424, 254, 0, 0, 0, 1438773, 71349, 365240, 0, 1756022062434509
UART, 125322083, 1, 1948, 200
UART, 125322087, 2, 21, 0
UART, 125322090, 3, 0, 654
UART, 125322095, 100, 8388, 5084
DCM, 125323457, 3.609447, 0.2913737, 101.5601, 0.04931317, 0.008674571, 0, 0, 0
EAHR, 125323475, 0, 0, 0, 0, 0, 0, 0, 0, 0, 0
FILE, @ROMFS/hwdef.dat, 0, 64, MCU STM32H7xx STM32H743xx\nOSCILLATOR_HZ 16000000\nSTM32_ST_USE_TI
FILE, @ROMFS/hwdef.dat, 64, 64, MER 2\nUSB_VENDOR 0x3162\nUSB_PRODUCT 0x0053\nUSB_STRING_MANUFACTUR
IMU, 125361742, 0, -0.0007541657, -0.009955939, 5.410236E-05, 0.2018218, 0.2240188, -9.810306, 0, 0, 45.28986, 1, 1, 2022, 2022
IMU, 125361742, 1, -0.001647923, 0.001736005, 0.001351022, 0.2435933, 0.1190738, -9.838516, 0, 0, 45.5, 1, 1, 1998, 2046
FILE, @ROMFS/hwdef.dat, 128, 64, ER "Holybro"\nAPJ_BOARD_ID 56\nFLASH_RESERVE_START_KB 128\nenv USE_
SURF, 125371593, 0, 2, 0, 0, 0.462074
SURF, 125371603, 1, 2, 0, 0, 0.462074
FILE, @ROMFS/hwdef.dat, 192, 64, ALT_RAM_MAP 1\nFLASH_SIZE_KB 2048\nenv OPTIMIZE -O2\nSERIAL_ORDER O
FILE, @ROMFS/hwdef.dat, 256, 64, TG1 UART7 UART5 USART1 UART8 USART2 USART3 OTG2\nPA11 OTG_FS_DM O
STAK, 125399066, 14, 60, 752, 480, OTG2
IMU, 125401340, 0, -0.000936642, -0.01035158, 0.0009850691, 0.189014, 0.1539991, -9.802548, 0, 0, 45.28986, 1, 1, 2022, 2022
IMU, 125401340, 1, -0.001391045, 0.001495542, 0.001348104, 0.237188, 0.04621018, -9.843254, 0, 0, 45.5, 1, 1, 1998, 2046
FILE, @ROMFS/hwdef.dat, 320, 64, TG1\nPA12 OTG_FS_DP OTG1\nPA9 VBUS INPUT OPENDRAIN\nPA13 JTMS-SWDIO
FILE, @ROMFS/hwdef.dat, 384, 64,  SWD\nPA14 JTCK-SWCLK SWD\nPE8  UART7_TX UART7\nPE7  UART7_RX UART7
POWR, 125421457, 4.950503, 5.030989, 1, 1, 6
MCU, 125421457, 45.94434, 3.348817, 3.342636, 3.356434
BAT, 125421470, 0, 14.71177, 14.82673, 1.052141, 39.26144, 0.5817418, 0, 0.1092702, 98, 1, 0
MAG, 125421482, 0, -93, -403, 156, 31, 0, -44, 0, 0, 0, 1, 125421479
MAG, 125421482, 1, -232, -686, 559, 132, -200, 136, 0, 0, 0, 1, 125421481
SURF, 125421504, 0, 2, 0, 0, 0.4641177
SURF, 125421512, 1, 2, 0, 0, 0.4641177
BARO, 125421547, 0, 1.338196, 636.4382, 94132.45, 46.86, -0.5982018, 125421, 0, 35, 1
CTUN, 125421560, -2.384186E-07, -4.705214E-10, 0, 0.4504386, 0.5081574, 0.5081574, 1.33, NaN, 0, 0.0802104, 1, 1
ATT, 125421617, -0.0001030062, 3.586658, 0.0003153086, 0.2746481, 101.2415, 101.2876, 3
ANG, 125420797, -0.0001030062, 3.586139, 0.0003153086, 0.2760913, 101.2415, 101.2415, 0.002499
RATE, 125420812, -16.13705, 0.03574856, -0.03826002, -1.244218, -0.004324256, -0.00300787, 0.03903805, 0.1572732, 1.649688E-05, 0.01773834, 0.01773834, 0, 0
PIDR, 125421660, -0.2816206, 0.0006239301, -0.2822445, -0.03810301, 0, -0.0001570098, 0, 0, 1, 0.02829921, 9
PIDP, 125421664, -0.02171062, -7.547252E-05, -0.02163514, -0.002920744, 0, -8.712595E-05, 0, 0, 1, 0.02834756, 9
PIDY, 125421667, 0.0006804086, 0.002744935, 9.164932E-05, 1.649688E-05, 0, 0, 0, 0, 1, 0.009879341, 9
PIDA, 125421671, 0.01773834, 0.01773834, 0, 0, -450.4388, 0, 0, 0, 1, 0, 13
PIDN, 125421675, -0.08429317, -0.08429317, 0, 0, 4.344025E-44, 0, 0, 0, 0, 0, 0
PIDE, 125421679, 2.997952, 2.997952, 0, 0, -4.344025E-44, 0, 0, 0, 0, 0, 0
XKF4, 125420952, 0, 0, 0, 0.03, 0, 0, 0.006672132, 0.05170668, -0.4367897, 0, 48, 109375, 0, 0
XKY0, 125420952, 0, 100.7929, 14.71468, 215.7984, 288.0112, 0.1882238, 72.08478, 143.844, 0.1992204, 0.1981892, 0.199655, 0.2016028, 0.2013326
XKY1, 125420952, 0, -0.0006565027, 0.02305091, 0.03891398, 0.02503832, 0.0006550089, -0.03423467, -0.04327949, -0.02349819, -0.002360481, -0.008954389
XKF1, 125420952, 0, 3.58, 0.27, 101.28, -0.0008429317, 0.02997953, -0.01302531, -0.08564331, -0.07420376, -0.6058859, -0.5081574, -0.03, -0.55, 0, 635.09
XKF2, 125420952, 0, 0.01, -0.01, 0, 0, 0, 408, -5, 149, 0, 0, 0, 0, 0, 0
XKF3, 125420952, 0, 0.01, 0, 0.01, -0.02, -0.04, 0.65, 0, 0, 0, -0.76, 0, 0, 0.001060594
