FMT, 128, 89, FMT, BBnNZ, Type,Length,Name,Format,Columns
FMT, 119, 76, UNIT, QbZ, TimeUS,Id,Label
FMT, 118, 44, FMTU, QBNN, TimeUS,FmtType,UnitIds,MultIds
FMT, 120, 20, MULT, Qbd, TimeUS,Id,Mult
FMT, 32, 35, PARM, QNff, TimeUS,Name,Value,Default
FMT, 94, 51, GPS, QBBIHBcLLeffffB, TimeUS,I,Status,GMS,GWk,NSats,HDop,Lat,Lng,Alt,Spd,GCrs,VZ,Yaw,U
FMT, 95, 39, GPA, QBCCCCfBIHeHH, TimeUS,I,VDop,HAcc,VAcc,SAcc,YAcc,VV,SMS,Delta,AEl,RTCMFU,RTCMFD
FMT, 99, 22, UBX1, QBHBBHI, TimeUS,Instance,noisePerMS,jamInd,aPower,agcCnt,config
FMT, 100, 16, UBX2, QBbBbB, TimeUS,Instance,ofsI,magI,ofsQ,magQ
FMT, 96, 42, GRAW, QIHBBddfBbB, TimeUS,WkMS,Week,numSV,sv,cpMes,prMes,doMes,mesQI,cno,lli
FMT, 97, 24, GRXH, QdHbBB, TimeUS,rcvTime,week,leapS,numMeas,recStat
FMT, 98, 41, GRXS, QddfBBBHBBBBB, TimeUS,prMes,cpMes,doMes,gnss,sv,freq,lock,cno,prD,cpD,doD,trk
FMT, 101, 23, SBPH, QIII, TimeUS,CrcError,LastInject,IARhyp
FMT, 102, 67, SBRH, QQQQQQQQ, TimeUS,msg_flag,1,2,3,4,5,6
FMT, 103, 123, SBRM, QQQQQQQQQQQQQQQ, TimeUS,msg_flag,1,2,3,4,5,6,7,8,9,10,11,12,13
FMT, 104, 23, SBRE, QHIiBB, TimeUS,GWk,GMS,ns_residual,level,quality
FMT, 59, 75, MSG, QZ, TimeUS,Message
FMT, 60, 39, RCIN, QHHHHHHHHHHHHHH, TimeUS,C1,C2,C3,C4,C5,C6,C7,C8,C9,C10,C11,C12,C13,C14
FMT, 61, 18, RCI2, QHHHB, TimeUS,C15,C16,OMask,Flags
FMT, 62, 39, RCOU, QHHHHHHHHHHHHHH, TimeUS,C1,C2,C3,C4,C5,C6,C7,C8,C9,C10,C11,C12,C13,C14
FMT, 207, 19, RCO2, QHHHH, TimeUS,C15,C16,C17,C18
FMT, 208, 39, RCO3, QHHHHHHHHHHHHHH, TimeUS,C19,C20,C21,C22,C23,C24,C25,C26,C27,C28,C29,C30,C31,C32
FMT, 63, 19, RSSI, Qff, TimeUS,RXRSSI,RXLQ
FMT, 64, 43, BARO, QBfffcfIffB, TimeUS,I,Alt,AltAMSL,Press,Temp,CRt,SMS,Offset,GndTemp,Health
FMT, 65, 24, BARD, QBfff, TimeUS,I,DynPrX,DynPrY,DynPrZ
FMT, 66, 25, CANF, QBIBBBBBBBBB, TimeUS,Bus,Id,DLC,B0,B1,B2,B3,B4,B5,B6,B7
FMT, 67, 81, CAFD, QBIBQQQQQQQQ, TimeUS,Bus,Id,DLC,D0,D1,D2,D3,D4,D5,D6,D7
FMT, 196, 50, PL, QBBfffffffIIB, TimeUS,Heal,TAcq,pX,pY,vX,vY,mX,mY,mZ,LastMeasMS,EKFOutl,Est
FMT, 68, 24, POWR, QffHHB, TimeUS,Vcc,VServo,Flags,AccFlags,Safety
FMT, 69, 27, MCU, Qffff, TimeUS,MTemp,MVolt,MVmin,MVmax
FMT, 93, 46, CMD, QHHHffffLLfB, TimeUS,CTot,CNum,CId,Prm1,Prm2,Prm3,Prm4,Lat,Lng,Alt,Frame
FMT, 92, 46, MISE, QHHHffffLLfB, TimeUS,CTot,CNum,CId,Prm1,Prm2,Prm3,Prm4,Lat,Lng,Alt,Frame
FMT, 78, 48, MAVC, QBBBBBHffffiifBB, TimeUS,TS,TC,SS,SC,Fr,Cmd,P1,P2,P3,P4,X,Y,Z,Res,WL
FMT, 79, 20, RAD, QBBBBBHH, TimeUS,RSSI,RemRSSI,TxBuf,Noise,RemNoise,RxErrors,Fixed
FMT, 81, 46, CAM, QBHIHLLeeeccC, TimeUS,I,Img,GPSTime,GPSWeek,Lat,Lng,Alt,RelAlt,GPSAlt,R,P,Y
FMT, 82, 46, TRIG, QBHIHLLeeeccC, TimeUS,I,Img,GPSTime,GPSWeek,Lat,Lng,Alt,RelAlt,GPSAlt,R,P,Y
FMT, 83, 48, MNT, QBfffffffff, TimeUS,I,DRoll,Roll,DPitch,Pitch,DYawB,YawB,DYawE,YawE,Dist
FMT, 114, 41, ARSP, QBffcffBBffB, TimeUS,I,Airspeed,DiffPress,Temp,RawPress,Offset,U,H,Hp,TR,Pri
FMT, 88, 41, BAT, QBfffffcfBBB, TimeUS,Inst,Volt,VoltR,Curr,CurrTot,EnrgTot,Temp,Res,RemPct,H,SH
FMT, 89, 40, BCL, QBfHHHHHHHHHHHH, TimeUS,Instance,Volt,V1,V2,V3,V4,V5,V6,V7,V8,V9,V10,V11,V12
FMT, 113, 35, MAG, QBhhhhhhhhhBI, TimeUS,I,MagX,MagY,MagZ,OfsX,OfsY,OfsZ,MOX,MOY,MOZ,Health,S
FMT, 122, 14, MODE, QMBB, TimeUS,Mode,ModeNum,Rsn
FMT, 116, 17, RFND, QBCBBb, TimeUS,Instance,Dist,Stat,Orient,Quality
FMT, 117, 36, DMS, QIIIIBBBBBBBBB, TimeUS,N,Dp,RT,RS,Fa,Fmn,Fmx,Pa,Pmn,Pmx,Sa,Smn,Smx
FMT, 174, 41, BCN, QBBfffffff, TimeUS,Health,Cnt,D0,D1,D2,D3,PosX,PosY,PosZ
FMT, 175, 57, PRX, QBBfffffffffff, TimeUS,Layer,He,D0,D45,D90,D135,D180,D225,D270,D315,DUp,CAn,CDis
FMT, 176, 44, PRXR, QBffffffff, TimeUS,Layer,D0,D45,D90,D135,D180,D225,D270,D315
FMT, 179, 61, PM, QHHHIIHHIIIIIIQ, TimeUS,LR,NLon,NL,MaxT,Mem,Load,ErrL,InE,ErC,SPIC,I2CC,I2CI,Ex,R
FMT, 178, 29, SRTL, QBHHBfff, TimeUS,Active,NumPts,MaxPts,Action,N,E,D
FMT, 170, 48, OABR, QBBHHHBfLLiLLi, TimeUS,Type,Act,DYaw,Yaw,DP,RChg,Mar,DLt,DLg,DAlt,OLt,OLg,OAlt
FMT, 171, 31, OADJ, QBBBBLLLL, TimeUS,State,Err,CurrPoint,TotPoints,DLat,DLng,OALat,OALng
FMT, 172, 37, SA, QBffffffB, TimeUS,State,DVelX,DVelY,DVelZ,MVelX,MVelY,MVelZ,Back
FMT, 173, 21, OAVG, QBBLL, TimeUS,version,point_num,Lat,Lon
FMT, 77, 45, SIM, QccCfLLffff, TimeUS,Roll,Pitch,Yaw,Alt,Lat,Lng,Q1,Q2,Q3,Q4
FMT, 84, 38, TERR, QBLLHffHHf, TimeUS,Status,Lat,Lng,Spacing,TerrH,CHeight,Pending,Loaded,ROfs
FMT, 86, 40, ESC, QBffffcfcf, TimeUS,Instance,RPM,RawRPM,Volt,Curr,Temp,CTot,MotTemp,Err
FMT, 87, 15, EDT2, QBBBB, TimeUS,Instance,Stress,MaxStress,Status
FMT, 85, 46, CSRV, QBfffBfffffB, TimeUS,Id,Pos,Force,Speed,Pow,PosCmd,V,A,MotT,PCBT,Err
FMT, 105, 52, PIDR, QffffffffffB, TimeUS,Tar,Act,Err,P,I,D,FF,DFF,Dmod,SRate,Flags
FMT, 106, 52, PIDP, QffffffffffB, TimeUS,Tar,Act,Err,P,I,D,FF,DFF,Dmod,SRate,Flags
FMT, 107, 52, PIDY, QffffffffffB, TimeUS,Tar,Act,Err,P,I,D,FF,DFF,Dmod,SRate,Flags
FMT, 108, 52, PIDA, QffffffffffB, TimeUS,Tar,Act,Err,P,I,D,FF,DFF,Dmod,SRate,Flags
FMT, 109, 52, PIDS, QffffffffffB, TimeUS,Tar,Act,Err,P,I,D,FF,DFF,Dmod,SRate,Flags
FMT, 110, 52, PIDN, QffffffffffB, TimeUS,Tar,Act,Err,P,I,D,FF,DFF,Dmod,SRate,Flags
FMT, 111, 52, PIDE, QffffffffffB, TimeUS,Tar,Act,Err,P,I,D,FF,DFF,Dmod,SRate,Flags
FMT, 112, 56, DSTL, QBfLLeccfeffff, TimeUS,Stg,THdg,Lat,Lng,Alt,XT,Travel,L1I,Loiter,Des,P,I,D
FMT, 161, 32, ACC, QBQfff, TimeUS,I,SampleUS,AccX,AccY,AccZ
FMT, 162, 32, GYR, QBQfff, TimeUS,I,SampleUS,GyrX,GyrY,GyrZ
FMT, 163, 54, IMU, QBffffffIIfBBHH, TimeUS,I,GyrX,GyrY,GyrZ,AccX,AccY,AccZ,EG,EA,T,GH,AH,GHz,AHz
FMT, 166, 28, VIBE, QBfffI, TimeUS,IMU,VibeX,VibeY,VibeZ,Clip
FMT, 164, 31, ISBH, QHBBHHQf, TimeUS,N,type,instance,mul,smp_cnt,SampleUS,smp_rate
FMT, 165, 207, ISBD, QHHaaa, TimeUS,N,seqno,x,y,z
FMT, 129, 15, RFRH, QI, TimeUS,TF
FMT, 130, 5, RFRF, BB, FTypes,Slow
FMT, 138, 38, RFRN, IIIfIfffBBB, HLat,HLon,HAlt,E2T,AM,TX,TY,TZ,VC,EKT,Flags
FMT, 131, 4, REV2, B, Event
FMT, 132, 15, RSO2, III, Lat,Lon,Alt
FMT, 133, 11, RWA2, ff, Airspeed,uncertainty
FMT, 134, 4, REV3, B, Event
FMT, 135, 15, RSO3, III, Lat,Lon,Alt
FMT, 136, 11, RWA3, ff, Airspeed,Uncertainty
FMT, 137, 16, REY3, ffIB, yawangle,yawangleerr,timestamp_ms,type
FMT, 139, 13, RISH, HBBfBB, LR,PG,PA,LD,AC,GC
FMT, 140, 37, RISI, ffffffffBB, DVX,DVY,DVZ,DAX,DAY,DAZ,DVDT,DADT,Flags,I
FMT, 148, 5, RASH, BB, Primary,NumInst
FMT, 149, 14, RASI, fIBBB, pd,UpdateMS,H,Use,I
FMT, 141, 5, RBRH, BB, Primary,NumInst
FMT, 142, 13, RBRI, IfBB, LastUpdate,Alt,H,I
FMT, 143, 8, RRNH, hhB, GCl,MaxD,NumSensors
FMT, 144, 20, RRNI, fffHBBB, PX,PY,PZ,Dist,Orient,Status,I
FMT, 145, 5, RGPH, BB, NumInst,Primary
FMT, 146, 23, RGPI, ffffBBBB, OX,OY,OZ,Lg,Flags,Stat,NSats,I
FMT, 147, 58, RGPJ, IffffffIiiiffHB, TS,VX,VY,VZ,SA,Y,YA,YT,Lat,Lon,Alt,HA,VA,HD,I
FMT, 153, 14, RMGH, fBBBBBBB, Dec,Avail,NumInst,AutoDec,NumEna,LOE,C,FUsable
FMT, 154, 35, RMGI, IffffffBBBB, LU,OX,OY,OZ,FX,FY,FZ,UFY,H,HSF,I
FMT, 150, 33, RBCH, ffffiiiBB, PX,PY,PZ,AE,OLat,OLng,OAlt,Flags,NumInst
FMT, 151, 25, RBCI, IffffBB, LU,PX,PY,PZ,Dist,H,I
FMT, 152, 21, RVOH, fffIBB, OX,OY,OZ,Del,H,Ena
FMT, 155, 40, ROFH, ffffIffffB, FX,FY,GX,GY,Tms,PX,PY,PZ,HgtOvr,Qual
FMT, 156, 49, REPH, fffffffffIIH, PX,PY,PZ,Q1,Q2,Q3,Q4,PEr,AEr,TS,RT,D
FMT, 157, 19, RSLL, IIfI, Lat,Lng,PosAccSD,TS
FMT, 158, 25, REVH, ffffIH, VX,VY,VZ,Er,TS,D
FMT, 159, 31, RWOH, ffIffff, DA,DT,TS,PX,PY,PZ,R
FMT, 160, 53, RBOH, ffffffffIfffH, Q,DPX,DPY,DPZ,DAX,DAY,DAZ,DT,TS,OX,OY,OZ,D
FMT, 43, 37, XKF0, QBBccCCcccccccc, TimeUS,C,ID,rng,innov,SIV,TR,BPN,BPE,BPD,OFH,OFL,OFN,OFE,OFD
FMT, 44, 56, XKF1, QBccCfffffffccce, TimeUS,C,Roll,Pitch,Yaw,VN,VE,VD,dPD,PN,PE,PD,GX,GY,GZ,OH
FMT, 45, 46, XKF2, QBccccchhhhhhfff, TimeUS,C,AX,AY,AZ,VWN,VWE,MN,ME,MD,MX,MY,MZ,IDX,IDY,IS
FMT, 46, 42, XKF3, QBcccccchhhccff, TimeUS,C,IVN,IVE,IVD,IPN,IPE,IPD,IMX,IMY,IMZ,IYAW,IVT,RErr,ErSc
FMT, 47, 44, XKF4, QBcccccfffHBIHb, TimeUS,C,SV,SP,SH,SM,SVT,errRP,OFN,OFE,FS,TS,SS,GPS,PI
FMT, 48, 41, XKF5, QBBhhhcccCCfff, TimeUS,C,NI,FIX,FIY,AFI,HAGL,offset,RI,rng,Herr,eAng,eVel,ePos
FMT, 49, 36, XKFD, QBffffff, TimeUS,C,IX,IY,IZ,IVX,IVY,IVZ
FMT, 50, 29, XKFM, QBBffff, TimeUS,C,OGNM,GLR,ALR,GDR,ADR
FMT, 51, 20, XKFS, QBBBBBBBBB, TimeUS,C,MI,BI,GI,AI,SS,GPS_GTA,GPS_CHK_WAIT,MAG_FUSION
FMT, 52, 28, XKQ, QBffff, TimeUS,C,Q1,Q2,Q3,Q4
FMT, 53, 48, XKT, QBIffffffff, TimeUS,C,Cnt,IMUMin,IMUMax,EKFMin,EKFMax,AngMin,AngMax,VMin,VMax
FMT, 54, 20, XKTV, QBff, TimeUS,C,TVS,TVD
FMT, 55, 60, XKV1, QBffffffffffff, TimeUS,C,V00,V01,V02,V03,V04,V05,V06,V07,V08,V09,V10,V11
FMT, 56, 60, XKV2, QBffffffffffff, TimeUS,C,V12,V13,V14,V15,V16,V17,V18,V19,V20,V21,V22,V23
FMT, 57, 60, XKY0, QBffffffffffff, TimeUS,C,YC,YCS,Y0,Y1,Y2,Y3,Y4,W0,W1,W2,W3,W4
FMT, 58, 52, XKY1, QBffffffffff, TimeUS,C,IVN0,IVN1,IVN2,IVN3,IVN4,IVE0,IVE1,IVE2,IVE3,IVE4
FMT, 41, 60, NKY0, QBffffffffffff, TimeUS,C,YC,YCS,Y0,Y1,Y2,Y3,Y4,W0,W1,W2,W3,W4
FMT, 42, 52, NKY1, QBffffffffff, TimeUS,C,IVN0,IVN1,IVN2,IVN3,IVN4,IVE0,IVE1,IVE2,IVE3,IVE4
FMT, 70, 45, AHR2, QccCfLLffff, TimeUS,Roll,Pitch,Yaw,Alt,Lat,Lng,Q1,Q2,Q3,Q4
FMT, 71, 19, AOA, Qff, TimeUS,AOA,SSA
FMT, 72, 36, ATT, QffffffB, TimeUS,DesRoll,Roll,DesPitch,Pitch,DesYaw,Yaw,AEKF
FMT, 73, 24, ORGN, QBLLe, TimeUS,Type,Lat,Lng,Alt
FMT, 74, 31, POS, QLLfff, TimeUS,Lat,Lng,Alt,RelHomeAlt,RelOriginAlt
FMT, 76, 35, ATSC, Qffffff, TimeUS,AngPScX,AngPScY,AngPScZ,PDScX,PDScY,PDScZ
FMT, 204, 51, VSTB, Qffffffffff, TimeUS,GyrX,GyrY,GyrZ,AccX,AccY,AccZ,Q1,Q2,Q3,Q4
FMT, 90, 38, MON, QIbIHHHHHII, TimeUS,Dly,Tsk,IErr,IErrCnt,IErrLn,MM,MC,SmLn,SPICnt,I2CCnt
FMT, 91, 47, WDOG, QbIHHHHHHHIBIIn, TimeUS,Tsk,IE,IEC,IEL,MvMsg,MvCmd,SmLn,FL,FT,FA,FP,ICSR,LR,TN
FMT, 210, 20, UART, QBff, TimeUS,I,Tx,Rx
FMT, 115, 21, RPM, QBffB, TimeUS,I,RPM,Qual,H
FMT, 209, 27, FNCE, QBBBLLBf, TimeUS,Tot,Seq,Type,Lat,Lng,Count,Radius
FMT, 177, 33, DSF, QIHIIII, TimeUS,Dp,Blk,Bytes,FMn,FMx,FAv
FMT, 121, 24, RALY, QBBLLhB, TimeUS,Tot,Seq,Lat,Lng,Alt,Flags
FMT, 183, 23, MAV, QBHHHBHH, TimeUS,chan,txp,rxp,rxdp,flags,ss,tf
FMT, 167, 43, VISO, Qffffffff, TimeUS,dt,AngDX,AngDY,AngDZ,PosDX,PosDY,PosDZ,conf
FMT, 168, 58, VISP, QQIffffffffBBb, TimeUS,RTimeUS,CTimeMS,PX,PY,PZ,R,P,Y,PErr,AErr,Rst,Ign,Q
FMT, 169, 42, VISV, QQIffffBBb, TimeUS,RTimeUS,CTimeMS,VX,VY,VZ,VErr,Rst,Ign,Q
FMT, 180, 28, OF, QBffff, TimeUS,Qual,flowX,flowY,bodyX,bodyY
FMT, 182, 21, WENC, Qfbfb, TimeUS,Dist0,Qual0,Dist1,Qual1
FMT, 185, 35, ADSB, QIiiiHHhH, TimeUS,ICAO_address,Lat,Lng,Alt,Heading,Hor_vel,Ver_vel,Squark
FMT, 181, 12, EV, QB, TimeUS,Id
FMT, 186, 18, ARM, QBIBB, TimeUS,ArmState,ArmChecks,Forced,Method
FMT, 184, 13, ERR, QBB, TimeUS,Subsys,ECode
FMT, 187, 35, WINC, QBBBBBfffHfb, TimeUS,Heal,ThEnd,Mov,Clut,Mode,DLen,Len,DRate,Tens,Vcc,Temp
FMT, 188, 47, PSCN, Qfffffffff, TimeUS,DPN,TPN,PN,DVN,TVN,VN,DAN,TAN,AN
FMT, 189, 47, PSCE, Qfffffffff, TimeUS,DPE,TPE,PE,DVE,TVE,VE,DAE,TAE,AE
FMT, 190, 47, PSCD, Qfffffffff, TimeUS,DPD,TPD,PD,DVD,TVD,VD,DAD,TAD,AD
FMT, 191, 35, PSON, Qffffff, TimeUS,TPON,PON,TVON,VON,TAON,AON
FMT, 192, 35, PSOE, Qffffff, TimeUS,TPOE,POE,TVOE,VOE,TAOE,AOE
FMT, 193, 35, PSOD, Qffffff, TimeUS,TPOD,POD,TVOD,VOD,TAOD,AOD
FMT, 194, 35, PSOT, Qffffff, TimeUS,TPOT,POT,TVOT,VOT,TAOT,AOT
FMT, 75, 63, RATE, Qfffffffffffff, TimeUS,RDes,R,ROut,PDes,P,POut,YDes,Y,YOut,ADes,A,AOut,AOutSlew
FMT, 195, 39, ANG, Qfffffff, TimeUS,DesRoll,Roll,DesPitch,Pitch,DesYaw,Yaw,Dt
FMT, 201, 33, STAK, QBBHHN, TimeUS,Id,Pri,Total,Free,Name
FMT, 202, 88, FILE, NIBZ, FileName,Offset,Length,Data
FMT, 197, 78, AISR, QBBBZ, TimeUS,num,total,ID,payload
FMT, 198, 41, AIS1, QBBIBbHbLLHHBBbI, US,typ,rep,mmsi,nav,rot,sog,pos,lon,lat,cog,hed,sec,man,raim,rad
FMT, 199, 38, AIS4, QBIHBBBBBBLLBBI, US,rep,mmsi,year,mth,day,h,m,s,fix,lon,lat,epfd,raim,rad
FMT, 200, 175, AIS5, QBIBINZBHHBBBBZB, US,rep,mmsi,ver,imo,cal,nam,typ,bow,stn,prt,str,fix,dght,dst,dte
FMT, 203, 39, SCR, QNIii, TimeUS,Name,Runtime,Total_mem,Run_mem
FMT, 206, 90, VER, QBHBBBBIZHBB, TimeUS,BT,BST,Maj,Min,Pat,FWT,GH,FWS,APJ,BU,FV
FMT, 205, 32, MOTB, QfffffB, TimeUS,LiftMax,BatVolt,ThLimit,ThrAvMx,ThrOut,FailFlags
FMT, 6, 24, PTUN, QBfff, TimeUS,Param,TunVal,TunMin,TunMax
FMT, 0, 55, CTUN, Qffffffefffhh, TimeUS,ThI,ABst,ThO,ThH,DAlt,Alt,BAlt,DSAlt,SAlt,TAlt,DCRt,CRt
FMT, 1, 14, D16, QBh, TimeUS,Id,Value
FMT, 2, 14, DU16, QBH, TimeUS,Id,Value
FMT, 3, 16, D32, QBi, TimeUS,Id,Value
FMT, 4, 16, DU32, QBI, TimeUS,Id,Value
FMT, 5, 16, DFLT, QBf, TimeUS,Id,Value
FMT, 9, 47, SIDD, Qfffffffff, TimeUS,Time,Targ,F,Gx,Gy,Gz,Ax,Ay,Az
FMT, 10, 40, SIDS, QBfffffff, TimeUS,Ax,Mag,FSt,FSp,TFin,TC,TR,TFout
FMT, 8, 49, GUIP, QBfffbffffff, TimeUS,Type,pX,pY,pZ,Terrain,vX,vY,vZ,aX,aY,aZ
FMT, 11, 44, GUIA, QBffffffff, TimeUS,Type,Roll,Pitch,Yaw,RollRt,PitchRt,YawRt,Thrust,ClimbRt
POWR, 184659825, 4.901056, 0, 1, 1, 6
MCU, 184659825, 39.60239, 3.348958, 3.342215, 3.354456
BAT, 184659887, 0, 15.48771, 15.5228, 0.229042, 9.681829, 0.1509776, 0, 0.1532152, 99, 1, 0
MAG, 184659923, 0, 647, 906, 353, -382, 367, 647, 0, 0, 0, 1, 184659921
MAG, 184659923, 1, 37, 470, 173, 59, 22, -40, 0, 0, 0, 1, 184659920
FMT, 248, 25, SURF, QBBfff, TimeUS,I,St,D,FD,TO
SURF, 184659944, 0, 2, 0, 0, 0.2587016
SURF, 184659974, 1, 2, 0, 0, 0.2587016
BARO, 184659998, 0, 0.07061768, 0.07061768, 93545.85, 39.98, -0.1260567, 184659, 0, 35, 1
CTUN, 184660011, 0, 0, 0, 0.431117, 0, 0.06887431, 0.07, NaN, 0, -44.17149, 0, 10
ATT, 184660064, -0.0002162052, 0.3034719, -0.0002713047, 1.667593, 243.1753, 243.1753, 3
ANG, 184659479, -0.0002162052, 0.3034719, -0.0002713047, 1.667593, 243.1753, 243.1753, 0.0025
RATE, 184659492, -1.364608, 0.214374, -0.004056933, -7.503656, -0.2412624, -0.01628355, 0.0199515, 0.05520835, -7.551235E-06, 60.81333, 1.697922, 0, 0
PIDR, 184660081, -0.02361131, 0.003741532, -0.02735284, -0.003692634, 0, -0.0003642989, 0, 0, 1, 0.0377922, 9
PIDP, 184660086, -0.1311843, -0.004210823, -0.1269735, -0.01714142, 0, 0.0008578647, 0, 0, 1, 0.08477145, 9
PIDY, 184660089, 0.000346234, 0.0009635675, -4.195131E-05, -7.551235E-06, 0, 0, 0, 0, 1, 0.004843331, 9
PIDA, 184660093, 60.81333, 60.81333, 0, 0, -431.1205, 0, 0, 0, 1, 811.6853, 13
XKF4, 184659586, 0, 0, 0, 0, 0.72, 0, 0.007847156, 0, 0, 0, 50, 67751, 135, 0
XKF1, 184659586, 0, 0.3, 1.66, 243.17, 0.3145259, -0.04126334, -0.1065123, -0.1036147, 0, 0, -0.06887431, 0.09, 0.11, -0.06, 0
XKF2, 184659586, 0, 0, 0.38, -0.02, 0, 0, 156, -2, 333, 0, 0, 0, 0, 0, 0
XKF3, 184659586, 0, 0, 0, 0, 0.54, -0.08, 0.03, 0, 0, 0, -61.97, 0, 0, 3.08611E-05
XKF5, 184659586, 0, 0, 0, 0, 0, 0.14, 0.04, 0, 0, 0.5, 0.002342936, 0.02405643, 0.07173072
XKFS, 184659586, 0, 0, 0, 0, 0, 0, 0, 0, 1
XKQ, 184659586, 0, -0.523712, -0.01378295, -0.005366651, 0.851767
XKF4, 184659586, 1, 0, 0, 0, 0.7, 0, 0.007861097, 0, 0, 0, 50, 67751, 135, 0
XKF1, 184659586, 1, 0.4, 1.38, 244.12, 0.09964001, -0.06278477, -0.1528192, -0.1547862, 0, 0, -0.08669311, 0.06, 0.05, -0.02, 0
XKF2, 184659586, 1, 0, 0.43, 0.02, 0, 0, 156, -2, 333, 0, 0, 0, 0, 0, 0
XKF3, 184659586, 1, 0, 0, 0, 0.18, -0.08, 0, 0, 0, 0, -60.97, 0, 0.0004127171, 4.357491E-06
XKFS, 184659586, 1, 0, 0, 0, 0, 0, 0, 0, 1
XKQ, 184659586, 1, -0.5307359, -0.01209581, -0.003453774, 0.8474439
AHR2, 184660168, -1.41, 2.31, 280.43, 0.12, 15.3694407, 75.1235994, 0.7684408, 0.003408937, 0.02339621, -0.6394839
POS, 184660173, 15.3694413, 75.1235996, 602.91, 0.07061768, 0.06887431
MOTB, 184660178, 1, 1, 1, 0.0431117, 0, 2
RCIN, 184660198, 1495, 1495, 982, 1495, 982, 982, 1495, 1495, 1495, 982, 982, 982, 1495, 1495
RCI2, 184660214, 1495, 1495, 0, 1
RCOU, 184660221, 1000, 1000, 1000, 1000, 0, 0, 0, 0, 982, 0, 0, 0, 0, 0
RCO2, 184660225, 0, 0, 0, 0
VIBE, 184660230, 0, 0.01033687, 0.009233465, 0.01064498, 0
VIBE, 184660230, 1, 0.06367622, 0.06425779, 0.07445522, 0
FMT, 246, 31, CTRL, Qfffff, TimeUS,RMSRollP,RMSRollD,RMSPitchP,RMSPitchD,RMSYaw
CTRL, 184660238, 0.003178553, 0.0002015352, 0.01767753, 0.0004518328, 9.087732E-05
IMU, 184660297, 0, 0.005438126, -0.00215968, -0.0001538931, 0.2540675, 0.4331897, -9.847756, 0, 0, 44.80676, 1, 1, 2022, 2022
IMU, 184660297, 1, 0.004214648, -0.002686501, -0.0009420807, 0.2475152, 0.4017514, -9.795983, 0, 0, 45, 1, 1, 1999, 2046
FMT, 251, 43, DCM, Qffffffff, TimeUS,Roll,Pitch,Yaw,ErrRP,ErrYaw,VWN,VWE,VWD
DCM, 184662066, -1.423865, 2.305162, 280.4417, 0.1505966, 0.4289128, 0, 0, 0
FMT, 250, 51, EAHR, QffffffLLfI, TimeUS,Roll,Pitch,Yaw,VN,VE,VD,Lat,Lon,Alt,Flg
EAHR, 184662111, 0, 0, 0, 0, 0, 0, 0, 0, 0, 0
MAV, 184670143, 1, 7630, 2017, 0, 6, 0, 0
IMU, 184699949, 0, 0.004677154, 5.769688E-05, -0.001196526, 0.2417189, 0.4291888, -9.848513, 0, 0, 44.32367, 1, 1, 2022, 2022
IMU, 184699949, 1, 0.003110278, -0.0004660787, -0.001539786, 0.230109, 0.3965924, -9.784876, 0, 0, 45, 1, 1, 1999, 2046
SURF, 184709875, 0, 2, 0, 0, 0.2494323
SURF, 184709884, 1, 2, 0, 0, 0.2494323
MSG, 184733381, ArduCopter V4.6.2 (1ebd4d99)
MSG, 184733389, ChibiOS: 88b84600
VER, 184733394, 10, 5009, 4, 6, 2, 255, 515722649, ArduCopter V4.6.2 (1ebd4d99), 56, 2, 2
MSG, 184733407, Pixhawk6C 003D0048 3133510F 31343630
MSG, 184733415, Param space used: 951/5376
MSG, 184733421, RC Protocol: SBUS
MSG, 184733432, RCOut: PWM:1-16
MSG, 184733437, New mission
CMD, 184734941, 4, 0, 16, 0, 0, 0, 0, 0, 0, 0, 0
CMD, 184734950, 4, 1, 22, 1, 0, 0, 0, 0, 0, 10, 3
CMD, 184734957, 4, 2, 16, 10, 0, 0, 0, 15.367361, 75.1254623, 10, 3
CMD, 184734964, 4, 3, 20, 0, 0, 0, 0, 0, 0, 0, 0
MSG, 184734969, New rally
MSG, 184734977, New fence
FNCE, 184734984, 10, 0, 98, 15.3694775, 75.1243937, 10, 0
FNCE, 184734989, 10, 1, 98, 15.3694025, 75.1246646, 10, 0
FNCE, 184734994, 10, 2, 98, 15.3694775, 75.1248684, 10, 0
FNCE, 184735000, 10, 3, 98, 15.3696456, 75.1249086, 10, 0
FNCE, 184735005, 10, 4, 98, 15.3699042, 75.1248443, 10, 0
FNCE, 184735010, 10, 5, 98, 15.3702533, 75.1247826, 10, 0
FNCE, 184735016, 10, 6, 98, 15.3703154, 75.1244822, 10, 0
FNCE, 184735021, 10, 7, 98, 15.3700982, 75.124281, 10, 0
FNCE, 184735026, 10, 8, 98, 15.3698292, 75.1241469, 10, 0
FNCE, 184735032, 10, 9, 98, 15.3695111, 75.1241147, 10, 0
MSG, 184735041, Frame: QUAD/X
MODE, 184735045, Stabilize, 0, 1
MSG, 184735054, GPS 1: probing for u-blox at 230400 baud
MSG, 184735063, u-blox 1 HW: 00190000 SW: EXT CORE 4.04 (7f89f7)
IMU, 184739935, 0, 0.0002384039, 0.009242006, -0.001707371, 0.2506752, 0.4267989, -9.845828, 0, 0, 44.80676, 1, 1, 2022, 2022
IMU, 184739935, 1, -0.001094544, 0.006949054, -0.002330831, 0.2482289, 0.3851704, -9.807296, 0, 0, 45, 1, 1, 1999, 2046
POWR, 184759854, 4.912838, 0, 1, 1, 6
MCU, 184759854, 39.66203, 3.348113, 3.339834, 3.355303
BAT, 184759882, 0, 15.47041, 15.50194, 0.20579, 9.687548, 0.151066, 0, 0.1532152, 99, 1, 0
MAG, 184759894, 0, 647, 926, 353, -382, 367, 647, 0, 0, 0, 1, 184759893
MAG, 184759894, 1, 38, 471, 176, 59, 22, -40, 0, 0, 0, 1, 184759891
SURF, 184759932, 0, 2, 0, 0, 0.2407753
SURF, 184759941, 1, 2, 0, 0, 0.2407753
BARO, 184759964, 0, -0.1116943, -0.1116943, 93547.89, 39.98, -0.1074982, 184759, 0, 35, 1
CTUN, 184759977, 0, 0, 0, 0.431117, 0, 0.07597981, -0.11, NaN, 0, -44.17149, 0, 10
ATT, 184760034, -0.0002162052, 0.3102116, -0.0002713047, 1.682559, 243.2449, 243.2449, 3
ANG, 184759479, -0.0002162052, 0.3102116, -0.0002713047, 1.682559, 243.2449, 243.2449, 0.0025
RATE, 184759493, -1.394856, -0.08825075, -0.003023751, -7.570652, 0.4561696, -0.01913585, 0.02056906, 0.0008069028, 7.088944E-05, 60.81333, 1.886177, 0, 0
PIDR, 184760050, -0.02440688, -0.001540266, -0.02286661, -0.003086993, 0, 6.324243E-05, 0, 0, 1, 0.03778949, 9
PIDP, 184760054, -0.1317744, 0.007961662, -0.1397361, -0.01886437, 0, -0.0002714844, 0, 0, 1, 0.08668814, 9
PIDY, 184760058, 0.0003590888, 1.408311E-05, 0.0003938302, 7.088944E-05, 0, 0, 0, 0, 1, 0.004381878, 9
PIDA, 184760062, 60.81333, 60.81333, 0, 0, -431.1205, 0, 0, 0, 1, 811.6853, 13
XKF4, 184759589, 0, 0, 0, 0, 0.72, 0, 0.007925276, 0, 0, 0, 50, 67751, 135, 0
XKF1, 184759589, 0, 0.31, 1.68, 243.24, 0.3260037, -0.0414092, -0.1083957, -0.1153798, 0, 0, -0.07597981, 0.09, 0.11, -0.06, 0
XKF2, 184759589, 0, 0, 0.38, -0.02, 0, 0, 156, -2, 333, 0, 0, 0, 0, 0, 0
XKF3, 184759589, 0, 0, 0, 0, 0.58, -0.08, -0.02, 0, 0, 0, -61.99, 0, 0, 3.465799E-05
XKF5, 184759589, 0, 0, 0, 0, 0, 0.15, 0.04, 0, 0, 0.5, 0.002345168, 0.02335297, 0.07208434
XKFS, 184759589, 0, 0, 0, 0, 0, 0, 0, 0, 1
XKQ, 184759589, 0, -0.524227, -0.01392172, -0.005393418, 0.8514477
XKF4, 184759589, 1, 0, 0, 0, 0.7, 0, 0.007939634, 0, 0, 0, 50, 67751, 135, 0
XKF1, 184759589, 1, 0.4, 1.39, 244.18, 0.102814, -0.06324729, -0.1552561, -0.1697132, 0, 0, -0.0975085, 0.06, 0.05, -0.02, 0
XKF2, 184759589, 1, 0, 0.43, 0.02, 0, 0, 156, -2, 333, 0, 0, 0, 0, 0, 0
XKF3, 184759589, 1, 0, 0, 0, 0.19, -0.09, -0.07, 0, 0, 0, -60.99, 0, 0.0004127171, 1.245792E-05
XKFS, 184759589, 1, 0, 0, 0, 0, 0, 0, 0, 1
XKQ, 184759589, 1, -0.5312102, -0.01219752, -0.003488565, 0.8471451
AHR2, 184760132, -1.77, 2.13, 280.69, 0.07, 15.3694402, 75.1235993, 0.7698646, -3.769314E-05, 0.0242568, -0.6377462
POS, 184760137, 15.3694413, 75.1235996, 602.91, -0.1116943, 0.07597981
MOTB, 184760142, 1, 1, 1, 0.0431117, 0, 2
RCIN, 184760148, 1495, 1495, 982, 1495, 982, 982, 1495, 1495, 1495, 982, 982, 982, 1495, 1495
RCI2, 184760151, 1495, 1495, 0, 1
RCOU, 184760158, 1000, 1000, 1000, 1000, 0, 0, 0, 0, 982, 0, 0, 0, 0, 0
RCO2, 184760161, 0, 0, 0, 0
VIBE, 184760166, 0, 0.01214249, 0.008667429, 0.009534623, 0
VIBE, 184760166, 1, 0.06268834, 0.06539438, 0.07782578, 0
CTRL, 184760174, 0.003286699, 0.0002599484, 0.01775485, 0.0005213186, 7.832835E-05
DCM, 184762097, -1.786563, 2.133687, 280.6943, 0.1505966, 0.4233917, 0, 0, 0
EAHR, 184762133, 0, 0, 0, 0, 0, 0, 0, 0, 0, 0
FILE, @SYS/uarts.txt, 0, 64, UARTV1\nSERIAL0 OTG1  TX =       0 RX =       0 TXBD=     0 RXBD=
FILE, @SYS/uarts.txt, 64, 64,      0 FE=0 OE=0 NE=0 FlowCtrl=0\nSERIAL1 UART7 TX*=  282341 RX*=
IMU, 184779938, 0, 0.001886507, 0.007261226, -0.001351665, 0.2478905, 0.4317221, -9.847219, 0, 0, 44.80676, 1, 1, 2022, 2022
IMU, 184779938, 1, 0.0008797693, 0.004291331, -0.0007047299, 0.2285665, 0.4179687, -9.785985, 0, 0, 45, 1, 1, 1999, 2046
FILE, @SYS/uarts.txt, 128, 64,    41975 TXBD= 15364 RXBD=  2284 FE=0 OE=0 NE=0 FlowCtrl=0\nSERIA
FILE, @SYS/uarts.txt, 192, 64, L2 UART5 TX*=    5538 RX*=       0 TXBD=   301 RXBD=     0 FE=0 
SURF, 184809803, 0, 2, 0, 0, 0.2327284
SURF, 184809813, 1, 2, 0, 0, 0.2327284
FILE, @SYS/uarts.txt, 256, 64, OE=0 NE=0 FlowCtrl=0\nSERIAL3 UART1 TX*=    1990 RX*=  121699 TXB
STAK, 184818501, 11, 60, 752, 344, UART5
IMU, 184820220, 0, 0.001849243, 0.004653478, -0.0007490171, 0.252685, 0.4315296, -9.850258, 0, 0, 44.80676, 1, 1, 2022, 2022
IMU, 184820220, 1, 0.0006018338, 0.00415343, -0.002304258, 0.2381928, 0.3863853, -9.788627, 0, 0, 45, 1, 1, 1999, 2046
FILE, @SYS/uarts.txt, 320, 64, D=   108 RXBD=  6622 FE=144 OE=0 NE=168 FlowCtrl=0\nSERIAL4 UART8
FILE, @SYS/uarts.txt, 384, 64,  TX*=       0 RX*=       0 TXBD=     0 RXBD=     0 FE=0 OE=0 NE=
GPS, 184840045, 0, 3, 130588800, 2380, 6, 5.71, 15.3694404, 75.1236001, 603.05, 0.357, 199.4806, -0.275, 0, 1
GPA, 184840045, 0, 7.6, 11.57, 13.21, 1.49, 0, 1, 184818, 200, 525.04, 0, 0
FILE, @SYS/uarts.txt, 448, 64, 0 FlowCtrl=0\nSERIAL5 UART2 TX =       0 RX =       0 TXBD=     0
POWR, 184859923, 4.915961, 0, 1, 1, 6
MCU, 184859923, 39.64215, 3.348817, 3.340814, 3.356292
BAT, 184859936, 0, 15.504, 15.54109, 0.2420412, 9.694275, 0.1511704, 0, 0.1532152, 99, 1, 0
MAG, 184859947, 0, 656, 953, 359, -382, 367, 647, 0, 0, 0, 1, 184859946
MAG, 184859947, 1, 39, 470, 174, 59, 22, -40, 0, 0, 0, 1, 184859944
SURF, 184859965, 0, 2, 0, 0, 0.2252689
SURF, 184859973, 1, 2, 0, 0, 0.2252689
BARO, 184859998, 0, 0.1707153, 0.1707153, 93544.7, 39.98, -0.1625442, 184859, 0, 35, 1
CTUN, 184860010, 0, 0, 0, 0.431117, 0, 0.08412141, 0.17, NaN, 0, -44.02625, 0, 11
ATT, 184860066, -0.0002162052, 0.3144234, -0.0002713048, 1.700345, 243.3143, 243.3143, 3
ANG, 184859480, -0.0002162052, 0.3144234, -0.0002713048, 1.700345, 243.3143, 243.3143, 0.002494
RATE, 184859492, -1.413843, 0.06822059, -0.003452398, -7.650956, 0.1493056, -0.01850928, 0.02105991, -0.03130429, 8.271676E-05, 60.81333, 2.198601, 0, 0
PIDR, 184860109, -0.0246343, 0.001190674, -0.02582497, -0.003486371, 0, 3.397352E-05, 0, 0, 1, 0.03833009, 9
PIDP, 184860113, -0.1334062, 0.002605875, -0.136012, -0.01836162, 0, -0.0001476601, 0, 0, 1, 0.0862369, 9
PIDY, 184860117, 0.0003671546, -0.0005463629, 0.0004595375, 8.271676E-05, 0, 0, 0, 0, 1, 0.003964387, 9
PIDA, 184860121, 60.81333, 60.81333, 0, 0, -431.1205, 0, 0, 0, 1, 811.6853, 13
XKF4, 184859606, 0, 0, 0, 0.01, 0.71, 0, 0.00800368, 0, 0, 0, 50, 67751, 135, 0
XKF1, 184859606, 0, 0.31, 1.7, 243.31, 0.3380041, -0.04174633, -0.1102647, -0.1148522, 0, 0, -0.08412141, 0.09, 0.11, -0.06, 0
XKF2, 184859606, 0, 0, 0.38, -0.02, 0, 0, 156, -2, 333, 0, 0, 0, 0, 0, 0
XKF3, 184859606, 0, 0, 0, 0, 0.61, -0.08, -0.21, 0, 0, 0, -61.34, 0, 0, 0.0001171838
XKF5, 184859606, 0, 0, 0, 0, 0, 0.15, 0.04, 0, 0, 0.5, 0.002346173, 0.02254255, 0.07010532
XKFS, 184859606, 0, 0, 0, 0, 0, 0, 0, 0, 1
XKQ, 184859606, 0, -0.5247405, -0.01406983, -0.005452021, 0.8511285
XKV1, 184859606, 0, 0.0001190875, 8.134872E-06, 7.848621E-06, 3.686057E-05, 0.05530361, 0.0831881, 0.02113089, 0.2204374, 0.2331845, 0.270231, 4.315942E-11, 4.807238E-11
XKV2, 184859606, 0, 8.993169E-11, 6.190702E-06, 4.110181E-07, 6.195641E-08, 0, 0, 0, 0, 0, 0, 0, 0
XKF4, 184859606, 1, 0, 0, 0.01, 0.7, 0, 0.008018048, 0, 0, 0, 50, 67751, 135, 0
XKF1, 184859606, 1, 0.4, 1.41, 244.25, 0.1065606, -0.0634761, -0.1574785, -0.1705431, 0, 0, -0.1099659, 0.06, 0.05, -0.03, 0
XKF2, 184859606, 1, 0, 0.43, 0.02, 0, 0, 156, -2, 333, 0, 0, 0, 0, 0, 0
XKF3, 184859606, 1, 0, 0, 0, 0.21, -0.09, -0.26, 0, 0, 0, -60.35, 0, 0.002030492, 0.0001771014
XKFS, 184859606, 1, 0, 0, 0, 0, 0, 0, 0, 1
XKQ, 184859606, 1, -0.5316979, -0.0123386, -0.003576633, 0.8468366
AHR2, 184860219, -2.06, 2.01, 280.94, -0.11, 15.36944, 75.1236001, 0.771266, -0.002716949, 0.02498499, -0.6360167
POS, 184860224, 15.3694404, 75.1236001, 603.05, 0.1707153, 0.08412141
MOTB, 184860229, 1, 1, 1, 0.0431117, 0, 2
RCIN, 184860235, 1495, 1495, 982, 1495, 982, 982, 1495, 1495, 1495, 982, 982, 982, 1495, 1495
RCI2, 184860239, 1495, 1495, 0, 1
RCOU, 184860245, 1000, 1000, 1000, 1000, 0, 0, 0, 0, 982, 0, 0, 0, 0, 0
RCO2, 184860248, 0, 0, 0, 0
VIBE, 184860280, 0, 0.01044876, 0.008002941, 0.009901842, 0
VIBE, 184860280, 1, 0.06491692, 0.06773096, 0.07266277, 0
CTRL, 184860330, 0.003314167, 0.000226732, 0.01796362, 0.000450963, 7.509743E-05
IMU, 184860341, 0, 0.00288573, 0.004647804, -0.001700583, 0.253253, 0.4338255, -9.852886, 0, 0, 44.80676, 1, 1, 2022, 2022
IMU, 184860341, 1, 0.001800827, 0.003082397, -0.001147892, 0.253988, 0.4017122, -9.795877, 0, 0, 45, 1, 1, 1999, 2046
DCM, 184862067, -2.060568, 2.012346, 280.9467, 0.1385324, 0.4167285, 0, 0, 0
EAHR, 184862093, 0, 0, 0, 0, 0, 0, 0, 0, 0, 0
FILE, @SYS/uarts.txt, 512, 64,  RXBD=     0 FE=0 OE=0 NE=0 FlowCtrl=0\nSERIAL6 UART3 TX =       
FILE, @SYS/uarts.txt, 576, 64, 0 RX =       0 TXBD=     0 RXBD=     0 FE=0 OE=0 NE=0 FlowCtrl=0
FILE, @SYS/uarts.txt, 640, 64, \nSERIAL7 OTG2  TX =       0 RX =       0 TXBD=     0 RXBD=     0
FILE, @SYS/uarts.txt, 704, 64,  FE=0 OE=0 NE=0 FlowCtrl=0\nIOMCU   UART6 TX*= 1254968 RX*=  8427
IMU, 184899960, 0, 0.001404424, 0.005447279, -0.0009492883, 0.2450652, 0.4335589, -9.849372, 0, 0, 44.80676, 1, 1, 2022, 2022
IMU, 184899960, 1, 0.0009366584, 0.003087379, 0.0007326004, 0.2575409, 0.3981483, -9.794189, 0, 0, 45, 1, 1, 1999, 2046
SURF, 184909739, 0, 2, 0, 0, 0.2183767
SURF, 184909832, 1, 2, 0, 0, 0.2183767
FILE, @SYS/uarts.txt, 768, 53, 16 TXBD= 21547 RXBD= 22486 FE=0 OE=0 NE=0 FlowCtrl=0\n
STAK, 184918541, 12, 60, 752, 344, UART1
FILE, @SYS/memory.txt, 0, 64, MemInfoV1\nSTART=0x24000000 LEN=512k FREE=  1728 LRG=  1208 TYPE=
IMU, 184939890, 0, 0.001939838, 0.007000835, -0.001106174, 0.2475414, 0.4310006, -9.854611, 0, 0, 44.32367, 1, 1, 2022, 2022
IMU, 184939890, 1, 0.002655247, 0.003249331, -0.001602808, 0.2364905, 0.3952149, -9.79245, 0, 0, 45, 1, 1, 1999, 2046
FILE, @SYS/memory.txt, 64, 64, 4\nSTART=0x30000000 LEN=256k FREE=262136 LRG=262136 TYPE=8\nSTART=
FILE, @SYS/memory.txt, 128, 64, 0x20000000 LEN=128k FREE=112544 LRG=112544 TYPE=2\nSTART=0x000004
POWR, 184959817, 4.909515, 0, 1, 1, 6
MCU, 184959817, 39.60239, 3.348817, 3.341795, 3.354032
BAT, 184959858, 0, 15.50636, 15.54283, 0.2380133, 9.70088, 0.1512728, 0, 0.1532152, 99, 1, 0
MAG, 184959910, 0, 656, 978, 353, -382, 367, 647, 0, 0, 0, 1, 184959909
MAG, 184959910, 1, 37, 470, 175, 59, 22, -40, 0, 0, 0, 1, 184959896
SURF, 184959931, 0, 2, 0, 0, 0.2120505
SURF, 184959940, 1, 2, 0, 0, 0.2120505
BARO, 184959964, 0, 0.182373, 0.182373, 93544.58, 39.98, -0.1275444, 184959, 0, 35, 1
CTUN, 184959981, 0, 0, 0, 0.431117, 0, 0.09398164, 0.18, NaN, 0, -44.02625, 0, 11
ATT, 184960034, -0.0002162052, 0.3144058, -0.0002713047, 1.726145, 243.384, 243.384, 3
ANG, 184959480, -0.0002162052, 0.3144058, -0.0002713047, 1.726145, 243.384, 243.384, 0.002501
RATE, 184959493, -1.41376, -0.01338628, -0.003222027, -7.767119, 0.2732525, -0.01905496, 0.02142871, -0.04342711, 9.142906E-05, 60.81333, 1.819706, 0, 0
PIDR, 184960051, -0.02468803, -0.0002336347, -0.02445439, -0.003301343, 0, 7.931621E-05, 0, 0, 1, 0.03843806, 9
PIDP, 184960055, -0.1352959, 0.004769157, -0.1400651, -0.01890879, 0, -0.0001461739, 0, 0, 1, 0.07802061, 9
PIDY, 184960059, 0.0003727204, -0.0007579461, 0.0005079392, 9.142906E-05, 0, 0, 0, 0, 1, 0.003586677, 9
PIDA, 184960062, 60.81333, 60.81333, 0, 0, -431.1205, 0, 0, 0, 1, 811.6853, 13
XKF4, 184959588, 0, 0, 0, 0, 0.7, 0, 0.008081604, 0, 0, 0, 50, 67751, 135, 0
XKF1, 184959588, 0, 0.31, 1.72, 243.38, 0.350319, -0.04158293, -0.1120513, -0.1168536, 0, 0, -0.09398164, 0.09, 0.11, -0.06, 0
XKF2, 184959588, 0, 0, 0.38, -0.02, 0, 0, 156, -2, 333, 0, 0, 0, 0, 0, 0
XKF3, 184959588, 0, 0, 0, 0, 0.65, -0.09, 0.05, 0, 0, 0, -60.9, 0, 0, 4.334945E-05
XKF5, 184959588, 0, 0, 0, 0, 0, 0.17, 0.04, 0, 0, 0.5, 0.002349196, 0.02171868, 0.06969929
XKFS, 184959588, 0, 0, 0, 0, 0, 0, 0, 0, 1
XKQ, 184959588, 0, -0.5252559, -0.01425798, -0.005578987, 0.8508066
XKF4, 184959588, 1, 0, 0, 0, 0.69, 0, 0.00809613, 0, 0, 0, 50, 67751, 135, 0
XKF1, 184959588, 1, 0.4, 1.43, 244.32, 0.1098276, -0.0642855, -0.1589502, -0.1720852, 0, 0, -0.1246057, 0.06, 0.05, -0.03, 0
XKF2, 184959588, 1, 0, 0.43, 0.02, 0, 0, 156, -2, 333, 0, 0, 0, 0, 0, 0
XKF3, 184959588, 1, 0, 0, 0, 0.22, -0.1, 0, 0, 0, 0, -59.91, 0, 0.00280942, 6.012331E-06
XKFS, 184959588, 1, 0, 0, 0, 0, 0, 0, 0, 1
XKQ, 184959588, 1, -0.5322138, -0.01250856, -0.003704779, 0.8465095
AHR2, 184960136, -1.97, 2.09, 281.2, 0.17, 15.3694397, 75.1236001, 0.7727152, -0.001707298, 0.02500491, -0.6342579
POS, 184960141, 15.3694404, 75.1236001, 603.05, 0.182373, 0.09398164
MOTB, 184960146, 1, 1, 1, 0.0431117, 0, 2
RCIN, 184960152, 1495, 1495, 982, 1495, 982, 982, 1495, 1495, 1495, 982, 982, 982, 1495, 1495
RCI2, 184960155, 1495, 1495, 0, 1
RCOU, 184960161, 1000, 1000, 1000, 1000, 0, 0, 0, 0, 982, 0, 0, 0, 0, 0
RCO2, 184960165, 0, 0, 0, 0
VIBE, 184960169, 0, 0.01047376, 0.009631141, 0.009567644, 0
VIBE, 184960169, 1, 0.06194633, 0.0659676, 0.07003024, 0
CTRL, 184960192, 0.00332062, 0.0001929768, 0.01821001, 0.0003906744, 7.763445E-05
DCM, 184962086, -1.967884, 2.093525, 281.2088, 0.1385324, 0.4084682, 0, 0, 0
EAHR, 184962104, 0, 0, 0, 0, 0, 0, 0, 0, 0, 0
FILE, @SYS/memory.txt, 192, 64, 00 LEN= 63k FREE= 64504 LRG= 64504 TYPE=2\nSTART=0x30040000 LEN= 
IMU, 184979928, 0, 0.0006857754, 0.009746185, -0.001471622, 0.2562464, 0.4298708, -9.846673, 0, 0, 44.80676, 1, 1, 2022, 2022
IMU, 184979928, 1, 0.000104077, 0.00880753, -0.002808649, 0.2508502, 0.3951031, -9.785436, 0, 0, 45, 1, 1, 1999, 2046
FILE, @SYS/memory.txt, 256, 64, 32k FREE= 32760 LRG= 32760 TYPE=8\nSTART=0x38000000 LEN= 64k FREE
FMT, 252, 28, HEAT, Qfbfff, TimeUS,Temp,Targ,P,I,Out
HEAT, 184989485, 44.66184, 45, 16.90788, 5.391646, 22.29953
FILE, @SYS/memory.txt, 320, 26, = 56808 LRG= 56152 TYPE=1\n
SURF, 185009880, 0, 2, 0, 0, 0.2062851
SURF, 185009890, 1, 2, 0, 0, 0.2062851
FILE, @SYS/threads.txt, 0, 64, ThreadsV2\nISR           PRI=255 sp=0x24000000 STACK=1268/1536\nAr
STAK, 185018972, 13, 60, 752, 408, UART8
IMU, 185020275, 0, 0.0003535253, 0.008835118, -0.0009764324, 0.2588566, 0.4382932, -9.85274, 0, 0, 44.32367, 1, 1, 2022, 2022
IMU, 185020275, 1, -0.0006071349, 0.0073438, -0.001783121, 0.2576838, 0.4198647, -9.800703, 0, 0, 45, 1, 1, 1999, 2046
FILE, @SYS/threads.txt, 64, 64, duCopter    PRI=182 sp=0x24000600 STACK=4000/7168\nidle          
FILE, @SYS/threads.txt, 128, 64, PRI=  1 sp=0x240214B0 STACK=288/496\nUART_RX       PRI= 60 sp=0x2
GPS, 185040029, 0, 3, 130589000, 2380, 6, 5.71, 15.3694407, 75.1236009, 603.14, 0.407, 199.4806, -0.333, 0, 1
GPA, 185040029, 0, 7.6, 11.56, 13.23, 2.11, 0, 1, 185018, 200, 525.13, 0, 0
FILE, @SYS/threads.txt, 192, 64, 407B0E8 STACK=880/1200\nOTG1          PRI= 60 sp=0x2407A1A0 STACK
FILE, @SYS/threads.txt, 256, 64, =480/752\nmonitor       PRI=183 sp=0x2401CE20 STACK=1096/1456\ntim
POWR, 185059866, 4.907501, 0, 1, 1, 6
MCU, 185059866, 39.62226, 3.348817, 3.341094, 3.353891
BAT, 185059880, 0, 15.48698, 15.52156, 0.2257465, 9.707154, 0.1513699, 0, 0.1532152, 99, 1, 0
MAG, 185059891, 0, 673, 988, 358, -382, 367, 647, 0, 0, 0, 1, 185059890
MAG, 185059891, 1, 37, 471, 172, 59, 22, -40, 0, 0, 0, 1, 185059888
SURF, 185059912, 0, 2, 0, 0, 0.2010722
SURF, 185059921, 1, 2, 0, 0, 0.2010722
BARO, 185059941, 0, 0.09118652, 0.09118652, 93545.62, 39.98, 0.2648544, 185059, 0, 35, 1
CTUN, 185059954, 0, 0, 0, 0.431117, 0, 0.1054749, 0.09, NaN, 0, -43.93887, 0, 11
ATT, 185060060, -0.0002162052, 0.3119486, -0.0002713048, 1.758136, 243.4565, 243.4565, 3
ANG, 185059479, -0.0002162052, 0.3119486, -0.0002713048, 1.758136, 243.4565, 243.4565, 0.002493
RATE, 185059492, -1.402698, 0.04371313, -0.003632445, -7.911126, 0.1718554, -0.01874156, 0.021552, 0.03053887, 1.421822E-05, 60.81333, 1.910019, 0, 0
PIDR, 185060077, -0.0244148, 0.0007629381, -0.02517774, -0.003398995, 0, -0.0002334502, 0, 0, 1, 0.0378066, 9
PIDP, 185060081, -0.1379508, 0.002999443, -0.1409502, -0.01902828, 0, 0.0002867203, 0, 0, 1, 0.08076049, 9
PIDY, 185060084, 0.0003758911, 0.0005330038, 7.899008E-05, 1.421822E-05, 0, 0, 0, 0, 1, 0.003244957, 9
PIDA, 185060088, 60.81333, 60.81333, 0, 0, -431.1205, 0, 0, 0, 1, 811.6853, 13
XKF4, 185059581, 0, 0, 0, 0, 0.69, 0, 0.008159411, 0, 0, 0, 50, 67751, 135, 0
XKF1, 185059581, 0, 0.31, 1.75, 243.45, 0.3625915, -0.04199662, -0.1141487, -0.1273187, 0, 0, -0.1054749, 0.09, 0.11, -0.06, 0
XKF2, 185059581, 0, 0, 0.38, -0.02, 0, 0, 156, -2, 333, 0, 0, 0, 0, 0, 0
XKF3, 185059581, 0, 0, 0, 0, 0.68, -0.09, 0.05, 0, 0, 0, -60.14, 0, 0, 4.827105E-05
XKF5, 185059581, 0, 0, 0, 0, 0, 0.18, 0.04, 0, 0, 0.5, 0.002352199, 0.02088958, 0.06855315
XKFS, 185059581, 0, 0, 0, 0, 0, 0, 0, 0, 1
XKQ, 185059581, 0, -0.5257916, -0.01448059, -0.005753054, 0.8504707
XKF4, 185059581, 1, 0, 0, 0, 0.68, 0, 0.008174236, 0, 0, 0, 50, 67751, 135, 0
XKF1, 185059581, 1, 0.39, 1.46, 244.38, 0.1134992, -0.06558301, -0.1615904, -0.1823623, 0, 0, -0.1410252, 0.06, 0.05, -0.03, 0
XKF2, 185059581, 1, 0, 0.43, 0.02, 0, 0, 156, -2, 333, 0, 0, 0, 0, 0, 0
XKF3, 185059581, 1, 0, 0, 0, 0.23, -0.1, 0, 0, 0, 0, -59.15, 0, 0.00280942, 6.657487E-06
XKFS, 185059581, 1, 0, 0, 0, 0, 0, 0, 0, 1
XKQ, 185059581, 1, -0.5326831, -0.01267878, -0.003918754, 0.8462108
AHR2, 185060179, -1.83, 2.18, 281.46, 0.18, 15.3694409, 75.1236013, 0.7741254, -0.0003327032, 0.02490167, -0.6325423
POS, 185060184, 15.3694407, 75.1236009, 603.14, 0.09118652, 0.1054749
MOTB, 185060191, 1, 1, 1, 0.0431117, 0, 2
RCIN, 185060198, 1495, 1495, 982, 1495, 982, 982, 1495, 1495, 1495, 982, 982, 982, 1495, 1495
RCI2, 185060201, 1495, 1495, 0, 1
RCOU, 185060208, 1000, 1000, 1000, 1000, 0, 0, 0, 0, 982, 0, 0, 0, 0, 0
RCO2, 185060211, 0, 0, 0, 0
VIBE, 185060216, 0, 0.01939286, 0.01640916, 0.01332628, 0
VIBE, 185060216, 1, 0.06794838, 0.06577357, 0.0756325, 0
CTRL, 185060224, 0.003285661, 0.0001801995, 0.0185576, 0.000385149, 7.655987E-05
IMU, 185060234, 0, 0.002456469, 0.005032165, -0.0006581772, 0.2629435, 0.436289, -9.8497, 0, 0, 44.80676, 1, 1, 2022, 2022
IMU, 185060234, 1, 0.0006131763, 0.00271402, -0.001099005, 0.2711312, 0.4074335, -9.808155, 0, 0, 45, 1, 1, 1999, 2046
DCM, 185062094, -1.829251, 2.187045, 281.4633, 0.1719646, 0.4024756, 0, 0, 0
EAHR, 185062136, 0, 0, 0, 0, 0, 0, 0, 0, 0, 0
FILE, @SYS/threads.txt, 320, 64, er         PRI=181 sp=0x2401E3E0 STACK=1528/1968\nrcout         P
FILE, @SYS/threads.txt, 384, 64, RI=181 sp=0x2401DA00 STACK=656/944\nrcin          PRI=177 sp=0x24
FILE, @SYS/threads.txt, 448, 64, 01D410 STACK=848/1456\nio            PRI= 58 sp=0x2401C430 STACK=
IMU, 185099953, 0, 0.001233323, 0.00646786, -0.001100979, 0.2604485, 0.4354325, -9.848453, 0, 0, 44.80676, 1, 1, 2022, 2022
IMU, 185099953, 1, -0.002019089, 0.002830477, -0.0007708604, 0.2469127, 0.3889801, -9.811488, 0, 0, 45, 1, 1, 1999, 2046
FILE, @SYS/threads.txt, 512, 64, 1576/2480\nstorage       PRI= 59 sp=0x2401DDF0 STACK=928/1456\nUAR
RAD, 185104915, 63, 0, 100, 95, 0, 0, 0
SURF, 185109804, 0, 2, 0, 0, 0.1964042
SURF, 185109814, 1, 2, 0, 0, 0.1964042
FILE, @SYS/threads.txt, 576, 64, T7         PRI= 60 sp=0x24078FF8 STACK=240/752\nUART5         PRI
STAK, 185120310, 14, 60, 752, 480, OTG2
FILE, @SYS/threads.txt, 640, 64, = 60 sp=0x240784B0 STACK=344/752\nUART1         PRI= 60 sp=0x2407
FILE, @SYS/threads.txt, 704, 64, 78E8 STACK=344/752\nUART8         PRI= 60 sp=0x24076D20 STACK=408
IMU, 185139940, 0, 0.00257998, 0.005592622, -0.0001736079, 0.258883, 0.4391378, -9.853345, 0, 0, 44.80676, 1, 1, 2022, 2022
IMU, 185139940, 1, 0.001187265, 0.006928006, -0.0002846538, 0.2841581, 0.3995614, -9.79447, 0, 0, 45, 1, 1, 1999, 2046
FILE, @SYS/threads.txt, 768, 64, /752\nOTG2          PRI= 60 sp=0x24075DD8 STACK=480/752\nUART6    
POWR, 185159883, 4.900855, 0, 1, 1, 6
MCU, 185159883, 39.60239, 3.348817, 3.339694, 3.356151
BAT, 185159897, 0, 15.50062, 15.5361, 0.2316052, 9.71359, 0.1514697, 0, 0.1532152, 99, 1, 0
MAG, 185159909, 0, 715, 985, 371, -382, 367, 647, 0, 0, 0, 1, 185159908
MAG, 185159909, 1, 36, 470, 172, 59, 22, -40, 0, 0, 0, 1, 185159907
SURF, 185159933, 0, 2, 0, 0, 0.192257
SURF, 185159941, 1, 2, 0, 0, 0.192257
BARO, 185159961, 0, 0.08532715, 0.08532715, 93545.66, 39.98, 0.4741668, 185159, 0, 35, 1
CTUN, 185159974, 0, 0, 0, 0.431117, 0, 0.1175747, 0.08, NaN, 0, -43.93887, 0, 11
ATT, 185160033, -0.0002162052, 0.3146031, -0.0002713049, 1.776074, 243.5303, 243.5303, 3
ANG, 185159479, -0.0002162052, 0.3146031, -0.0002713049, 1.776074, 243.5303, 243.5303, 0.002494
RATE, 185159491, -1.41461, 0.0349107, -0.00340773, -7.991724, 0.1147637, -0.01893859, 0.02204582, 0.08234067, -2.734847E-05, 60.81333, 1.839352, 0, 0
PIDR, 185160050, -0.02466203, 0.0006093066, -0.02527133, -0.00341163, 0, 3.899865E-06, 0, 0, 1, 0.03570112, 9
PIDP, 185160054, -0.1393737, 0.002003005, -0.1413767, -0.01908585, 0, 0.0001472599, 0, 0, 1, 0.08542466, 9
PIDY, 185160058, 0.0003842213, 0.001437116, -0.0001519359, -2.734847E-05, 0, 0, 0, 0, 1, 0.002935792, 9
PIDA, 185160062, 60.81333, 60.81333, 0, 0, -431.1205, 0, 0, 0, 1, 811.6853, 13
XKF4, 185159621, 0, 0, 0.01, 0, 0.7, 0, 0.008237465, 0, 0, 0, 50, 67751, 135, 0
XKF1, 185159621, 0, 0.31, 1.77, 243.53, 0.3752967, -0.04211519, -0.1160376, -0.1330507, 0, 0, -0.1175747, 0.09, 0.11, -0.06, 0
XKF2, 185159621, 0, 0, 0.38, -0.02, 0, 0, 156, -2, 333, 0, 0, 0, 0, 0, 0
XKF3, 185159621, 0, 0, 0, 0, 0.72, -0.09, -0.04, 0, 0, 0, -60.48, 0, 0, 5.361747E-05
XKF5, 185159621, 0, 0, 0, 0, 0, 0.19, 0.04, 0, 0, 0.5, 0.00235419, 0.02001609, 0.06599602
XKFS, 185159621, 0, 0, 0, 0, 0, 0, 0, 0, 1
XKQ, 185159621, 0, -0.526337, -0.01462214, -0.00582508, 0.8501304
XKF4, 185159621, 1, 0, 0, 0, 0.69, 0, 0.008252136, 0, 0, 0, 50, 67751, 135, 0
XKF1, 185159621, 1, 0.38, 1.48, 244.45, 0.1170736, -0.06643749, -0.1635063, -0.1869461, 0, 0, -0.158143, 0.06, 0.05, -0.03, 0
XKF2, 185159621, 1, 0, 0.43, 0.02, 0, 0, 156, -2, 333, 0, 0, 0, 0, 0, 0
XKF3, 185159621, 1, 0, 0, 0, 0.24, -0.11, -0.11, 0, 0, 0, -59.5, 0, 0.00280942, 2.99416E-05
XKFS, 185159621, 1, 0, 0, 0, 0, 0, 0, 0, 1
XKQ, 185159621, 1, -0.5332026, -0.0127814, -0.004070619, 0.8458812
AHR2, 185160182, -1.49, 2.3, 281.72, 0.09, 15.3694412, 75.1236016, 0.7755867, 0.002587175, 0.02385714, -0.6307847
POS, 185160187, 15.3694407, 75.1236009, 603.14, 0.08532715, 0.1175747
MOTB, 185160191, 1, 1, 1, 0.0431117, 0, 2
RCIN, 185160197, 1495, 1495, 982, 1495, 982, 982, 1495, 1495, 1495, 982, 982, 982, 1495, 1495
RCI2, 185160201, 1495, 1495, 0, 1
RCOU, 185160207, 1000, 1000, 1000, 1000, 0, 0, 0, 0, 982, 0, 0, 0, 0, 0
RCO2, 185160211, 0, 0, 0, 0
VIBE, 185160215, 0, 0.01550786, 0.01282173, 0.01076089, 0
VIBE, 185160215, 1, 0.06650925, 0.06309344, 0.07362395, 0
CTRL, 185160224, 0.003316208, 0.0001683175, 0.01874978, 0.0003565482, 6.38968E-05
DCM, 185162074, -1.487508, 2.310246, 281.7309, 0.1719646, 0.4024478, 0, 0, 0
EAHR, 185162093, 0, 0, 0, 0, 0, 0, 0, 0, 0, 0
FILE, @SYS/threads.txt, 832, 64,      PRI=181 sp=0x24074F58 STACK=336/752\nIOMCU         PRI=183 s
FILE, @SYS/threads.txt, 896, 64, p=0x2406AB30 STACK=904/1456\nlog_io        PRI= 59 sp=0x2406B2C0 
IMU, 185179877, 0, 0.002068787, 0.00327893, -0.0005569426, 0.2689275, 0.4332651, -9.844906, 0, 0, 44.80676, 1, 1, 2022, 2022
IMU, 185179877, 1, -0.0007871065, 0.002559841, -0.001464016, 0.27135, 0.3960943, -9.772517, 0, 0, 45, 1, 1, 1999, 2046
FILE, @SYS/threads.txt, 960, 64, STACK=712/2016\nI2C1          PRI=176 sp=0x2406BBD0 STACK=984/145
FILE, @SYS/threads.txt, 1024, 64, 6\nI2C0          PRI=176 sp=0x2406C4A0 STACK=984/1456\nSPI1       
FILE, @SYS/threads.txt, 1088, 64,    PRI=181 sp=0x24070FE8 STACK=832/1456\nFTP           PRI= 58 sp
SURF, 185209738, 0, 2, 0, 0, 0.1886102
SURF, 185209852, 1, 2, 0, 0, 0.1886102
IMU, 185220352, 0, 0.002539356, 0.004624392, -0.001464982, 0.2542963, 0.4422616, -9.849591, 0, 0, 44.32367, 1, 1, 2022, 2022
IMU, 185220352, 1, 0.001605449, 0.002062123, -0.001449884, 0.2516135, 0.4049335, -9.7898, 0, 0, 45, 1, 1, 1999, 2046
STAK, 185221416, 15, 181, 752, 336, UART6
FILE, @SYS/threads.txt, 1152, 28, =0x24074058 STACK=1368/2992\n
GPS, 185239998, 0, 3, 130589200, 2380, 6, 5.71, 15.369441, 75.1236017, 603.26, 0.275, 199.4806, -0.494, 0, 1
GPA, 185239998, 0, 7.6, 11.56, 13.26, 1.7, 0, 1, 185218, 200, 525.25, 0, 0
FILE, @SYS/timers.txt, 0, 64, TIMERV1\nTIM5  CLK= 200Mhz MODE=  PWM FREQ=       7 TGT=       8\n
FILE, @SYS/timers.txt, 64, 64, TIM4  CLK= 200Mhz MODE=  PWM FREQ=       7 TGT=       8\nTIM1  CL
POWR, 185259927, 4.909012, 0, 1, 1, 6
MCU, 185259927, 39.60239, 3.349098, 3.341374, 3.355303
BAT, 185259941, 0, 15.51453, 15.55107, 0.2389287, 9.72023, 0.1515727, 0, 0.1529128, 99, 1, 0
MAG, 185259952, 0, 750, 988, 386, -382, 367, 647, 0, 0, 0, 1, 185259951
MAG, 185259952, 1, 36, 471, 174, 59, 22, -40, 0, 0, 0, 1, 185259949
SURF, 185259970, 0, 2, 0, 0, 0.1854412
SURF, 185259981, 1, 2, 0, 0, 0.1854412
BARO, 185260006, 0, -0.03820801, -0.03820801, 93547.07, 39.98, 0.08800505, 185259, 0, 35, 1
CTUN, 185260019, 0, 0, 0, 0.431117, 0, 0.1298986, -0.03, NaN, 0, -43.8218, 0, 11
DU32, 185260035, 7, 6349272
TERR, 185260064, 2, 15.369441, 75.1236017, 100, 647.0818, -43.8218, 0, 336, 0
ATT, 185260109, -0.0002162053, 0.3197735, -0.0002713048, 1.784849, 243.6019, 243.6019, 3
ANG, 185259491, -0.0002162053, 0.3197735, -0.0002713048, 1.784849, 243.6019, 243.6019, 0.002507
RATE, 185259504, -1.437845, 0.05756363, -0.003568671, -8.031105, 0.03945204, -0.01892126, 0.02253852, 0.009318425, 3.224927E-05, 60.81333, 1.435566, 0, 0
PIDR, 185260125, -0.02504169, 0.001004675, -0.02604637, -0.00351626, 0, -5.241085E-05, 0, 0, 1, 0.03379602, 9
PIDP, 185260129, -0.1401207, 0.000688568, -0.1408093, -0.01900925, 0, 8.798698E-05, 0, 0, 1, 0.08924188, 9
PIDY, 185260133, 0.0003910963, 0.0001626372, 0.0001791626, 3.224927E-05, 0, 0, 0, 0, 1, 0.00265605, 9
PIDA, 185260137, 60.81333, 60.81333, 0, 0, -431.1205, 0, 0, 0, 1, 811.6853, 13
XKF4, 185259595, 0, 0, 0.01, 0, 0.72, 0, 0.008314886, 0, 0, 0, 50, 67751, 135, 0
XKF1, 185259595, 0, 0.31, 1.78, 243.6, 0.3878949, -0.04220089, -0.1174812, -0.1321457, 0, 0, -0.1298986, 0.09, 0.11, -0.07, 0
XKF2, 185259595, 0, 0, 0.38, -0.02, 0, 0, 156, -2, 333, 0, 0, 0, 0, 0, 0
XKF3, 185259595, 0, 0, 0, 0, 0.76, -0.09, -0.06, 0, 0, 0, -62.1, 0, 0, 5.941518E-05
XKF5, 185259595, 0, 0, 0, 0, 0, 0.2, 0.04, 0, 0, 0.5, 0.002355856, 0.01917553, 0.06317566
FMT, 253, 35, IOMC, QHHIIIII, TimeUS,RSErr,Mem,TS,NPkt,Nerr,Nerr2,NDel
IOMC, 185260181, 0, 12896, 185200, 76506, 0, 0, 0
XKFS, 185259595, 0, 0, 0, 0, 0, 0, 0, 0, 1
XKQ, 185259595, 0, -0.5268667, -0.01470735, -0.005836227, 0.8498006
XKF4, 185259595, 1, 0, 0, 0, 0.71, 0, 0.008329569, 0, 0, 0, 50, 67751, 135, 0
XKF1, 185259595, 1, 0.38, 1.49, 244.52, 0.1211336, -0.06676023, -0.1640728, -0.1838485, 0, 0, -0.1755219, 0.06, 0.05, -0.03, 0
XKF2, 185259595, 1, 0, 0.43, 0.02, 0, 0, 156, -2, 333, 0, 0, 0, 0, 0, 0
XKF3, 185259595, 1, 0, 0, 0, 0.25, -0.11, -0.13, 0, 0, 0, -61.11, 0, 0.00280942, 4.215726E-05
XKFS, 185259595, 1, 0, 0, 0, 0, 0, 0, 0, 1
XKQ, 185259595, 1, -0.5336838, -0.01286449, -0.004138366, 0.8455762
AHR2, 185260300, -1.22, 2.39, 281.99, 0.08, 15.3694411, 75.123602, 0.7770646, 0.004838193, 0.0229467, -0.6289839
POS, 185260305, 15.369441, 75.1236017, 603.26, -0.03820801, 0.1298986
MOTB, 185260317, 1, 1, 1, 0.0431117, 0, 2
RCIN, 185260323, 1495, 1495, 982, 1495, 982, 982, 1495, 1495, 1495, 982, 982, 982, 1495, 1495
RCI2, 185260327, 1495, 1495, 0, 1
RCOU, 185260333, 1000, 1000, 1000, 1000, 0, 0, 0, 0, 982, 0, 0, 0, 0, 0
RCO2, 185260337, 0, 0, 0, 0
VIBE, 185260341, 0, 0.01187604, 0.01103153, 0.01032264, 0
VIBE, 185260341, 1, 0.0675888, 0.06263038, 0.07427271, 0
CTRL, 185260350, 0.003363946, 0.0001429569, 0.01885669, 0.0003038197, 5.596975E-05
IMU, 185260360, 0, 0.002698098, 0.002713758, -0.001066727, 0.2641485, 0.4331167, -9.844968, 0, 0, 44.80676, 1, 1, 2022, 2022
IMU, 185260360, 1, 0.0008775308, 0.002992504, -0.001412391, 0.2543826, 0.4150036, -9.768721, 0, 0, 45, 1, 1, 1999, 2046
PM, 185260378, 400, 0, 4000, 2530, 588720, 214, 0, 0, 0, 2156397, 106713, 547620, 0, 1755519371241535
UART, 185260528, 1, 1838, 216
UART, 185260532, 2, 21, 0
UART, 185260536, 3, 0, 654
UART, 185260540, 100, 8372, 5128
DCM, 185262084, -1.225743, 2.391605, 282.0024, 0.1525532, 0.4057832, 0, 0, 0
EAHR, 185262107, 0, 0, 0, 0, 0, 0, 0, 0, 0, 0
FILE, @SYS/timers.txt, 128, 48, K= 200Mhz MODE=  PWM FREQ=       7 TGT=       8\n
FILE, @ROMFS/hwdef.dat, 0, 64, MCU STM32H7xx STM32H743xx\nOSCILLATOR_HZ 16000000\nSTM32_ST_USE_TI
IMU, 185299895, 0, 0.003264314, 0.003865462, -0.0008153854, 0.2639451, 0.4347723, -9.849386, 0, 0, 44.80676, 1, 1, 2022, 2022
IMU, 185299895, 1, 0.001296488, 0.001861884, -0.0008111215, 0.2533095, 0.4087652, -9.796965, 0, 0, 45, 1, 1, 1999, 2046
FILE, @ROMFS/hwdef.dat, 64, 64, MER 2\nUSB_VENDOR 0x3162\nUSB_PRODUCT 0x0053\nUSB_STRING_MANUFACTUR
SURF, 185309905, 0, 2, 0, 0, 0.182729
SURF, 185309915, 1, 2, 0, 0, 0.182729
FILE, @ROMFS/hwdef.dat, 128, 64, ER "Holybro"\nAPJ_BOARD_ID 56\nFLASH_RESERVE_START_KB 128\nenv USE_
STAK, 185322451, 16, 183, 1456, 644, IOMCU
FILE, @ROMFS/hwdef.dat, 192, 64, ALT_RAM_MAP 1\nFLASH_SIZE_KB 2048\nenv OPTIMIZE -O2\nSERIAL_ORDER O
FILE, @ROMFS/hwdef.dat, 256, 64, TG1 UART7 UART5 USART1 UART8 USART2 USART3 OTG2\nPA11 OTG_FS_DM O
IMU, 185339927, 0, 0.003694274, 0.002769665, -0.001266415, 0.2651236, 0.4449333, -9.847254, 0, 0, 44.32367, 1, 1, 2022, 2022
IMU, 185339927, 1, 0.002397578, 0.002024397, -0.0005023686, 0.2657706, 0.4062421, -9.797171, 0, 0, 45, 1, 1, 1999, 2046
FILE, @ROMFS/hwdef.dat, 320, 64, TG1\nPA12 OTG_FS_DP OTG1\nPA9 VBUS INPUT OPENDRAIN\nPA13 JTMS-SWDIO
FILE, @ROMFS/hwdef.dat, 384, 64,  SWD\nPA14 JTCK-SWCLK SWD\nPE8  UART7_TX UART7\nPE7  UART7_RX UART7
POWR, 185359877, 4.914954, 0, 1, 1, 6
MCU, 185359877, 39.5825, 3.348817, 3.341094, 3.356717
BAT, 185359891, 0, 15.50748, 15.54503, 0.2455199, 9.727047, 0.1516784, 0, 0.1529128, 99, 1, 0
MAG, 185359902, 0, 768, 998, 394, -382, 367, 647, 0, 0, 0, 1, 185359901
MAG, 185359902, 1, 36, 470, 175, 59, 22, -40, 0, 0, 0, 1, 185359900
SURF, 185359921, 0, 2, 0, 0, 0.1804401
SURF, 185359929, 1, 2, 0, 0, 0.1804401
BARO, 185359963, 0, 0.09997559, 0.09997559, 93545.48, 39.98, -0.3466415, 185359, 0, 35, 1
CTUN, 185359989, 0, 0, 0, 0.431117, 0, 0.1416046, 0.09, NaN, 0, -43.8218, 0, 11
ATT, 185360065, -0.0002162052, 0.3296573, -0.0002713047, 1.789182, 243.6742, 243.6742, 3
ANG, 185359478, -0.0002162052, 0.3296573, -0.0002713047, 1.789182, 243.6742, 243.6742, 0.00249
RATE, 185359490, -1.482308, 0.1004677, -0.003683774, -8.050616, -0.04678787, -0.01856329, 0.02327591, 0.01674182, 2.742118E-05, 60.81333, 1.690578, 0, 0
PIDR, 185360083, -0.02580911, 0.001753492, -0.0275626, -0.003720951, 0, 3.717752E-05, 0, 0, 1, 0.03112005, 9
PIDP, 185360087, -0.1405573, -0.0008166024, -0.1397408, -0.018865, 0, 0.0003017092, 0, 0, 1, 0.09206405, 9
PIDY, 185360090, 0.000405123, 0.0002921999, 0.0001523399, 2.742118E-05, 0, 0, 0, 0, 1, 0.002403024, 9
PIDA, 185360094, 60.81333, 60.81333, 0, 0, -431.1205, 0, 0, 0, 1, 811.6853, 13
XKF4, 185359614, 0, 0, 0.01, 0, 0.73, 0, 0.00839202, 0, 0, 0, 50, 67751, 135, 0
XKF1, 185359614, 0, 0.32, 1.78, 243.67, 0.4008543, -0.04244406, -0.1188503, -0.124818, 0, 0, -0.1416046, 0.09, 0.11, -0.07, 0
XKF2, 185359614, 0, 0, 0.38, -0.02, 0, 0, 156, -2, 333, 0, 0, 0, 0, 0, 0
XKF3, 185359614, 0, 0, 0, 0, 0.8, -0.1, -0.19, 0, 0, 0, -63.3, 0, 0, 9.683923E-05
XKF5, 185359614, 0, 0, 0, 0, 0, 0.21, 0.04, 0, 0, 0.5, 0.002356986, 0.01831547, 0.05916888
XKFS, 185359614, 0, 0, 0, 0, 0, 0, 0, 0, 1
XKQ, 185359614, 0, -0.527401, -0.01478127, -0.005792181, 0.8494682
XKV1, 185359614, 0, 0.0001195761, 8.942439E-06, 8.629148E-06, 3.718077E-05, 0.07977571, 0.137738, 0.02261571, 0.3343996, 0.3774981, 0.3098423, 4.412209E-11, 4.901553E-11
XKV2, 185359614, 0, 9.063175E-11, 6.19105E-06, 4.114095E-07, 6.195832E-08, 0, 0, 0, 0, 0, 0, 0, 0
XKF4, 185359614, 1, 0, 0, 0.01, 0.72, 0, 0.008406976, 0, 0, 0, 50, 67751, 135, 0
XKF1, 185359614, 1, 0.39, 1.5, 244.59, 0.1253145, -0.06753297, -0.1656043, -0.1750056, 0, 0, -0.1922269, 0.06, 0.05, -0.03, 0
XKF2, 185359614, 1, 0, 0.43, 0.02, 0, 0, 156, -2, 333, 0, 0, 0, 0, 0, 0
XKF3, 185359614, 1, 0, 0, 0, 0.27, -0.12, -0.26, 0, 0, 0, -62.32, 0, 0.00499407, 0.0001777522
XKFS, 185359614, 1, 0, 0, 0, 0, 0, 0, 0, 1
XKQ, 185359614, 1, -0.5341938, -0.01292112, -0.004136727, 0.8452532
AHR2, 185360175, -1.27, 2.34, 282.26, -0.03, 15.3694413, 75.1236022, 0.7785295, 0.004163598, 0.02295267, -0.6271743
POS, 185360180, 15.369441, 75.1236017, 603.26, 0.09997559, 0.1416046
MOTB, 185360184, 1, 1, 1, 0.0431117, 0, 2
RCIN, 185360190, 1495, 1495, 982, 1495, 982, 982, 1495, 1495, 1495, 982, 982, 982, 1495, 1495
RCI2, 185360194, 1495, 1495, 0, 1
RCOU, 185360200, 1000, 1000, 1000, 1000, 0, 0, 0, 0, 982, 0, 0, 0, 0, 0
RCO2, 185360204, 0, 0, 0, 0
VIBE, 185360208, 0, 0.009109745, 0.01088328, 0.009597195, 0
VIBE, 185360208, 1, 0.06553875, 0.06284232, 0.0729939, 0
CTRL, 185360216, 0.003463902, 0.000132904, 0.01892434, 0.0002620186, 4.729541E-05
DCM, 185362094, -1.280998, 2.345898, 282.2693, 0.1525532, 0.408681, 0, 0, 0
EAHR, 185362131, 0, 0, 0, 0, 0, 0, 0, 0, 0, 0
FILE, @ROMFS/hwdef.dat, 448, 64, \nPE9  UART7_RTS UART7 LOW PULLDOWN\nPE10 UART7_CTS UART7\nPC12 UAR
IMU, 185379939, 0, 0.004162896, 0.00143892, -0.001456258, 0.2694805, 0.4323005, -9.850554, 0, 0, 44.80676, 1, 1, 2022, 2022
IMU, 185379939, 1, 0.0008300123, -0.0008058978, -0.0001805403, 0.2627454, 0.4025142, -9.803333, 0, 0, 45, 1, 1, 1999, 2046
FILE, @ROMFS/hwdef.dat, 512, 64, T5_TX UART5\nPD2 UART5_RX UART5\nPC8 UART5_RTS UART5 LOW PULLDOWN\n
FILE, @ROMFS/hwdef.dat, 576, 64, PC9 UART5_CTS UART5\nPB6  USART1_TX USART1\nPA10 USART1_RX USART1\n
FILE, @ROMFS/hwdef.dat, 640, 64, PE1 UART8_TX UART8\nPE0 UART8_RX UART8\nPD5 USART2_TX USART2\nPA3 U
SURF, 185409811, 0, 2, 0, 0, 0.1785438
SURF, 185409822, 1, 2, 0, 0, 0.1785438
FILE, @ROMFS/hwdef.dat, 704, 64, SART2_RX USART2\nPD8 USART3_TX USART3\nPD9 USART3_RX USART3\nPC6 US
IMU, 185420345, 0, 0.003542547, 0.003519634, -0.001231291, 0.2583766, 0.4370778, -9.847907, 0, 0, 44.80676, 1, 1, 2022, 2022
IMU, 185420345, 1, 0.002743132, 0.002513661, -0.0008020996, 0.2547354, 0.4098518, -9.80521, 0, 0, 45, 1, 1, 1999, 2046
STAK, 185422557, 17, 59, 2016, 712, log_io
FILE, @ROMFS/hwdef.dat, 768, 64, ART6_TX USART6\nPC7 USART6_RX USART6\nIOMCU_UART USART6\nPC5 BATT_V
GPS, 185440012, 0, 3, 130589400, 2380, 6, 5.71, 15.3694392, 75.1236014, 603.4, 0.974, 200.4143, -0.102, 0, 1
GPA, 185440012, 0, 7.6, 11.57, 13.29, 2.29, 0, 1, 185418, 200, 525.39, 0, 0
FILE, @ROMFS/hwdef.dat, 832, 64, OLTAGE_SENS ADC1 SCALE(1)\nPC4 BATT_CURRENT_SENS ADC1 SCALE(1)\nPB
FILE, @ROMFS/hwdef.dat, 896, 64, 1 BATT2_VOLTAGE_SENS ADC1 SCALE(1)\nPA2 BATT2_CURRENT_SENS ADC1 S
POWR, 185459870, 4.919888, 0, 1, 1, 6
MCU, 185459870, 39.60239, 3.348817, 3.342075, 3.355727
BAT, 185459883, 0, 15.50629, 15.54221, 0.2349008, 9.733572, 0.1517796, 0, 0.1529128, 99, 1, 0
MAG, 185459894, 0, 768, 1003, 384, -382, 367, 647, 0, 0, 0, 1, 185459893
MAG, 185459894, 1, 34, 471, 173, 59, 22, -40, 0, 0, 0, 1, 185459892
SURF, 185459913, 0, 2, 0, 0, 0.1770299
SURF, 185459926, 1, 2, 0, 0, 0.1770299
BARO, 185459946, 0, 0.05883789, 0.05883789, 93545.98, 39.98, -0.3401375, 185459, 0, 35, 1
CTUN, 185459961, 0, 0, 0, 0.431117, 0, 0.153496, 0.05, NaN, 0, -43.66984, 0, 12
ATT, 185460016, -0.0002162052, 0.3428378, -0.0002713048, 1.791387, 243.7468, 243.7468, 3
ANG, 185459479, -0.0002162052, 0.3428378, -0.0002713048, 1.791387, 243.7468, 243.7468, 0.002492
RATE, 185459491, -1.541617, 0.1290145, -0.004069421, -8.060622, -0.008570546, -0.01894497, 0.02413557, 0.001016811, 7.079361E-06, 60.81333, 1.32513, 0, 0
PIDR, 185460032, -0.02678386, 0.002251728, -0.02903559, -0.003919804, 0, -0.0001496161, 0, 0, 1, 0.02815503, 9
PIDP, 185460036, -0.1406745, -0.0001495843, -0.1405249, -0.01897086, 0, 2.588585E-05, 0, 0, 1, 0.09133592, 9
PIDY, 185460040, 0.0004210846, 1.77467E-05, 3.932978E-05, 7.079361E-06, 0, 0, 0, 0, 1, 0.002174071, 9
PIDA, 185460044, 60.81333, 60.81333, 0, 0, -431.1205, 0, 0, 0, 1, 811.6853, 13
XKF4, 185459622, 0, 0, 0.01, 0, 0.73, 0, 0.008468996, 0, 0, 0, 50, 67751, 135, 0
XKF1, 185459622, 0, 0.34, 1.79, 243.74, 0.413645, -0.04229557, -0.1201015, -0.1193425, 0, 0, -0.153496, 0.09, 0.11, -0.07, 0
XKF2, 185459622, 0, 0, 0.38, -0.02, 0, 0, 156, -2, 333, 0, 0, 0, 0, 0, 0
XKF3, 185459622, 0, 0, 0, 0, 0.84, -0.1, -0.06, 0, 0, 0, -63.59, 0, 0, 7.250724E-05
XKF5, 185459622, 0, 0, 0, 0, 0, 0.22, 0.04, 0, 0, 0.5, 0.002359339, 0.01750509, 0.05672191
XKFS, 185459622, 0, 0, 0, 0, 0, 0, 0, 0, 1
XKQ, 185459622, 0, -0.5279374, -0.01485466, -0.00571404, 0.8491341
XKF4, 185459622, 1, 0, 0, 0, 0.72, 0, 0.008484321, 0, 0, 0, 50, 67751, 135, 0
XKF1, 185459622, 1, 0.39, 1.5, 244.66, 0.1296771, -0.06792907, -0.1670873, -0.1681637, 0, 0, -0.2088606, 0.06, 0.05, -0.03, 0
XKF2, 185459622, 1, 0, 0.43, 0.02, 0, 0, 156, -2, 333, 0, 0, 0, 0, 0, 0
XKF3, 185459622, 1, 0, 0, 0, 0.28, -0.12, -0.14, 0, 0, 0, -62.62, 0, 0.006045937, 5.007724E-05
XKFS, 185459622, 1, 0, 0, 0, 0, 0, 0, 0, 1
XKQ, 185459622, 1, -0.5347221, -0.01295529, -0.004115588, 0.8449186
AHR2, 185460160, -1.43, 2.26, 282.52, 0.09, 15.3694381, 75.123601, 0.7799883, 0.002609017, 0.02329181, -0.625355
POS, 185460165, 15.3694392, 75.1236014, 603.4, 0.05883789, 0.153496
MOTB, 185460170, 1, 1, 1, 0.0431117, 0, 2
RCIN, 185460176, 1495, 1495, 982, 1495, 982, 982, 1495, 1495, 1495, 982, 982, 982, 1495, 1495
RCI2, 185460180, 1495, 1495, 0, 1
RCOU, 185460186, 1000, 1000, 1000, 1000, 0, 0, 0, 0, 982, 0, 0, 0, 0, 0
RCO2, 185460189, 0, 0, 0, 0
VIBE, 185460194, 0, 0.009424535, 0.01056475, 0.009788363, 0
VIBE, 185460194, 1, 0.06265491, 0.06566676, 0.08196229, 0
CTRL, 185460202, 0.003590824, 0.0001208975, 0.01894737, 0.000237723, 4.093369E-05
IMU, 185460212, 0, 0.0039438, 0.001866557, -0.001249112, 0.2600007, 0.4355464, -9.844126, 0, 0, 44.80676, 1, 1, 2022, 2022
IMU, 185460212, 1, 0.002068868, -0.0004850489, -0.0007240617, 0.2471339, 0.4105811, -9.796651, 0, 0, 45, 1, 1, 1999, 2046
DCM, 185462069, -1.456994, 2.262584, 282.5336, 0.246704, 0.409544, 0, 0, 0
EAHR, 185462093, 0, 0, 0, 0, 0, 0, 0, 0, 0, 0
FILE, @ROMFS/hwdef.dat, 960, 64, CALE(1)\ndefine HAL_BATT_VOLT_PIN 8\ndefine HAL_BATT_CURR_PIN 4\nde
FILE, @ROMFS/hwdef.dat, 1024, 64, fine HAL_BATT_VOLT_SCALE 18.18\ndefine HAL_BATT_CURR_SCALE 36.36\n
FILE, @ROMFS/hwdef.dat, 1088, 64, PA4 VDD_5V_SENS  ADC1 SCALE(2)\nPA5 SPI1_SCK SPI1\nPA6 SPI1_MISO S
IMU, 185499947, 0, 0.004326115, -0.001238708, -0.001465133, 0.2590193, 0.4303615, -9.839685, 0, 0, 44.80676, 1, 1, 2022, 2022
IMU, 185499947, 1, 0.003141262, -0.002044584, -0.0005514149, 0.2561477, 0.4017337, -9.800572, 0, 0, 45, 1, 1, 1999, 2046
FILE, @ROMFS/hwdef.dat, 1152, 64, PI1\nPA7 SPI1_MOSI SPI1\nPC13 ICM42688_CS CS\nPC14 BMI055_G_CS CS\nP
SURF, 185509835, 0, 2, 0, 0, 0.1758807
SURF, 185509845, 1, 2, 0, 0, 0.1758807
FILE, @ROMFS/hwdef.dat, 1216, 64, C15 BMI055_A_CS CS\nPE4  BMI055_DRDY_A INPUT\nPE5  BMI055_DRDY_G I
FILE, @ROMFS/hwdef.dat, 1280, 64, NPUT\nPE6  ICM42688_DRDY INPUT\nPD3 SPI2_SCK SPI2\nPC2 SPI2_MISO SP
STAK, 185523511, 18, 176, 1456, 984, I2C1
FILE, @ROMFS/hwdef.dat, 1344, 64, I2\nPC3 SPI2_MOSI SPI2\nPD4 FRAM_CS CS\nPA8  TIM1_CH1 TIM1 PWM(1) G
IMU, 185539910, 0, 0.005155236, 4.350087E-05, -0.0001136986, 0.2471241, 0.4404985, -9.846104, 0, 0, 44.32367, 1, 1, 2022, 2022
IMU, 185539910, 1, 0.003017729, -0.001907637, -0.000109221, 0.2501515, 0.4033257, -9.805297, 0, 0, 44.5, 1, 1, 1999, 2046
FILE, @ROMFS/hwdef.dat, 1408, 64, PIO(50)\nPE11 TIM1_CH2 TIM1 PWM(2) GPIO(51)\nPE13 TIM1_CH3 TIM1 PW
FILE, @ROMFS/hwdef.dat, 1472, 64, M(3) GPIO(52)\nPE14 TIM1_CH4 TIM1 PWM(4) GPIO(53)\nPD14 TIM4_CH3 T
POWR, 185559813, 4.919687, 0, 1, 1, 6
MCU, 185559813, 39.5825, 3.348817, 3.341094, 3.354315
BAT, 185559826, 0, 15.48936, 15.52466, 0.2308729, 9.739982, 0.1518789, 0, 0.1529128, 99, 1, 0
MAG, 185559888, 0, 762, 1003, 379, -382, 367, 647, 0, 0, 0, 1, 185559874
MAG, 185559888, 1, 33, 471, 169, 59, 22, -40, 0, 0, 0, 1, 185559873
SURF, 185559911, 0, 2, 0, 0, 0.1750783
SURF, 185559922, 1, 2, 0, 0, 0.1750783
BARO, 185559945, 0, 0.06762695, 0.06762695, 93545.86, 39.98, -0.05340576, 185559, 0, 35, 1
CTUN, 185559959, 0, 0, 0, 0.431117, 0, 0.1653273, 0.06, NaN, 0, -43.66984, 0, 12
ATT, 185560012, -0.0002162053, 0.3613423, -0.0002713049, 1.776423, 243.8209, 243.8209, 3
ANG, 185559479, -0.0002162053, 0.3613423, -0.0002713049, 1.776423, 243.8209, 243.8209, 0.0025
RATE, 185559492, -1.624882, 0.1985816, -0.004243441, -7.993351, -0.1922921, -0.01823048, 0.02536336, 0.06113782, -4.48173E-05, 60.81333, 1.453018, 0, 0
PIDR, 185560029, -0.0282282, 0.003465903, -0.0316941, -0.004278704, 0, 3.526206E-05, 0, 0, 1, 0.02682168, 9
PIDP, 185560033, -0.1395671, -0.00335613, -0.136211, -0.01838848, 0, 0.0001579993, 0, 0, 1, 0.08263382, 9
PIDY, 185560037, 0.0004394337, 0.001067056, -0.000248985, -4.48173E-05, 0, 0, 0, 0, 1, 0.002007136, 9
PIDA, 185560043, 60.81333, 60.81333, 0, 0, -431.1205, 0, 0, 0, 1, 811.6853, 13
XKF4, 185559580, 0, 0, 0.01, 0, 0.73, 0, 0.008546112, 0, 0, 0, 50, 67751, 135, 0
XKF1, 185559580, 0, 0.36, 1.77, 243.82, 0.4269175, -0.04197866, -0.1212666, -0.1180456, 0, 0, -0.1653273, 0.09, 0.11, -0.07, 0
XKF2, 185559580, 0, 0, 0.38, -0.02, 0, 0, 156, -2, 333, 0, 0, 0, 0, 0, 0
XKF3, 185559580, 0, 0, 0, 0, 0.88, -0.1, -0.12, 0, 0, 0, -63.37, 0, 0, 7.982527E-05
XKF5, 185559580, 0, 0, 0, 0, 0, 0.23, 0.04, 0, 0, 0.5, 0.002361585, 0.01670487, 0.05376823
XKFS, 185559580, 0, 0, 0, 0, 0, 0, 0, 0, 1
XKQ, 185559580, 0, -0.5284857, -0.01482547, -0.005517563, 0.8487948
XKF4, 185559580, 1, 0, 0, 0, 0.72, 0, 0.008561341, 0, 0, 0, 50, 67751, 135, 0
