FMT, 128, 89, FMT, BBnNZ, Type,Length,Name,Format,Columns
FMT, 119, 76, UNIT, QbZ, TimeUS,Id,Label
FMT, 118, 44, FMTU, QBNN, TimeUS,FmtType,UnitIds,MultIds
FMT, 120, 20, MULT, Qbd, TimeUS,Id,Mult
FMT, 32, 35, PARM, QNff, TimeUS,Name,Value,Default
FMT, 94, 51, GPS, QBBIHBcLLeffffB, TimeUS,I,Status,GMS,GWk,NSats,HDop,Lat,Lng,Alt,Spd,GCrs,VZ,Yaw,U
FMT, 95, 39, GPA, QBCCCCfBIHeHH, TimeUS,I,VDop,HAcc,VAcc,SAcc,YAcc,VV,SMS,Delta,AEl,RTCMFU,RTCMFD
FMT, 99, 22, UBX1, QBHBBHI, TimeUS,Instance,noisePerMS,jamInd,aPower,agcCnt,config
FMT, 100, 16, UBX2, QBbBbB, TimeUS,Instance,ofsI,magI,ofsQ,magQ
FMT, 96, 42, GRAW, QIHBBddfBbB, TimeUS,WkMS,Week,numSV,sv,cpMes,prMes,doMes,mesQI,cno,lli
FMT, 97, 24, GRXH, QdHbBB, TimeUS,rcvTime,week,leapS,numMeas,recStat
FMT, 98, 41, GRXS, QddfBBBHBBBBB, TimeUS,prMes,cpMes,doMes,gnss,sv,freq,lock,cno,prD,cpD,doD,trk
FMT, 101, 23, SBPH, QIII, TimeUS,CrcError,LastInject,IARhyp
FMT, 102, 67, SBRH, QQQQQQQQ, TimeUS,msg_flag,1,2,3,4,5,6
FMT, 103, 123, SBRM, QQQQQQQQQQQQQQQ, TimeUS,msg_flag,1,2,3,4,5,6,7,8,9,10,11,12,13
FMT, 104, 23, SBRE, QHIiBB, TimeUS,GWk,GMS,ns_residual,level,quality
FMT, 59, 75, MSG, QZ, TimeUS,Message
FMT, 60, 39, RCIN, QHHHHHHHHHHHHHH, TimeUS,C1,C2,C3,C4,C5,C6,C7,C8,C9,C10,C11,C12,C13,C14
FMT, 61, 18, RCI2, QHHHB, TimeUS,C15,C16,OMask,Flags
FMT, 62, 39, RCOU, QHHHHHHHHHHHHHH, TimeUS,C1,C2,C3,C4,C5,C6,C7,C8,C9,C10,C11,C12,C13,C14
FMT, 207, 19, RCO2, QHHHH, TimeUS,C15,C16,C17,C18
FMT, 208, 39, RCO3, QHHHHHHHHHHHHHH, TimeUS,C19,C20,C21,C22,C23,C24,C25,C26,C27,C28,C29,C30,C31,C32
FMT, 63, 19, RSSI, Qff, TimeUS,RXRSSI,RXLQ
FMT, 64, 43, BARO, QBfffcfIffB, TimeUS,I,Alt,AltAMSL,Press,Temp,CRt,SMS,Offset,GndTemp,Health
FMT, 65, 24, BARD, QBfff, TimeUS,I,DynPrX,DynPrY,DynPrZ
FMT, 66, 25, CANF, QBIBBBBBBBBB, TimeUS,Bus,Id,DLC,B0,B1,B2,B3,B4,B5,B6,B7
FMT, 67, 81, CAFD, QBIBQQQQQQQQ, TimeUS,Bus,Id,DLC,D0,D1,D2,D3,D4,D5,D6,D7
FMT, 196, 50, PL, QBBfffffffIIB, TimeUS,Heal,TAcq,pX,pY,vX,vY,mX,mY,mZ,LastMeasMS,EKFOutl,Est
FMT, 68, 24, POWR, QffHHB, TimeUS,Vcc,VServo,Flags,AccFlags,Safety
FMT, 69, 27, MCU, Qffff, TimeUS,MTemp,MVolt,MVmin,MVmax
FMT, 93, 46, CMD, QHHHffffLLfB, TimeUS,CTot,CNum,CId,Prm1,Prm2,Prm3,Prm4,Lat,Lng,Alt,Frame
FMT, 92, 46, MISE, QHHHffffLLfB, TimeUS,CTot,CNum,CId,Prm1,Prm2,Prm3,Prm4,Lat,Lng,Alt,Frame
FMT, 78, 48, MAVC, QBBBBBHffffiifBB, TimeUS,TS,TC,SS,SC,Fr,Cmd,P1,P2,P3,P4,X,Y,Z,Res,WL
FMT, 79, 20, RAD, QBBBBBHH, TimeUS,RSSI,RemRSSI,TxBuf,Noise,RemNoise,RxErrors,Fixed
FMT, 81, 46, CAM, QBHIHLLeeeccC, TimeUS,I,Img,GPSTime,GPSWeek,Lat,Lng,Alt,RelAlt,GPSAlt,R,P,Y
FMT, 82, 46, TRIG, QBHIHLLeeeccC, TimeUS,I,Img,GPSTime,GPSWeek,Lat,Lng,Alt,RelAlt,GPSAlt,R,P,Y
FMT, 83, 48, MNT, QBfffffffff, TimeUS,I,DRoll,Roll,DPitch,Pitch,DYawB,YawB,DYawE,YawE,Dist
FMT, 114, 41, ARSP, QBffcffBBffB, TimeUS,I,Airspeed,DiffPress,Temp,RawPress,Offset,U,H,Hp,TR,Pri
FMT, 88, 41, BAT, QBfffffcfBBB, TimeUS,Inst,Volt,VoltR,Curr,CurrTot,EnrgTot,Temp,Res,RemPct,H,SH
FMT, 89, 40, BCL, QBfHHHHHHHHHHHH, TimeUS,Instance,Volt,V1,V2,V3,V4,V5,V6,V7,V8,V9,V10,V11,V12
FMT, 113, 35, MAG, QBhhhhhhhhhBI, TimeUS,I,MagX,MagY,MagZ,OfsX,OfsY,OfsZ,MOX,MOY,MOZ,Health,S
FMT, 122, 14, MODE, QMBB, TimeUS,Mode,ModeNum,Rsn
FMT, 116, 17, RFND, QBCBBb, TimeUS,Instance,Dist,Stat,Orient,Quality
FMT, 117, 36, DMS, QIIIIBBBBBBBBB, TimeUS,N,Dp,RT,RS,Fa,Fmn,Fmx,Pa,Pmn,Pmx,Sa,Smn,Smx
FMT, 174, 41, BCN, QBBfffffff, TimeUS,Health,Cnt,D0,D1,D2,D3,PosX,PosY,PosZ
FMT, 175, 57, PRX, QBBfffffffffff, TimeUS,Layer,He,D0,D45,D90,D135,D180,D225,D270,D315,DUp,CAn,CDis
FMT, 176, 44, PRXR, QBffffffff, TimeUS,Layer,D0,D45,D90,D135,D180,D225,D270,D315
FMT, 179, 61, PM, QHHHIIHHIIIIIIQ, TimeUS,LR,NLon,NL,MaxT,Mem,Load,ErrL,InE,ErC,SPIC,I2CC,I2CI,Ex,R
FMT, 178, 29, SRTL, QBHHBfff, TimeUS,Active,NumPts,MaxPts,Action,N,E,D
FMT, 170, 48, OABR, QBBHHHBfLLiLLi, TimeUS,Type,Act,DYaw,Yaw,DP,RChg,Mar,DLt,DLg,DAlt,OLt,OLg,OAlt
FMT, 171, 31, OADJ, QBBBBLLLL, TimeUS,State,Err,CurrPoint,TotPoints,DLat,DLng,OALat,OALng
FMT, 172, 37, SA, QBffffffB, TimeUS,State,DVelX,DVelY,DVelZ,MVelX,MVelY,MVelZ,Back
FMT, 173, 21, OAVG, QBBLL, TimeUS,version,point_num,Lat,Lon
FMT, 77, 45, SIM, QccCfLLffff, TimeUS,Roll,Pitch,Yaw,Alt,Lat,Lng,Q1,Q2,Q3,Q4
FMT, 84, 38, TERR, QBLLHffHHf, TimeUS,Status,Lat,Lng,Spacing,TerrH,CHeight,Pending,Loaded,ROfs
FMT, 86, 40, ESC, QBffffcfcf, TimeUS,Instance,RPM,RawRPM,Volt,Curr,Temp,CTot,MotTemp,Err
FMT, 87, 15, EDT2, QBBBB, TimeUS,Instance,Stress,MaxStress,Status
FMT, 85, 46, CSRV, QBfffBfffffB, TimeUS,Id,Pos,Force,Speed,Pow,PosCmd,V,A,MotT,PCBT,Err
FMT, 105, 52, PIDR, QffffffffffB, TimeUS,Tar,Act,Err,P,I,D,FF,DFF,Dmod,SRate,Flags
FMT, 106, 52, PIDP, QffffffffffB, TimeUS,Tar,Act,Err,P,I,D,FF,DFF,Dmod,SRate,Flags
FMT, 107, 52, PIDY, QffffffffffB, TimeUS,Tar,Act,Err,P,I,D,FF,DFF,Dmod,SRate,Flags
FMT, 108, 52, PIDA, QffffffffffB, TimeUS,Tar,Act,Err,P,I,D,FF,DFF,Dmod,SRate,Flags
FMT, 109, 52, PIDS, QffffffffffB, TimeUS,Tar,Act,Err,P,I,D,FF,DFF,Dmod,SRate,Flags
FMT, 110, 52, PIDN, QffffffffffB, TimeUS,Tar,Act,Err,P,I,D,FF,DFF,Dmod,SRate,Flags
FMT, 111, 52, PIDE, QffffffffffB, TimeUS,Tar,Act,Err,P,I,D,FF,DFF,Dmod,SRate,Flags
FMT, 112, 56, DSTL, QBfLLeccfeffff, TimeUS,Stg,THdg,Lat,Lng,Alt,XT,Travel,L1I,Loiter,Des,P,I,D
FMT, 161, 32, ACC, QBQfff, TimeUS,I,SampleUS,AccX,AccY,AccZ
FMT, 162, 32, GYR, QBQfff, TimeUS,I,SampleUS,GyrX,GyrY,GyrZ
FMT, 163, 54, IMU, QBffffffIIfBBHH, TimeUS,I,GyrX,GyrY,GyrZ,AccX,AccY,AccZ,EG,EA,T,GH,AH,GHz,AHz
FMT, 166, 28, VIBE, QBfffI, TimeUS,IMU,VibeX,VibeY,VibeZ,Clip
FMT, 164, 31, ISBH, QHBBHHQf, TimeUS,N,type,instance,mul,smp_cnt,SampleUS,smp_rate
FMT, 165, 207, ISBD, QHHaaa, TimeUS,N,seqno,x,y,z
FMT, 129, 15, RFRH, QI, TimeUS,TF
FMT, 130, 5, RFRF, BB, FTypes,Slow
FMT, 138, 38, RFRN, IIIfIfffBBB, HLat,HLon,HAlt,E2T,AM,TX,TY,TZ,VC,EKT,Flags
FMT, 131, 4, REV2, B, Event
FMT, 132, 15, RSO2, III, Lat,Lon,Alt
FMT, 133, 11, RWA2, ff, Airspeed,uncertainty
FMT, 134, 4, REV3, B, Event
FMT, 135, 15, RSO3, III, Lat,Lon,Alt
FMT, 136, 11, RWA3, ff, Airspeed,Uncertainty
FMT, 137, 16, REY3, ffIB, yawangle,yawangleerr,timestamp_ms,type
FMT, 139, 13, RISH, HBBfBB, LR,PG,PA,LD,AC,GC
FMT, 140, 37, RISI, ffffffffBB, DVX,DVY,DVZ,DAX,DAY,DAZ,DVDT,DADT,Flags,I
FMT, 148, 5, RASH, BB, Primary,NumInst
FMT, 149, 14, RASI, fIBBB, pd,UpdateMS,H,Use,I
FMT, 141, 5, RBRH, BB, Primary,NumInst
FMT, 142, 13, RBRI, IfBB, LastUpdate,Alt,H,I
FMT, 143, 8, RRNH, hhB, GCl,MaxD,NumSensors
FMT, 144, 20, RRNI, fffHBBB, PX,PY,PZ,Dist,Orient,Status,I
FMT, 145, 5, RGPH, BB, NumInst,Primary
FMT, 146, 23, RGPI, ffffBBBB, OX,OY,OZ,Lg,Flags,Stat,NSats,I
FMT, 147, 58, RGPJ, IffffffIiiiffHB, TS,VX,VY,VZ,SA,Y,YA,YT,Lat,Lon,Alt,HA,VA,HD,I
FMT, 153, 14, RMGH, fBBBBBBB, Dec,Avail,NumInst,AutoDec,NumEna,LOE,C,FUsable
FMT, 154, 35, RMGI, IffffffBBBB, LU,OX,OY,OZ,FX,FY,FZ,UFY,H,HSF,I
FMT, 150, 33, RBCH, ffffiiiBB, PX,PY,PZ,AE,OLat,OLng,OAlt,Flags,NumInst
FMT, 151, 25, RBCI, IffffBB, LU,PX,PY,PZ,Dist,H,I
FMT, 152, 21, RVOH, fffIBB, OX,OY,OZ,Del,H,Ena
FMT, 155, 40, ROFH, ffffIffffB, FX,FY,GX,GY,Tms,PX,PY,PZ,HgtOvr,Qual
FMT, 156, 49, REPH, fffffffffIIH, PX,PY,PZ,Q1,Q2,Q3,Q4,PEr,AEr,TS,RT,D
FMT, 157, 19, RSLL, IIfI, Lat,Lng,PosAccSD,TS
FMT, 158, 25, REVH, ffffIH, VX,VY,VZ,Er,TS,D
FMT, 159, 31, RWOH, ffIffff, DA,DT,TS,PX,PY,PZ,R
FMT, 160, 53, RBOH, ffffffffIfffH, Q,DPX,DPY,DPZ,DAX,DAY,DAZ,DT,TS,OX,OY,OZ,D
FMT, 43, 37, XKF0, QBBccCCcccccccc, TimeUS,C,ID,rng,innov,SIV,TR,BPN,BPE,BPD,OFH,OFL,OFN,OFE,OFD
FMT, 44, 56, XKF1, QBccCfffffffccce, TimeUS,C,Roll,Pitch,Yaw,VN,VE,VD,dPD,PN,PE,PD,GX,GY,GZ,OH
FMT, 45, 46, XKF2, QBccccchhhhhhfff, TimeUS,C,AX,AY,AZ,VWN,VWE,MN,ME,MD,MX,MY,MZ,IDX,IDY,IS
FMT, 46, 42, XKF3, QBcccccchhhccff, TimeUS,C,IVN,IVE,IVD,IPN,IPE,IPD,IMX,IMY,IMZ,IYAW,IVT,RErr,ErSc
FMT, 47, 44, XKF4, QBcccccfffHBIHb, TimeUS,C,SV,SP,SH,SM,SVT,errRP,OFN,OFE,FS,TS,SS,GPS,PI
FMT, 48, 41, XKF5, QBBhhhcccCCfff, TimeUS,C,NI,FIX,FIY,AFI,HAGL,offset,RI,rng,Herr,eAng,eVel,ePos
FMT, 49, 36, XKFD, QBffffff, TimeUS,C,IX,IY,IZ,IVX,IVY,IVZ
FMT, 50, 29, XKFM, QBBffff, TimeUS,C,OGNM,GLR,ALR,GDR,ADR
FMT, 51, 20, XKFS, QBBBBBBBBB, TimeUS,C,MI,BI,GI,AI,SS,GPS_GTA,GPS_CHK_WAIT,MAG_FUSION
FMT, 52, 28, XKQ, QBffff, TimeUS,C,Q1,Q2,Q3,Q4
FMT, 53, 48, XKT, QBIffffffff, TimeUS,C,Cnt,IMUMin,IMUMax,EKFMin,EKFMax,AngMin,AngMax,VMin,VMax
FMT, 54, 20, XKTV, QBff, TimeUS,C,TVS,TVD
FMT, 55, 60, XKV1, QBffffffffffff, TimeUS,C,V00,V01,V02,V03,V04,V05,V06,V07,V08,V09,V10,V11
FMT, 56, 60, XKV2, QBffffffffffff, TimeUS,C,V12,V13,V14,V15,V16,V17,V18,V19,V20,V21,V22,V23
FMT, 57, 60, XKY0, QBffffffffffff, TimeUS,C,YC,YCS,Y0,Y1,Y2,Y3,Y4,W0,W1,W2,W3,W4
FMT, 58, 52, XKY1, QBffffffffff, TimeUS,C,IVN0,IVN1,IVN2,IVN3,IVN4,IVE0,IVE1,IVE2,IVE3,IVE4
FMT, 41, 60, NKY0, QBffffffffffff, TimeUS,C,YC,YCS,Y0,Y1,Y2,Y3,Y4,W0,W1,W2,W3,W4
FMT, 42, 52, NKY1, QBffffffffff, TimeUS,C,IVN0,IVN1,IVN2,IVN3,IVN4,IVE0,IVE1,IVE2,IVE3,IVE4
FMT, 70, 45, AHR2, QccCfLLffff, TimeUS,Roll,Pitch,Yaw,Alt,Lat,Lng,Q1,Q2,Q3,Q4
FMT, 71, 19, AOA, Qff, TimeUS,AOA,SSA
FMT, 72, 36, ATT, QffffffB, TimeUS,DesRoll,Roll,DesPitch,Pitch,DesYaw,Yaw,AEKF
FMT, 73, 24, ORGN, QBLLe, TimeUS,Type,Lat,Lng,Alt
FMT, 74, 31, POS, QLLfff, TimeUS,Lat,Lng,Alt,RelHomeAlt,RelOriginAlt
FMT, 76, 35, ATSC, Qffffff, TimeUS,AngPScX,AngPScY,AngPScZ,PDScX,PDScY,PDScZ
FMT, 204, 51, VSTB, Qffffffffff, TimeUS,GyrX,GyrY,GyrZ,AccX,AccY,AccZ,Q1,Q2,Q3,Q4
FMT, 90, 38, MON, QIbIHHHHHII, TimeUS,Dly,Tsk,IErr,IErrCnt,IErrLn,MM,MC,SmLn,SPICnt,I2CCnt
FMT, 91, 47, WDOG, QbIHHHHHHHIBIIn, TimeUS,Tsk,IE,IEC,IEL,MvMsg,MvCmd,SmLn,FL,FT,FA,FP,ICSR,LR,TN
FMT, 210, 20, UART, QBff, TimeUS,I,Tx,Rx
FMT, 115, 21, RPM, QBffB, TimeUS,I,RPM,Qual,H
FMT, 209, 27, FNCE, QBBBLLBf, TimeUS,Tot,Seq,Type,Lat,Lng,Count,Radius
FMT, 177, 33, DSF, QIHIIII, TimeUS,Dp,Blk,Bytes,FMn,FMx,FAv
FMT, 121, 24, RALY, QBBLLhB, TimeUS,Tot,Seq,Lat,Lng,Alt,Flags
FMT, 183, 23, MAV, QBHHHBHH, TimeUS,chan,txp,rxp,rxdp,flags,ss,tf
FMT, 167, 43, VISO, Qffffffff, TimeUS,dt,AngDX,AngDY,AngDZ,PosDX,PosDY,PosDZ,conf
FMT, 168, 58, VISP, QQIffffffffBBb, TimeUS,RTimeUS,CTimeMS,PX,PY,PZ,R,P,Y,PErr,AErr,Rst,Ign,Q
FMT, 169, 42, VISV, QQIffffBBb, TimeUS,RTimeUS,CTimeMS,VX,VY,VZ,VErr,Rst,Ign,Q
FMT, 180, 28, OF, QBffff, TimeUS,Qual,flowX,flowY,bodyX,bodyY
FMT, 182, 21, WENC, Qfbfb, TimeUS,Dist0,Qual0,Dist1,Qual1
FMT, 185, 35, ADSB, QIiiiHHhH, TimeUS,ICAO_address,Lat,Lng,Alt,Heading,Hor_vel,Ver_vel,Squark
FMT, 181, 12, EV, QB, TimeUS,Id
FMT, 186, 18, ARM, QBIBB, TimeUS,ArmState,ArmChecks,Forced,Method
FMT, 184, 13, ERR, QBB, TimeUS,Subsys,ECode
FMT, 187, 35, WINC, QBBBBBfffHfb, TimeUS,Heal,ThEnd,Mov,Clut,Mode,DLen,Len,DRate,Tens,Vcc,Temp
FMT, 188, 47, PSCN, Qfffffffff, TimeUS,DPN,TPN,PN,DVN,TVN,VN,DAN,TAN,AN
FMT, 189, 47, PSCE, Qfffffffff, TimeUS,DPE,TPE,PE,DVE,TVE,VE,DAE,TAE,AE
FMT, 190, 47, PSCD, Qfffffffff, TimeUS,DPD,TPD,PD,DVD,TVD,VD,DAD,TAD,AD
FMT, 191, 35, PSON, Qffffff, TimeUS,TPON,PON,TVON,VON,TAON,AON
FMT, 192, 35, PSOE, Qffffff, TimeUS,TPOE,POE,TVOE,VOE,TAOE,AOE
FMT, 193, 35, PSOD, Qffffff, TimeUS,TPOD,POD,TVOD,VOD,TAOD,AOD
FMT, 194, 35, PSOT, Qffffff, TimeUS,TPOT,POT,TVOT,VOT,TAOT,AOT
FMT, 75, 63, RATE, Qfffffffffffff, TimeUS,RDes,R,ROut,PDes,P,POut,YDes,Y,YOut,ADes,A,AOut,AOutSlew
FMT, 195, 39, ANG, Qfffffff, TimeUS,DesRoll,Roll,DesPitch,Pitch,DesYaw,Yaw,Dt
FMT, 201, 33, STAK, QBBHHN, TimeUS,Id,Pri,Total,Free,Name
FMT, 202, 88, FILE, NIBZ, FileName,Offset,Length,Data
FMT, 197, 78, AISR, QBBBZ, TimeUS,num,total,ID,payload
FMT, 198, 41, AIS1, QBBIBbHbLLHHBBbI, US,typ,rep,mmsi,nav,rot,sog,pos,lon,lat,cog,hed,sec,man,raim,rad
FMT, 199, 38, AIS4, QBIHBBBBBBLLBBI, US,rep,mmsi,year,mth,day,h,m,s,fix,lon,lat,epfd,raim,rad
FMT, 200, 175, AIS5, QBIBINZBHHBBBBZB, US,rep,mmsi,ver,imo,cal,nam,typ,bow,stn,prt,str,fix,dght,dst,dte
FMT, 203, 39, SCR, QNIii, TimeUS,Name,Runtime,Total_mem,Run_mem
FMT, 206, 90, VER, QBHBBBBIZHBB, TimeUS,BT,BST,Maj,Min,Pat,FWT,GH,FWS,APJ,BU,FV
FMT, 205, 32, MOTB, QfffffB, TimeUS,LiftMax,BatVolt,ThLimit,ThrAvMx,ThrOut,FailFlags
FMT, 6, 24, PTUN, QBfff, TimeUS,Param,TunVal,TunMin,TunMax
FMT, 0, 55, CTUN, Qffffffefffhh, TimeUS,ThI,ABst,ThO,ThH,DAlt,Alt,BAlt,DSAlt,SAlt,TAlt,DCRt,CRt
FMT, 1, 14, D16, QBh, TimeUS,Id,Value
FMT, 2, 14, DU16, QBH, TimeUS,Id,Value
FMT, 3, 16, D32, QBi, TimeUS,Id,Value
FMT, 4, 16, DU32, QBI, TimeUS,Id,Value
FMT, 5, 16, DFLT, QBf, TimeUS,Id,Value
FMT, 9, 47, SIDD, Qfffffffff, TimeUS,Time,Targ,F,Gx,Gy,Gz,Ax,Ay,Az
FMT, 10, 40, SIDS, QBfffffff, TimeUS,Ax,Mag,FSt,FSp,TFin,TC,TR,TFout
FMT, 8, 49, GUIP, QBfffbffffff, TimeUS,Type,pX,pY,pZ,Terrain,vX,vY,vZ,aX,aY,aZ
FMT, 11, 44, GUIA, QBffffffff, TimeUS,Type,Roll,Pitch,Yaw,RollRt,PitchRt,YawRt,Thrust,ClimbRt
FMT, 249, 25, SURF, QBBfff, TimeUS,I,St,D,FD,TO
SURF, 59717509, 0, 2, 0, 0, -0.09524219
SURF, 59717536, 1, 2, 0, 0, -0.09524219
IMU, 59727578, 0, 0.0008549881, -0.001063371, -0.0002697555, 0.507971, 1.074897, -9.824443, 0, 0, 48.6715, 1, 1, 2021, 2021
IMU, 59727578, 1, 0.001502011, 0.0005412616, -0.001183209, 0.5182431, 1.165367, -9.826458, 0, 0, 49, 1, 1, 1998, 2050
POWR, 59767555, 4.958056, 5.035824, 1, 1, 6
MCU, 59767555, 49.22465, 3.352762, 3.34474, 3.358697
BAT, 59767569, 0, 15.06789, 15.39549, 1.081313, 16.79438, 0.2541898, 0, 0.3029681, 99, 1, 0
MAG, 59767580, 0, -483, 73, 148, -382, 367, 647, 0, 0, 0, 1, 59767579
MAG, 59767580, 1, -396, 168, 116, 59, 22, -40, 0, 0, 0, 1, 59767578
SURF, 59767599, 0, 2, 0, 0, -0.09039294
SURF, 59767608, 1, 2, 0, 0, -0.09039294
BARO, 59767627, 0, 0.08233643, 0.08233643, 93565.48, 53.34, -0.06155014, 59767, 0, 35, 1
CTUN, 59767640, 0, 0, 0, 0.431117, 0, 0.007546493, 0.08, NaN, 0, 24.04454, 0, 1
ATT, 59767821, -20.70463, -6.307074, 22.20742, 2.81992, 191.0816, 191.0816, 3
ANG, 59767138, -20.70463, -6.307074, 22.20742, 2.81992, 191.0816, 191.0816, 0.002499
RATE, 59767150, -67.55552, 0.006510611, -0.1591943, 82.3004, -0.004877458, 0.1940176, 21.49839, -0.01611938, 0.06757403, 0.1900673, 0.5403519, 0, 0
PIDR, 59767839, -1.179063, 0.0001136316, -1.179177, -0.1591888, 0, -5.430418E-06, 0, 0, 1, 0.4115021, 9
PIDP, 59767843, 1.436388, -8.512771E-05, 1.436473, 0.1939238, 0, 9.38078E-05, 0, 0, 1, 0.4140214, 9
PIDY, 59767847, 0.3752139, -0.0002813363, 0.3754113, 0.06757403, 0, 0, 0, 0, 1, 0.03873757, 9
PIDA, 59767850, 0.1900673, 0.1900673, 0, 0, -431.1174, 0, 0, 0, 1, 0, 13
XKF4, 59767304, 0, 0, 0, 0, 0.01, 0, 0.008470654, 0, 0, 0, 50, 67751, 1, 0
XKF1, 59767304, 0, -6.3, 2.81, 191.08, -0.05711388, -0.01167512, -0.01051704, -0.05000372, 0, 0, -0.007546493, 0.02, -0.03, 0, 0
XKF2, 59767304, 0, 0, 0, -0.09, 0, 0, 454, 0, 172, 0, 0, 0, 0, 0, 0
XKF3, 59767304, 0, 0, 0, 0, -0.07, -0.01, -0.02, 0, 0, 0, 1.41, 0, 0, 1.640823E-06
XKF5, 59767304, 0, 0, 0, 0, 0, 0.05, 0.04, 0, 0, 0.5, 0.0003888953, 0.003747498, 0.009726771
XKFS, 59767304, 0, 0, 0, 0, 0, 0, 0, 0, 1
XKQ, 59767304, 0, -0.09772677, -0.01914385, -0.05711043, 0.9933888
XKF4, 59767304, 1, 0, 0, 0, 0.01, 0, 0.008602505, 0, 0, 0, 50, 67751, 1, 0
XKF1, 59767304, 1, -6.79, 3.12, 191.23, -0.006728253, 0.01440877, -0.01339863, -0.05174889, 0, 0, -0.00758035, 0, -0.03, -0.02, 0
XKF2, 59767304, 1, 0, 0, -0.07, 0, 0, 454, 0, 172, 0, 0, 0, 0, 0, 0
XKF3, 59767304, 1, 0, 0, 0, 0, 0.01, -0.02, 0, 0, 0, 1.43, 0, 2.504297E-06, 1.708422E-06
XKFS, 59767304, 1, 0, 0, 0, 0, 0, 0, 0, 1
XKQ, 59767304, 1, -0.09929358, -0.02128389, -0.06166038, 0.9929178
AHR2, 59767932, -6.16, 2.87, 191.02, -0.01, 15.3693604, 75.1238012, -0.09726169, -0.0197327, -0.0559097, 0.9934913
POS, 59767936, 15.3693606, 75.1238011, 670.88, 0.08233643, 0.007546493
MOTB, 59767941, 1, 1, 1, 0.0431117, 0, 2
RCIN, 59767947, 1102, 1927, 1102, 1927, 1927, 2000, 1000, 1000, 2000, 1495, 1000, 875, 875, 875
RCI2, 59767951, 875, 875, 0, 1
RCOU, 59767958, 1000, 1000, 1000, 1000, 0, 0, 0, 0, 1495, 0, 0, 0, 0, 0
RCO2, 59767961, 0, 0, 0, 0
VIBE, 59767966, 0, 0.007924064, 0.007369338, 0.008260505, 0
VIBE, 59767966, 1, 0.06291892, 0.05250024, 0.07916325, 0
FMT, 247, 31, CTRL, Qfffff, TimeUS,RMSRollP,RMSRollD,RMSPitchP,RMSPitchD,RMSYaw
CTRL, 59767974, 0.1591638, 0.0003346409, 0.1939141, 0.0003846675, 0.06757265
IMU, 59768029, 0, 0.0006178448, -0.0006697405, -0.0003997765, 0.5039153, 1.077905, -9.832341, 0, 0, 48.6715, 1, 1, 2021, 2021
IMU, 59768029, 1, -0.0007142043, -0.001678517, -0.001125659, 0.527498, 1.137598, -9.820597, 0, 0, 49, 1, 1, 1998, 2050
FMT, 252, 43, DCM, Qffffffff, TimeUS,Roll,Pitch,Yaw,ErrRP,ErrYaw,VWN,VWE,VWD
DCM, 59769726, -6.166645, 2.867814, 191.0276, 0.04433347, 0.01854273, 0, 0, 0
FMT, 251, 51, EAHR, QffffffLLfI, TimeUS,Roll,Pitch,Yaw,VN,VE,VD,Lat,Lon,Alt,Flg
EAHR, 59769843, 0, 0, 0, 0, 0, 0, 0, 0, 0, 0
FMT, 253, 28, HEAT, Qfbfff, TimeUS,Temp,Targ,P,I,Out
HEAT, 59794654, 49.05796, 45, -202.898, 0, 0
MSG, 59800739, ArduCopter V4.6.2 (1ebd4d99)
MSG, 59800747, ChibiOS: 88b84600
VER, 59800756, 10, 5009, 4, 6, 2, 255, 515722649, ArduCopter V4.6.2 (1ebd4d99), 56, 2, 2
MSG, 59800769, Pixhawk6C 003D0048 3133510F 31343630
MSG, 59800800, Param space used: 938/5376
MSG, 59800807, RC Protocol: SBUS
MSG, 59800818, RCOut: PWM:1-16
MSG, 59800823, New mission
CMD, 59802565, 4, 0, 16, 0, 0, 0, 0, 0, 0, 0, 0
CMD, 59802574, 4, 1, 22, 1, 0, 0, 0, 0, 0, 10, 3
CMD, 59802581, 4, 2, 16, 10, 0, 0, 0, 15.367361, 75.1254623, 10, 3
CMD, 59802588, 4, 3, 20, 0, 0, 0, 0, 0, 0, 0, 0
MSG, 59802593, New rally
MSG, 59802598, New fence
FNCE, 59802604, 10, 0, 98, 15.3694775, 75.1243937, 10, 0
FNCE, 59802635, 10, 1, 98, 15.3694025, 75.1246646, 10, 0
FNCE, 59802671, 10, 2, 98, 15.3694775, 75.1248684, 10, 0
FNCE, 59802687, 10, 3, 98, 15.3696456, 75.1249086, 10, 0
FNCE, 59802693, 10, 4, 98, 15.3699042, 75.1248443, 10, 0
FNCE, 59802699, 10, 5, 98, 15.3702533, 75.1247826, 10, 0
FNCE, 59802704, 10, 6, 98, 15.3703154, 75.1244822, 10, 0
FNCE, 59802709, 10, 7, 98, 15.3700982, 75.124281, 10, 0
FNCE, 59802715, 10, 8, 98, 15.3698292, 75.1241469, 10, 0
FNCE, 59802720, 10, 9, 98, 15.3695111, 75.1241147, 10, 0
MSG, 59802729, Frame: QUAD/X
MODE, 59802734, Stabilize, 0, 1
MSG, 59802743, GPS 1: probing for u-blox at 230400 baud
MSG, 59802752, u-blox 1 HW: 00190000 SW: EXT CORE 4.04 (7f89f7)
IMU, 59808550, 0, 5.411132E-05, -0.0001821726, -0.000256137, 0.5066128, 1.07751, -9.827235, 0, 0, 49.15459, 1, 1, 2021, 2021
IMU, 59808550, 1, -0.0004933844, -0.00372685, 0.000125271, 0.5284775, 1.155053, -9.801926, 0, 0, 49, 1, 1, 1998, 2050
SURF, 59817533, 0, 2, 0, 0, -0.08561055
SURF, 59817543, 1, 2, 0, 0, -0.08561055
FILE, @SYS/uarts.txt, 0, 64, UARTV1\nSERIAL0 OTG1  TX =       0 RX =       0 TXBD=     0 RXBD=
FILE, @SYS/uarts.txt, 64, 64,      0 FE=0 OE=0 NE=0 FlowCtrl=0\nSERIAL1 UART7 TX*=   90598 RX*=
IMU, 59847587, 0, 0.0002444884, -0.0002831162, -0.0002380953, 0.5136893, 1.073534, -9.825355, 0, 0, 49.15459, 1, 1, 2021, 2021
IMU, 59847587, 1, -0.001643992, -0.002526944, -0.002050374, 0.5281143, 1.149835, -9.816107, 0, 0, 49, 1, 1, 1998, 2050
FILE, @SYS/uarts.txt, 128, 64,    10323 TXBD= 15309 RXBD=  1744 FE=0 OE=0 NE=0 FlowCtrl=0\nSERIA
FILE, @SYS/uarts.txt, 192, 64, L2 UART5 TX*=    1664 RX*=       0 TXBD=   281 RXBD=     0 FE=0 
POWR, 59867496, 4.9642, 5.035824, 1, 1, 6
MCU, 59867496, 49.26441, 3.352762, 3.345583, 3.360964
BAT, 59867514, 0, 15.06624, 15.39446, 1.083327, 16.82446, 0.254643, 0, 0.3029681, 99, 1, 0
MAG, 59867525, 0, -494, 76, 129, -382, 367, 647, 0, 0, 0, 1, 59867524
MAG, 59867525, 1, -395, 168, 117, 59, 22, -40, 0, 0, 0, 1, 59867522
SURF, 59867543, 0, 2, 0, 0, -0.08091545
SURF, 59867551, 1, 2, 0, 0, -0.08091545
BARO, 59867600, 0, 0.03234863, 0.03234863, 93566.03, 53.35, -0.1002312, 59867, 0, 35, 1
CTUN, 59867616, 0, 0, 0, 0.431117, 0, 0.01324283, 0.03, NaN, 0, 24.04454, 0, 1
ATT, 59867735, -20.70462, -6.308731, 22.20742, 2.818097, 191.0692, 191.0692, 3
ANG, 59867139, -20.70462, -6.308731, 22.20742, 2.818097, 191.0692, 191.0692, 0.002499
RATE, 59867152, -67.54878, -0.02251955, -0.1591145, 82.30791, -0.04438718, 0.1941897, 21.50152, -0.009138069, 0.06758391, 0.1900673, -0.3973007, 0, 0
PIDR, 59867815, -1.178971, -0.0003930403, -1.178578, -0.159108, 0, -6.564065E-06, 0, 0, 1, 0.3722956, 9
PIDP, 59867819, 1.4365, -0.0007747024, 1.437275, 0.1940322, 0, 0.0001575593, 0, 0, 1, 0.3745749, 9
PIDY, 59867823, 0.3752627, -0.0001594894, 0.3754661, 0.06758391, 0, 0, 0, 0, 1, 0.03504677, 9
PIDA, 59867826, 0.1900673, 0.1900673, 0, 0, -431.1174, 0, 0, 0, 1, 0, 13
XKF4, 59867310, 0, 0, 0, 0, 0.01, 0, 0.00853674, 0, 0, 0, 50, 67751, 1, 0
XKF1, 59867310, 0, -6.3, 2.81, 191.06, -0.05966886, -0.01225783, -0.01066302, -0.03103024, 0, 0, -0.01324283, 0.02, -0.03, 0, 0
XKF2, 59867310, 0, 0, 0, -0.09, 0, 0, 454, 0, 172, 0, 0, 0, 0, 0, 0
XKF3, 59867310, 0, 0, 0, 0, -0.08, -0.01, 0.07, 0, 0, 0, 1.23, 0, 0, 1.331053E-05
XKF5, 59867310, 0, 0, 0, 0, 0, 0.06, 0.04, 0, 0, 0.5, 0.0003592972, 0.003756984, 0.009540522
XKFS, 59867310, 0, 0, 0, 0, 0, 0, 0, 0, 1
XKQ, 59867310, 0, -0.09761801, -0.01913286, -0.05712121, 0.9933991
XKF4, 59867310, 1, 0, 0, 0, 0.01, 0, 0.008668942, 0, 0, 0, 50, 67751, 1, 0
XKF1, 59867310, 1, -6.8, 3.11, 191.22, -0.00653302, 0.01544312, -0.01379756, -0.03400124, 0, 0, -0.01345215, 0, -0.03, -0.02, 0
XKF2, 59867310, 1, 0, 0, -0.07, 0, 0, 454, 0, 172, 0, 0, 0, 0, 0, 0
XKF3, 59867310, 1, 0, 0, 0, 0, 0.01, 0.07, 0, 0, 0, 1.22, 0, 3.51828E-06, 1.304736E-05
XKFS, 59867310, 1, 0, 0, 0, 0, 0, 0, 0, 1
XKQ, 59867310, 1, -0.09918889, -0.02121723, -0.06167383, 0.9929289
AHR2, 59867902, -6.23, 2.76, 191.01, 0.08, 15.3693603, 75.1238013, -0.09707165, -0.01872737, -0.05643664, 0.9934996
POS, 59867907, 15.3693606, 75.1238011, 670.88, 0.03234863, 0.01324283
MOTB, 59867912, 1, 1, 1, 0.0431117, 0, 2
RCIN, 59867917, 1102, 1927, 1102, 1927, 1927, 2000, 1000, 1000, 2000, 1495, 1000, 875, 875, 875
RCI2, 59867921, 875, 875, 0, 1
RCOU, 59867927, 1000, 1000, 1000, 1000, 0, 0, 0, 0, 1495, 0, 0, 0, 0, 0
RCO2, 59867931, 0, 0, 0, 0
VIBE, 59867935, 0, 0.008836457, 0.007321895, 0.008860536, 0
VIBE, 59867935, 1, 0.06304983, 0.05277214, 0.07238127, 0
CTRL, 59867943, 0.1591517, 0.0002754573, 0.1939264, 0.0003247653, 0.06757916
FILE, @SYS/uarts.txt, 256, 64, OE=0 NE=0 FlowCtrl=0\nSERIAL3 UART1 TX*=    1646 RX*=   36848 TXB
DCM, 59869779, -6.237661, 2.75863, 191.0103, 0.04433347, 0.01941158, 0, 0, 0
EAHR, 59869798, 0, 0, 0, 0, 0, 0, 0, 0, 0, 0
STAK, 59872828, 18, 176, 1456, 984, I2C1
FILE, @SYS/uarts.txt, 320, 64, D=   278 RXBD=  6226 FE=142 OE=0 NE=164 FlowCtrl=0\nSERIAL4 UART8
IMU, 59887571, 0, 0.0003195599, -0.0006178364, -0.0002710089, 0.5040565, 1.075111, -9.82498, 0, 0, 48.6715, 1, 1, 2021, 2021
IMU, 59887571, 1, 0.001479488, 0.004981285, -0.001639529, 0.54592, 1.153608, -9.783852, 0, 0, 49, 1, 1, 1998, 2050
FILE, @SYS/uarts.txt, 384, 64,  TX*=       0 RX*=       0 TXBD=     0 RXBD=     0 FE=0 OE=0 NE=
GPS, 59908736, 0, 3, 484464600, 2379, 9, 1.11, 15.3693607, 75.1238015, 671.04, 0.153, 270.5699, 0.101, 0, 1
GPA, 59908736, 0, 1.82, 3.74, 6.02, 0.89, 0, 1, 59893, 200, 593.03, 0, 0
FILE, @SYS/uarts.txt, 448, 64, 0 FlowCtrl=0\nSERIAL5 UART2 TX =       0 RX =       0 TXBD=     0
SURF, 59917496, 0, 2, 0, 0, -0.0763177
SURF, 59917506, 1, 2, 0, 0, -0.0763177
FILE, @SYS/uarts.txt, 512, 64,  RXBD=     0 FE=0 OE=0 NE=0 FlowCtrl=0\nSERIAL6 UART3 TX =       
IMU, 59927637, 0, 0.0004490636, -0.001030547, -0.0003326469, 0.5108916, 1.075127, -9.827271, 0, 0, 49.15459, 1, 1, 2021, 2021
IMU, 59927637, 1, -0.0001198373, 0.0007470732, 0.0004542081, 0.5352461, 1.139706, -9.790111, 0, 0, 49, 1, 1, 1998, 2050
FILE, @SYS/uarts.txt, 576, 64, 0 RX =       0 TXBD=     0 RXBD=     0 FE=0 OE=0 NE=0 FlowCtrl=0
FILE, @SYS/uarts.txt, 640, 64, \nSERIAL7 OTG2  TX =       0 RX =       0 TXBD=     0 RXBD=     0
FILE, @SYS/uarts.txt, 704, 64,  FE=0 OE=0 NE=0 FlowCtrl=0\nIOMCU   UART6 TX*=  441696 RX*=  2829
FILE, @SYS/uarts.txt, 768, 53, 22 TXBD=  2061 RXBD= 47808 FE=0 OE=0 NE=0 FlowCtrl=0\n
POWR, 59967544, 4.965207, 5.035824, 1, 1, 6
MCU, 59967544, 49.26441, 3.352903, 3.34446, 3.360539
BAT, 59967557, 0, 15.07677, 15.4046, 1.082045, 16.85453, 0.2550963, 0, 0.3029681, 99, 1, 0
MAG, 59967569, 0, -482, 73, 150, -382, 367, 647, 0, 0, 0, 1, 59967567
MAG, 59967569, 1, -394, 168, 119, 59, 22, -40, 0, 0, 0, 1, 59967566
SURF, 59967588, 0, 2, 0, 0, -0.07183193
SURF, 59967597, 1, 2, 0, 0, -0.07183193
BARO, 59967676, 0, -0.04711914, -0.04711914, 93566.94, 53.35, -0.01016616, 59967, 0, 35, 1
CTUN, 59967700, 0, 0, 0, 0.431117, 0, 0.01755911, -0.04, NaN, 0, 24.20496, 0, 1
ATT, 59967796, -20.70463, -6.309055, 22.20742, 2.816057, 191.058, 191.058, 3
ANG, 59967140, -20.70463, -6.309055, 22.20742, 2.816057, 191.058, 191.058, 0.002501
RATE, 59967153, -67.54802, -0.005186166, -0.15922, 82.31645, -0.02976526, 0.1940779, 21.50466, -0.025235, 0.06758379, 0.1900673, 0.3950119, 0, 0
PIDR, 59967817, -1.178916, -9.051568E-05, -1.178826, -0.1591415, 0, -7.848679E-05, 0, 0, 1, 0.3368245, 9
PIDP, 59967821, 1.436655, -0.0005195017, 1.437174, 0.1940186, 0, 5.935295E-05, 0, 0, 1, 0.3388866, 9
PIDY, 59967824, 0.3753141, -0.0004404339, 0.3754655, 0.06758379, 0, 0, 0, 0, 1, 0.03170763, 9
PIDA, 59967828, 0.1900673, 0.1900673, 0, 0, -431.1174, 0, 0, 0, 1, 0, 13
XKF4, 59967290, 0, 0, 0, 0, 0.01, 0, 0.008603825, 0, 0, 0, 50, 67751, 1, 0
XKF1, 59967290, 0, -6.3, 2.81, 191.05, -0.0621768, -0.01269431, -0.01093508, -0.02317315, 0, 0, -0.01755911, 0.02, -0.03, 0, 0
XKF2, 59967290, 0, 0, 0, -0.09, 0, 0, 454, 0, 172, 0, 0, 0, 0, 0, 0
XKF3, 59967290, 0, 0, 0, 0, -0.08, -0.01, 0.02, 0, 0, 0, 1.34, 0, 0, 1.126152E-06
XKF5, 59967290, 0, 0, 0, 0, 0, 0.06, 0.04, 0, 0, 0.5, 0.0003550204, 0.003709134, 0.01031023
XKFS, 59967290, 0, 0, 0, 0, 0, 0, 0, 0, 1
XKQ, 59967290, 0, -0.09752034, -0.01912046, -0.05712046, 0.993409
XKF4, 59967290, 1, 0, 0, 0, 0.01, 0, 0.00873364, 0, 0, 0, 50, 67751, 1, 0
XKF1, 59967290, 1, -6.8, 3.11, 191.21, -0.007017327, 0.01611048, -0.0135343, -0.02605474, 0, 0, -0.01798282, 0, -0.03, -0.02, 0
XKF2, 59967290, 1, 0, 0, -0.07, 0, 0, 454, 0, 172, 0, 0, 0, 0, 0, 0
XKF3, 59967290, 1, 0, 0, 0, 0, 0.02, 0.02, 0, 0, 0, 1.36, 0, 3.51828E-06, 1.022154E-06
XKFS, 59967290, 1, 0, 0, 0, 0, 0, 0, 0, 1
XKQ, 59967290, 1, -0.09907977, -0.02124531, -0.06168377, 0.9929385
AHR2, 59967926, -6.18, 2.77, 190.99, 0.03, 15.3693608, 75.1238014, -0.09697109, -0.01894209, -0.05600434, 0.9935297
POS, 59967931, 15.3693607, 75.1238015, 671.04, -0.04711914, 0.01755911
MOTB, 59967936, 1, 1, 1, 0.0431117, 0, 2
RCIN, 59967942, 1102, 1927, 1102, 1927, 1927, 2000, 1000, 1000, 2000, 1495, 1000, 875, 875, 875
RCI2, 59967946, 875, 875, 0, 1
RCOU, 59967972, 1000, 1000, 1000, 1000, 0, 0, 0, 0, 1495, 0, 0, 0, 0, 0
RCO2, 59967976, 0, 0, 0, 0
VIBE, 59967980, 0, 0.008706062, 0.00715208, 0.007366194, 0
VIBE, 59967980, 1, 0.0594515, 0.0555004, 0.07126976, 0
CTRL, 59967989, 0.1591438, 0.0002273943, 0.1939461, 0.0002705417, 0.06757816
IMU, 59967999, 0, 0.0004128492, -0.001105034, -0.0005476952, 0.510368, 1.072115, -9.831125, 0, 0, 49.15459, 1, 1, 2021, 2021
IMU, 59967999, 1, -1.270215E-05, 0.0007680916, -0.0009811182, 0.5439238, 1.145368, -9.795915, 0, 0, 49, 1, 1, 1998, 2050
DCM, 59969783, -6.180569, 2.78346, 190.9987, 0.06810824, 0.01962618, 0, 0, 0
EAHR, 59969802, 0, 0, 0, 0, 0, 0, 0, 0, 0, 0
STAK, 59973643, 19, 176, 1456, 984, I2C0
FILE, @SYS/memory.txt, 0, 64, MemInfoV1\nSTART=0x24000000 LEN=512k FREE=  3248 LRG=  1160 TYPE=
RAD, 59997571, 65, 0, 100, 97, 0, 0, 0
FILE, @SYS/memory.txt, 64, 64, 4\nSTART=0x30000000 LEN=256k FREE=262136 LRG=262136 TYPE=8\nSTART=
IMU, 60008561, 0, 1.745887E-05, -0.001641949, -0.0005260629, 0.5071564, 1.073205, -9.824511, 0, 0, 49.15459, 1, 1, 2021, 2021
IMU, 60008561, 1, 0.0008629769, -0.002835838, -0.0009805185, 0.5464755, 1.147681, -9.798828, 0, 0, 49, 1, 1, 1998, 2050
FILE, @SYS/memory.txt, 128, 64, 0x20000000 LEN=128k FREE=112544 LRG=112544 TYPE=2\nSTART=0x000004
SURF, 60017511, 0, 2, 0, 0, -0.06746695
SURF, 60017521, 1, 2, 0, 0, -0.06746695
FILE, @SYS/memory.txt, 192, 64, 00 LEN= 63k FREE= 64504 LRG= 64504 TYPE=2\nSTART=0x30040000 LEN= 
FILE, @SYS/memory.txt, 256, 64, 32k FREE= 32760 LRG= 32760 TYPE=8\nSTART=0x38000000 LEN= 64k FREE
FILE, @SYS/memory.txt, 320, 26, = 56808 LRG= 56152 TYPE=1\n
IMU, 60047556, 0, 0.0007059197, -0.0004858612, -0.0003913209, 0.5067493, 1.073521, -9.829285, 0, 0, 49.15459, 1, 1, 2021, 2021
IMU, 60047556, 1, 0.0007671028, 0.001492004, 0.0003774312, 0.5271568, 1.156507, -9.79965, 0, 0, 49, 1, 1, 1998, 2050
POWR, 60067509, 4.964602, 5.038241, 1, 1, 6
MCU, 60067509, 49.24453, 3.353185, 3.346285, 3.358697
BAT, 60067540, 0, 15.07814, 15.40719, 1.086073, 16.88469, 0.2555512, 0, 0.3029681, 99, 1, 0
MAG, 60067552, 0, -487, 74, 139, -382, 367, 647, 0, 0, 0, 1, 60067550
MAG, 60067552, 1, -394, 168, 120, 59, 22, -40, 0, 0, 0, 1, 60067549
SURF, 60067572, 0, 2, 0, 0, -0.06323226
SURF, 60067582, 1, 2, 0, 0, -0.06323226
BARO, 60067605, 0, -0.04412842, -0.04412842, 93566.88, 53.35, -0.07268905, 60067, 0, 35, 1
CTUN, 60067618, 0, 0, 0, 0.431117, 0, 0.02059168, -0.04, NaN, 0, 24.20496, 0, 1
ATT, 60067784, -20.70462, -6.309533, 22.20742, 2.812965, 191.0462, 191.0462, 3
ANG, 60067139, -20.70462, -6.309532, 22.20742, 2.812965, 191.0462, 191.0462, 0.002499
RATE, 60067154, -67.54675, 0.02126682, -0.1592591, 82.32955, 0.03419173, 0.1938006, 21.50777, -0.008371622, 0.06761631, 0.1900673, 0.2297401, 0, 0
PIDR, 60067801, -1.178886, 0.000371176, -1.179258, -0.1591998, 0, -5.933724E-05, 0, 0, 1, 0.3047337, 9
PIDP, 60067805, 1.436935, 0.0005967583, 1.436338, 0.1939056, 0, -0.0001050053, 0, 0, 1, 0.3065993, 9
PIDY, 60067809, 0.3753928, -0.0001461124, 0.3756462, 0.06761631, 0, 0, 0, 0, 1, 0.02868669, 9
PIDA, 60067812, 0.1900673, 0.1900673, 0, 0, -431.1174, 0, 0, 0, 1, 0, 13
XKF4, 60067292, 0, 0, 0, 0, 0.01, 0, 0.008670514, 0, 0, 0, 50, 67751, 1, 0
XKF1, 60067292, 0, -6.3, 2.81, 191.04, -0.06473624, -0.0130122, -0.01117523, -0.01604063, 0, 0, -0.02059168, 0.02, -0.03, 0, 0
XKF2, 60067292, 0, 0, 0, -0.09, 0, 0, 454, 0, 172, 0, 0, 0, 0, 0, 0
XKF3, 60067292, 0, 0, 0, 0, -0.09, -0.02, -0.05, 0, 0, 0, 1.18, 0, 0, 8.709825E-06
XKF5, 60067292, 0, 0, 0, 0, 0, 0.06, 0.04, 0, 0, 0.5, 0.0003376919, 0.00363132, 0.01172083
XKFS, 60067292, 0, 0, 0, 0, 0, 0, 0, 0, 1
XKQ, 60067292, 0, -0.09741664, -0.01909913, -0.05712007, 0.9934196
XKF4, 60067292, 1, 0, 0, 0, 0.01, 0, 0.008799248, 0, 0, 0, 50, 67751, 1, 0
XKF1, 60067292, 1, -6.8, 3.1, 191.2, -0.008103446, 0.01714643, -0.01325545, -0.0185242, 0, 0, -0.02122266, 0, -0.03, -0.02, 0
XKF2, 60067292, 1, 0, 0, -0.07, 0, 0, 454, 0, 172, 0, 0, 0, 0, 0, 0
XKF3, 60067292, 1, 0, 0, 0, 0, 0.02, -0.06, 0, 0, 0, 1.17, 0, 1.340956E-05, 9.105476E-06
XKFS, 60067292, 1, 0, 0, 0, 0, 0, 0, 0, 1
XKQ, 60067292, 1, -0.09900182, -0.02113843, -0.06166323, 0.9929499
AHR2, 60067885, -6.04, 2.89, 190.99, -0.04, 15.3693609, 75.1238012, -0.09694195, -0.02007014, -0.05485373, 0.9935746
POS, 60067890, 15.3693607, 75.1238015, 671.04, -0.04412842, 0.02059168
MOTB, 60067895, 1, 1, 1, 0.0431117, 0, 2
RCIN, 60067901, 1102, 1927, 1102, 1927, 1927, 2000, 1000, 1000, 2000, 1495, 1000, 875, 875, 875
RCI2, 60067905, 875, 875, 0, 1
RCOU, 60067911, 1000, 1000, 1000, 1000, 0, 0, 0, 0, 1495, 0, 0, 0, 0, 0
RCO2, 60067914, 0, 0, 0, 0
VIBE, 60067919, 0, 0.007549107, 0.008012052, 0.007863368, 0
VIBE, 60067919, 1, 0.06124432, 0.05402574, 0.07315028, 0
CTRL, 60067927, 0.1591389, 0.0001908026, 0.193982, 0.000236104, 0.06758932
DCM, 60069794, -6.037938, 2.89869, 190.9926, 0.06810824, 0.02004757, 0, 0, 0
EAHR, 60069813, 0, 0, 0, 0, 0, 0, 0, 0, 0, 0
STAK, 60073960, 20, 181, 1456, 824, SPI1
FILE, @SYS/threads.txt, 0, 64, ThreadsV2\nISR           PRI=255 sp=0x24000000 STACK=1308/1536\nAr
FILE, @SYS/threads.txt, 64, 64, duCopter    PRI=182 sp=0x24000600 STACK=4000/7168\nidle          
IMU, 60087577, 0, 0.0002817774, -0.001153797, -0.0004941366, 0.5106742, 1.079813, -9.82743, 0, 0, 49.15459, 1, 1, 2021, 2021
IMU, 60087577, 1, 0.001210936, -0.002734688, 0.0001630488, 0.5353876, 1.160887, -9.817148, 0, 0, 49, 1, 1, 1998, 2050
FILE, @SYS/threads.txt, 128, 64, PRI=  1 sp=0x240214B0 STACK=288/496\nUART_RX       PRI= 60 sp=0x2
GPS, 60108690, 0, 3, 484464800, 2379, 9, 1.11, 15.3693611, 75.1238021, 671.19, 0.236, 270.5699, 0.003, 0, 1
GPA, 60108690, 0, 1.82, 3.74, 6.02, 0.94, 0, 1, 60093, 200, 593.18, 0, 0
FILE, @SYS/threads.txt, 192, 64, 407B0E8 STACK=880/1200\nOTG1          PRI= 60 sp=0x2407A1A0 STACK
SURF, 60117516, 0, 2, 0, 0, -0.05913913
SURF, 60117525, 1, 2, 0, 0, -0.05913913
FILE, @SYS/threads.txt, 256, 64, =480/752\nmonitor       PRI=183 sp=0x2401CE20 STACK=1096/1456\ntim
IMU, 60127609, 0, 0.0001390273, -0.001422567, -0.0005822799, 0.5048896, 1.084854, -9.833566, 0, 0, 49.15459, 1, 1, 2021, 2021
IMU, 60127609, 1, -0.000262918, -0.002533967, 5.472483E-05, 0.5444989, 1.146982, -9.796669, 0, 0, 49, 1, 1, 1998, 2050
FILE, @SYS/threads.txt, 320, 64, er         PRI=181 sp=0x2401E3E0 STACK=1528/1968\nrcout         P
FILE, @SYS/threads.txt, 384, 64, RI=181 sp=0x2401DA00 STACK=680/944\nrcin          PRI=177 sp=0x24
FILE, @SYS/threads.txt, 448, 64, 01D410 STACK=824/1456\nio            PRI= 58 sp=0x2401C430 STACK=
FILE, @SYS/threads.txt, 512, 64, 1576/2480\nstorage       PRI= 59 sp=0x2401DDF0 STACK=952/1456\nUAR
POWR, 60167509, 4.965811, 5.038241, 1, 1, 6
MCU, 60167509, 49.22465, 3.353326, 3.346707, 3.359405
BAT, 60167522, 0, 15.07741, 15.40601, 1.084608, 16.91482, 0.2560054, 0, 0.3029681, 99, 1, 0
MAG, 60167537, 0, -483, 73, 151, -382, 367, 647, 0, 0, 0, 1, 60167535
MAG, 60167537, 1, -395, 169, 118, 59, 22, -40, 0, 0, 0, 1, 60167534
SURF, 60167555, 0, 2, 0, 0, -0.05519132
SURF, 60167563, 1, 2, 0, 0, -0.05519132
BARO, 60167612, 0, 0.01763916, 0.01763916, 93566.19, 53.35, -0.2464104, 60167, 0, 35, 1
CTUN, 60167643, 0, 0, 0, 0.431117, 0, 0.02257046, 0.01, NaN, 0, 24.35374, 0, 1
ATT, 60167738, -20.70462, -6.310977, 22.20741, 2.808283, 191.0349, 191.0349, 3
ANG, 60167147, -20.70462, -6.310977, 22.20741, 2.808283, 191.0349, 191.0349, 0.002508
RATE, 60167160, -67.54186, -0.01196911, -0.1591538, 82.34893, -0.01802024, 0.1940312, 21.51667, -0.01628737, 0.06762549, 0.1900673, -0.275135, 0, 0
PIDR, 60167809, -1.178837, -0.0002089003, -1.178628, -0.1591148, 0, -3.902186E-05, 0, 0, 1, 0.2756977, 9
PIDP, 60167830, 1.437251, -0.0003145126, 1.437565, 0.1940713, 0, -4.015108E-05, 0, 0, 1, 0.2773855, 9
PIDY, 60167834, 0.3754838, -0.0002842683, 0.3756971, 0.06762549, 0, 0, 0, 0, 1, 0.02595334, 9
PIDA, 60167838, 0.1900673, 0.1900673, 0, 0, -431.1174, 0, 0, 0, 1, 0, 13
XKF4, 60167315, 0, 0, 0, 0, 0.01, 0, 0.008736974, 0, 0, 0, 50, 67751, 0, 0
XKF1, 60167315, 0, -6.31, 2.8, 191.03, -0.06734966, -0.01379795, -0.01105449, -0.008548064, 0, 0, -0.02257046, 0.02, -0.03, 0, 0
XKF2, 60167315, 0, 0, 0, -0.09, 0, 0, 454, 0, 172, 0, 0, 0, 0, 0, 0
XKF3, 60167315, 0, 0, 0, 0, -0.1, -0.02, -0.05, 0, 0, 0, 1.22, 0, 0, 7.895821E-06
XKF5, 60167315, 0, 0, 0, 0, 0, 0.06, 0.04, 0, 0, 0.5, 0.0003305255, 0.003538424, 0.0128016
XKFS, 60167315, 0, 0, 0, 0, 0, 0, 0, 0, 1
XKQ, 60167315, 0, -0.09731648, -0.01906295, -0.05712684, 0.9934297
XKV1, 60167315, 0, 0.0005008896, 9.361005E-06, 7.951146E-06, 4.86758E-06, 0.08088806, 0.08040809, 0.02119259, 0.2095582, 0.2095558, 0.2605349, 4.437647E-11, 4.764464E-11
XKV2, 60167315, 0, 4.190986E-10, 6.186407E-06, 6.186342E-06, 6.190265E-08, 0, 0, 0, 0, 0, 0, 0, 0
XKF4, 60167315, 1, 0, 0, 0, 0.01, 0, 0.008863658, 0, 0, 0, 50, 67751, 0, 0
XKF1, 60167315, 1, -6.8, 3.1, 191.19, -0.008708022, 0.01790136, -0.01289761, -0.01080612, 0, 0, -0.02341153, 0, -0.03, -0.02, 0
XKF2, 60167315, 1, 0, 0, -0.07, 0, 0, 454, 0, 172, 0, 0, 0, 0, 0, 0
XKF3, 60167315, 1, 0, 0, 0, 0, 0.02, -0.05, 0, 0, 0, 1.23, 0, 3.061811E-05, 8.346772E-06
XKFS, 60167315, 1, 0, 0, 0, 0, 0, 0, 0, 1
XKQ, 60167315, 1, -0.098906, -0.02117292, -0.06165393, 0.9929593
AHR2, 60167918, -6.06, 2.98, 190.97, -0.04, 15.3693613, 75.1238023, -0.09684838, -0.02079444, -0.05515943, 0.9935519
POS, 60167922, 15.3693611, 75.1238021, 671.19, 0.01763916, 0.02257046
MOTB, 60167927, 1, 1, 1, 0.0431117, 0, 2
RCIN, 60167933, 1102, 1927, 1102, 1927, 1927, 2000, 1000, 1000, 2000, 1495, 1000, 875, 875, 875
RCI2, 60167937, 875, 875, 0, 1
RCOU, 60167943, 1000, 1000, 1000, 1000, 0, 0, 0, 0, 1495, 0, 0, 0, 0, 0
RCO2, 60167947, 0, 0, 0, 0
VIBE, 60167951, 0, 0.006935243, 0.00721608, 0.008459656, 0
VIBE, 60167951, 1, 0.05884603, 0.05609442, 0.06922271, 0
CTRL, 60167959, 0.1591311, 0.000161615, 0.194023, 0.0002120122, 0.0675997
IMU, 60167970, 0, 0.0002940896, -0.0009013763, -0.0003812153, 0.5044378, 1.078418, -9.824039, 0, 0, 49.15459, 1, 1, 2021, 2021
IMU, 60167970, 1, -0.0006590799, -0.0008374649, 2.551328E-05, 0.5386217, 1.15831, -9.790559, 0, 0, 49, 1, 1, 1998, 2050
DCM, 60169774, -6.071653, 2.982292, 190.9764, 0.08340444, 0.02005535, 0, 0, 0
EAHR, 60169793, 0, 0, 0, 0, 0, 0, 0, 0, 0, 0
FILE, @SYS/threads.txt, 576, 64, T7         PRI= 60 sp=0x24078FF8 STACK=288/752\nUART5         PRI
STAK, 60176089, 255, 255, 1536, 1308, ISR
FILE, @SYS/threads.txt, 640, 64, = 60 sp=0x240784B0 STACK=344/752\nUART1         PRI= 60 sp=0x2407
FILE, @SYS/threads.txt, 704, 64, 78E8 STACK=336/752\nUART8         PRI= 60 sp=0x24076D20 STACK=408
IMU, 60208590, 0, -0.000175606, -0.0005306252, -0.0003288442, 0.5018359, 1.078311, -9.828206, 0, 0, 49.15459, 1, 1, 2021, 2021
IMU, 60208590, 1, -0.0007871929, -0.0001164212, -0.001473823, 0.5372549, 1.154032, -9.786902, 0, 0, 49, 1, 1, 1998, 2050
FILE, @SYS/threads.txt, 768, 64, /752\nOTG2          PRI= 60 sp=0x24075DD8 STACK=480/752\nUART6    
SURF, 60217548, 0, 2, 0, 0, -0.05139421
SURF, 60217558, 1, 2, 0, 0, -0.05139421
FILE, @SYS/threads.txt, 832, 64,      PRI=181 sp=0x24074F58 STACK=336/752\nIOMCU         PRI=183 s
FILE, @SYS/threads.txt, 896, 64, p=0x2406AB30 STACK=920/1456\nlog_io        PRI= 59 sp=0x2406B2C0 
FILE, @SYS/threads.txt, 960, 64, STACK=712/2016\nI2C1          PRI=176 sp=0x2406BBD0 STACK=984/145
IMU, 60247548, 0, 0.0002771117, -0.001473845, -0.000127832, 0.5034027, 1.075902, -9.824604, 0, 0, 48.6715, 1, 1, 2021, 2021
IMU, 60247548, 1, 0.0008788733, 0.004884806, -0.001600612, 0.5279908, 1.155113, -9.796088, 0, 0, 49, 1, 1, 1998, 2050
FILE, @SYS/threads.txt, 1024, 64, 6\nI2C0          PRI=176 sp=0x2406C4A0 STACK=984/1456\nSPI1       
FILE, @SYS/threads.txt, 1088, 40,    PRI=181 sp=0x24070FC0 STACK=824/1456\n
POWR, 60267481, 4.965207, 5.038241, 1, 1, 6
MCU, 60267481, 49.22465, 3.353044, 3.34474, 3.359547
BAT, 60267494, 0, 15.07439, 15.40515, 1.091749, 16.94514, 0.2564625, 0, 0.3029681, 99, 1, 0
MAG, 60267506, 0, -489, 74, 139, -382, 367, 647, 0, 0, 0, 1, 60267505
MAG, 60267506, 1, -394, 168, 119, 59, 22, -40, 0, 0, 0, 1, 60267503
SURF, 60267524, 0, 2, 0, 0, -0.04774542
SURF, 60267532, 1, 2, 0, 0, -0.04774542
BARO, 60267552, 0, -0.002929688, -0.002929688, 93566.44, 53.35, -0.1957703, 60267, 0, 35, 1
CTUN, 60267565, 0, 0, 0, 0.431117, 0, 0.02402728, 0, NaN, 0, 24.35374, 0, 1
ATT, 60267746, -20.70462, -6.311139, 22.20741, 2.80648, 191.0238, 191.0238, 3
ANG, 60267144, -20.70462, -6.311139, 22.20741, 2.80648, 191.0238, 191.0238, 0.002505
RATE, 60267157, -67.5416, 0.01168086, -0.15917, 82.35664, -0.0006223409, 0.1938744, 21.51781, -0.01050315, 0.0676332, 0.1900673, -0.1423836, 0, 0
PIDR, 60267763, -1.178829, 0.0002038695, -1.179033, -0.1591695, 0, -5.168554E-07, 0, 0, 1, 0.2494311, 9
PIDP, 60267767, 1.437406, -1.08619E-05, 1.437417, 0.1940513, 0, -0.0001769187, 0, 0, 1, 0.2509581, 9
PIDY, 60267771, 0.3755288, -0.0001833146, 0.37574, 0.0676332, 0, 0, 0, 0, 1, 0.02348069, 9
PIDA, 60267774, 0.1900673, 0.1900673, 0, 0, -431.1174, 0, 0, 0, 1, 0, 13
XKF4, 60267272, 0, 0, 0, 0, 0.01, 0, 0.00880357, 0, 0, 0, 50, 67751, 0, 0
XKF1, 60267272, 0, -6.31, 2.8, 191.02, -0.06968229, -0.01426029, -0.01108518, -0.005279205, 0, 0, -0.02402728, 0.02, -0.03, 0, 0
XKF2, 60267272, 0, 0, 0, -0.09, 0, 0, 454, 0, 172, 0, 0, 0, 0, 0, 0
XKF3, 60267272, 0, 0, 0, 0, -0.1, -0.02, 0, 0, 0, 0, 1.14, 0, 0, 1.227672E-06
XKF5, 60267272, 0, 0, 0, 0, 0, 0.06, 0.04, 0, 0, 0.5, 0.0003184281, 0.003409225, 0.01284619
XKFS, 60267272, 0, 0, 0, 0, 0, 0, 0, 0, 1
XKQ, 60267272, 0, -0.09721973, -0.01905269, -0.05712492, 0.9934395
XKF4, 60267272, 1, 0, 0, 0, 0.01, 0, 0.0089288, 0, 0, 0, 50, 67751, 0, 0
XKF1, 60267272, 1, -6.79, 3.12, 191.17, -0.008881725, 0.01851116, -0.01211569, -0.006680299, 0, 0, -0.02501968, 0, -0.03, -0.02, 0
XKF2, 60267272, 1, 0, 0, -0.07, 0, 0, 454, 0, 172, 0, 0, 0, 0, 0, 0
XKF3, 60267272, 1, 0, 0, 0, 0, 0.02, 0, 0, 0, 0, 1.14, 0, 3.738235E-05, 6.841471E-08
XKFS, 60267272, 1, 0, 0, 0, 0, 0, 0, 0, 1
XKQ, 60267272, 1, -0.09880793, -0.02128215, -0.06164935, 0.9929669
AHR2, 60267898, -6.21, 3.04, 190.95, 0.01, 15.3693615, 75.1238025, -0.09672157, -0.02125475, -0.05650799, 0.9934787
POS, 60267903, 15.3693611, 75.1238021, 671.19, -0.002929688, 0.02402728
MOTB, 60267907, 1, 1, 1, 0.0431117, 0, 2
RCIN, 60267914, 1102, 1927, 1102, 1927, 1927, 2000, 1000, 1000, 2000, 1495, 1000, 875, 875, 875
RCI2, 60267920, 875, 875, 0, 1
RCOU, 60267926, 1000, 1000, 1000, 1000, 0, 0, 0, 0, 1495, 0, 0, 0, 0, 0
RCO2, 60267930, 0, 0, 0, 0
VIBE, 60267934, 0, 0.007659702, 0.007189008, 0.008900392, 0
VIBE, 60267934, 1, 0.06661089, 0.05276651, 0.06957708, 0
CTRL, 60267942, 0.1591302, 0.0001418649, 0.1940437, 0.0001865819, 0.06761502
DCM, 60269755, -6.222238, 3.049126, 190.9552, 0.08340444, 0.02017892, 0, 0, 0
EAHR, 60269774, 0, 0, 0, 0, 0, 0, 0, 0, 0, 0
STAK, 60277096, 0, 182, 7168, 4000, ArduCopter
IMU, 60287568, 0, 0.0003524256, -0.0009800324, -0.0006197505, 0.5091911, 1.074446, -9.830392, 0, 0, 49.15459, 1, 1, 2021, 2021
IMU, 60287568, 1, -0.0002820693, -0.0001202517, 0.0008682283, 0.5449362, 1.14775, -9.78231, 0, 0, 49, 1, 1, 1998, 2050
FILE, @SYS/timers.txt, 0, 64, TIMERV1\nTIM5  CLK= 200Mhz MODE=  PWM FREQ=       7 TGT=       8\n
FILE, @SYS/timers.txt, 64, 64, TIM4  CLK= 200Mhz MODE=  PWM FREQ=       7 TGT=       8\nTIM1  CL
GPS, 60308708, 0, 3, 484465000, 2379, 9, 1.11, 15.3693617, 75.1238027, 671.32, 0.306, 270.5699, 0.138, 0, 1
GPA, 60308708, 0, 1.82, 3.73, 6.02, 1.07, 0, 1, 60293, 200, 593.31, 0, 0
FILE, @SYS/timers.txt, 128, 48, K= 200Mhz MODE=  PWM FREQ=       7 TGT=       8\n
SURF, 60317490, 0, 2, 0, 0, -0.04424074
SURF, 60317499, 1, 2, 0, 0, -0.04424074
IMU, 60327573, 0, 0.0006785036, -0.001492198, -8.908339E-05, 0.508372, 1.078478, -9.826701, 0, 0, 49.15459, 1, 1, 2021, 2021
IMU, 60327573, 1, -0.0004532896, 0.002321167, -0.001410046, 0.5349547, 1.145952, -9.776117, 0, 0, 49, 1, 1, 1998, 2050
FILE, @ROMFS/hwdef.dat, 0, 64, MCU STM32H7xx STM32H743xx\nOSCILLATOR_HZ 16000000\nSTM32_ST_USE_TI
FILE, @ROMFS/hwdef.dat, 64, 64, MER 2\nUSB_VENDOR 0x3162\nUSB_PRODUCT 0x0053\nUSB_STRING_MANUFACTUR
FILE, @ROMFS/hwdef.dat, 128, 64, ER "Holybro"\nAPJ_BOARD_ID 56\nFLASH_RESERVE_START_KB 128\nenv USE_
POWR, 60367512, 4.967322, 5.035824, 1, 1, 6
MCU, 60367512, 49.24453, 3.352903, 3.345864, 3.358697
BAT, 60367544, 0, 15.07805, 15.40754, 1.087538, 16.97537, 0.2569182, 0, 0.3029681, 99, 1, 0
MAG, 60367558, 0, -487, 74, 141, -382, 367, 647, 0, 0, 0, 1, 60367556
MAG, 60367558, 1, -393, 168, 117, 59, 22, -40, 0, 0, 0, 1, 60367555
SURF, 60367578, 0, 2, 0, 0, -0.04087663
SURF, 60367587, 1, 2, 0, 0, -0.04087663
BARO, 60367607, 0, 0.144104, 0.144104, 93564.79, 53.35, 0.07638931, 60367, 0, 35, 1
CTUN, 60367620, 0, 0, 0, 0.431117, 0, 0.02518641, 0.14, NaN, 0, 24.48167, 0, 1
ATT, 60367789, -20.70462, -6.312036, 22.20741, 2.80217, 191.0128, 191.0128, 3
ANG, 60367139, -20.70462, -6.312037, 22.20741, 2.80217, 191.0128, 191.0128, 0.0025
RATE, 60367152, -67.5388, -0.03038462, -0.1590287, 82.37497, -0.05614933, 0.1941921, 21.52168, -0.003316075, 0.06764951, 0.1900673, -0.1914024, 0, 0
PIDR, 60367806, -1.178788, -0.0005303117, -1.178257, -0.1590648, 0, 3.600955E-05, 0, 0, 1, 0.2256675, 9
PIDP, 60367810, 1.437688, -0.0009799907, 1.438668, 0.1942201, 0, -2.803583E-05, 0, 0, 1, 0.2270491, 9
PIDY, 60367814, 0.37561, -5.787644E-05, 0.3758306, 0.06764951, 0, 0, 0, 0, 1, 0.02124365, 9
PIDA, 60367818, 0.1900673, 0.1900673, 0, 0, -431.1174, 0, 0, 0, 1, 0, 13
XKF4, 60367293, 0, 0, 0, 0, 0.01, 0, 0.008870116, 0, 0, 0, 50, 67751, 1, 0
XKF1, 60367293, 0, -6.31, 2.8, 191.01, -0.07254805, -0.01498067, -0.01120989, -0.005011206, 0, 0, -0.02518641, 0.02, -0.03, 0, 0
XKF2, 60367293, 0, 0, 0, -0.09, 0, 0, 454, 0, 172, 0, 0, 0, 0, 0, 0
XKF3, 60367293, 0, 0, 0, 0, -0.11, -0.02, -0.01, 0, 0, 0, 1.23, 0, 0, 1.390267E-06
XKF5, 60367293, 0, 0, 0, 0, 0, 0.06, 0.04, 0, 0, 0.5, 0.0003237294, 0.003279329, 0.01292293
XKFS, 60367293, 0, 0, 0, 0, 0, 0, 0, 0, 1
XKQ, 60367293, 0, -0.09712254, -0.01902004, -0.05712732, 0.9934495
XKF4, 60367293, 1, 0, 0, 0, 0.01, 0, 0.008995208, 0, 0, 0, 50, 67751, 1, 0
XKF1, 60367293, 1, -6.8, 3.12, 191.17, -0.01009817, 0.01909378, -0.01147541, -0.005643046, 0, 0, -0.02622801, 0, -0.03, -0.02, 0
XKF2, 60367293, 1, 0, 0, -0.07, 0, 0, 454, 0, 172, 0, 0, 0, 0, 0, 0
XKF3, 60367293, 1, 0, 0, 0, 0, 0.02, -0.01, 0, 0, 0, 1.25, 0, 3.738235E-05, 8.673092E-07
XKFS, 60367293, 1, 0, 0, 0, 0, 0, 0, 0, 1
XKQ, 60367293, 1, -0.09872627, -0.02129385, -0.06165332, 0.9929746
AHR2, 60367890, -6.23, 3.11, 190.94, 0, 15.3693621, 75.1238027, -0.09663016, -0.02183414, -0.05668895, 0.9934648
POS, 60367895, 15.3693617, 75.1238027, 671.32, 0.144104, 0.02518641
MOTB, 60367900, 1, 1, 1, 0.0431117, 0, 2
RCIN, 60367906, 1102, 1927, 1102, 1927, 1927, 2000, 1000, 1000, 2000, 1495, 1000, 875, 875, 875
RCI2, 60367910, 875, 875, 0, 1
RCOU, 60367916, 1000, 1000, 1000, 1000, 0, 0, 0, 0, 1495, 0, 0, 0, 0, 0
RCO2, 60367919, 0, 0, 0, 0
VIBE, 60367924, 0, 0.008140922, 0.007839079, 0.008705297, 0
VIBE, 60367924, 1, 0.0611616, 0.05253056, 0.06907871, 0
CTRL, 60367932, 0.1591246, 0.0001215491, 0.19408, 0.0001609684, 0.06762753
IMU, 60367942, 0, -2.770253E-05, -0.001568162, -0.0001447097, 0.5094916, 1.079641, -9.824533, 0, 0, 48.6715, 1, 1, 2021, 2021
IMU, 60367942, 1, -0.001105737, -0.006054464, -0.0001289873, 0.5414649, 1.15169, -9.799851, 0, 0, 49, 1, 1, 1998, 2050
DCM, 60369802, -6.231108, 3.116738, 190.9411, 0.08675628, 0.02023091, 0, 0, 0
EAHR, 60369821, 0, 0, 0, 0, 0, 0, 0, 0, 0, 0
FILE, @ROMFS/hwdef.dat, 192, 64, ALT_RAM_MAP 1\nFLASH_SIZE_KB 2048\nenv OPTIMIZE -O2\nSERIAL_ORDER O
STAK, 60377581, 1, 1, 496, 288, idle
FILE, @ROMFS/hwdef.dat, 256, 64, TG1 UART7 UART5 USART1 UART8 USART2 USART3 OTG2\nPA11 OTG_FS_DM O
FILE, @ROMFS/hwdef.dat, 320, 64, TG1\nPA12 OTG_FS_DP OTG1\nPA9 VBUS INPUT OPENDRAIN\nPA13 JTMS-SWDIO
IMU, 60408545, 0, 0.000621789, -0.0009846452, -0.0007993534, 0.5041867, 1.074751, -9.828225, 0, 0, 49.15459, 1, 1, 2021, 2021
IMU, 60408545, 1, -0.001006518, -0.002156493, 0.0003807953, 0.5556283, 1.151921, -9.814518, 0, 0, 49, 1, 1, 1998, 2050
FILE, @ROMFS/hwdef.dat, 384, 64,  SWD\nPA14 JTCK-SWCLK SWD\nPE8  UART7_TX UART7\nPE7  UART7_RX UART7
SURF, 60417513, 0, 2, 0, 0, -0.03765076
SURF, 60417522, 1, 2, 0, 0, -0.03765076
FILE, @ROMFS/hwdef.dat, 448, 64, \nPE9  UART7_RTS UART7 LOW PULLDOWN\nPE10 UART7_CTS UART7\nPC12 UAR
FILE, @ROMFS/hwdef.dat, 512, 64, T5_TX UART5\nPD2 UART5_RX UART5\nPC8 UART5_RTS UART5 LOW PULLDOWN\n
FILE, @ROMFS/hwdef.dat, 576, 64, PC9 UART5_CTS UART5\nPB6  USART1_TX USART1\nPA10 USART1_RX USART1\n
IMU, 60447578, 0, 0.0002965495, -0.001770053, -0.0004263188, 0.5102497, 1.075984, -9.82748, 0, 0, 48.6715, 1, 1, 2021, 2021
IMU, 60447578, 1, 0.001738626, 0.001223087, -0.001854671, 0.5266215, 1.155512, -9.80707, 0, 0, 49, 1, 1, 1998, 2050
FILE, @ROMFS/hwdef.dat, 640, 64, PE1 UART8_TX UART8\nPE0 UART8_RX UART8\nPD5 USART2_TX USART2\nPA3 U
FILE, @ROMFS/hwdef.dat, 704, 64, SART2_RX USART2\nPD8 USART3_TX USART3\nPD9 USART3_RX USART3\nPC6 US
POWR, 60467533, 4.966415, 5.033406, 1, 1, 6
MCU, 60467533, 49.16501, 3.352903, 3.34446, 3.357848
BAT, 60467546, 0, 15.07759, 15.40448, 1.078933, 17.00534, 0.2573701, 0, 0.3029681, 99, 1, 0
MAG, 60467558, 0, -483, 73, 149, -382, 367, 647, 0, 0, 0, 1, 60467557
MAG, 60467558, 1, -395, 168, 119, 59, 22, -40, 0, 0, 0, 1, 60467555
SURF, 60467602, 0, 2, 0, 0, -0.03455248
SURF, 60467611, 1, 2, 0, 0, -0.03455248
BARO, 60467649, 0, 0.09997559, 0.09997559, 93565.26, 53.35, 0.3245354, 60467, 0, 35, 1
CTUN, 60467662, 0, 0, 0, 0.431117, 0, 0.02668357, 0.09, NaN, 0, 24.48167, 0, 1
ATT, 60467817, -20.70462, -6.312039, 22.20741, 2.798611, 191.0013, 191.0013, 3
ANG, 60467143, -20.70462, -6.312039, 22.20741, 2.798611, 191.0013, 191.0013, 0.002504
RATE, 60467157, -67.53981, 0.01283133, -0.1592287, 82.38996, -0.03422256, 0.1941331, 21.52672, -0.02342139, 0.06767334, 0.1900673, 0.183773, 0, 0
PIDR, 60467848, -1.178778, 0.000223949, -1.179002, -0.1591653, 0, -6.33725E-05, 0, 0, 1, 0.2041661, 9
PIDP, 60467852, 1.437961, -0.0005972963, 1.438559, 0.1942054, 0, -7.233936E-05, 0, 0, 1, 0.205416, 9
PIDY, 60467856, 0.3756875, -0.0004087804, 0.375963, 0.06767334, 0, 0, 0, 0, 1, 0.01921957, 9
PIDA, 60467859, 0.1900673, 0.1900673, 0, 0, -431.1174, 0, 0, 0, 1, 0, 13
XKF4, 60467316, 0, 0, 0, 0, 0.01, 0, 0.008936764, 0, 0, 0, 50, 67751, 1, 0
XKF1, 60467316, 0, -6.31, 2.79, 191, -0.0753638, -0.01551367, -0.01143078, -0.00968207, 0, 0, -0.02668357, 0.02, -0.03, 0, 0
XKF2, 60467316, 0, 0, 0, -0.09, 0, 0, 454, 0, 172, 0, 0, 0, 0, 0, 0
XKF3, 60467316, 0, 0, 0, 0, -0.12, -0.02, 0.12, 0, 0, 0, 1.23, 0, 0, 4.117862E-05
XKF5, 60467316, 0, 0, 0, 0, 0, 0.06, 0.04, 0, 0, 0.5, 0.0003302193, 0.003138428, 0.01125167
XKFS, 60467316, 0, 0, 0, 0, 0, 0, 0, 0, 1
XKQ, 60467316, 0, -0.09702104, -0.01899492, -0.0571225, 0.9934602
XKF4, 60467316, 1, 0, 0, 0, 0.01, 0, 0.009061031, 0, 0, 0, 50, 67751, 1, 0
XKF1, 60467316, 1, -6.79, 3.11, 191.16, -0.01063315, 0.01924578, -0.01277644, -0.01133999, 0, 0, -0.02784541, 0, -0.03, -0.02, 0
XKF2, 60467316, 1, 0, 0, -0.07, 0, 0, 454, 0, 172, 0, 0, 0, 0, 0, 0
XKF3, 60467316, 1, 0, 0, 0, 0, 0.02, 0.12, 0, 0, 0, 1.24, 0, 3.738235E-05, 3.985083E-05
XKFS, 60467316, 1, 0, 0, 0, 0, 0, 0, 0, 1
XKQ, 60467316, 1, -0.09864547, -0.02125603, -0.06163602, 0.9929845
AHR2, 60467929, -6.14, 3.18, 190.93, 0.14, 15.3693624, 75.1238027, -0.09656774, -0.02251817, -0.05599492, 0.9934949
POS, 60467934, 15.3693617, 75.1238027, 671.32, 0.09997559, 0.02668357
MOTB, 60467939, 1, 1, 1, 0.0431117, 0, 2
RCIN, 60467945, 1102, 1927, 1102, 1927, 1927, 2000, 1000, 1000, 2000, 1495, 1000, 875, 875, 875
RCI2, 60467949, 875, 875, 0, 1
RCOU, 60467955, 1000, 1000, 1000, 1000, 0, 0, 0, 0, 1495, 0, 0, 0, 0, 0
RCO2, 60467958, 0, 0, 0, 0
VIBE, 60467963, 0, 0.007916636, 0.007654542, 0.00845529, 0
VIBE, 60467963, 1, 0.06000063, 0.05746793, 0.07053486, 0
CTRL, 60467971, 0.1591223, 0.0001093739, 0.1941164, 0.0001418791, 0.06763937
DCM, 60469772, -6.144722, 3.186762, 190.9322, 0.08675628, 0.01987426, 0, 0, 0
EAHR, 60469791, 0, 0, 0, 0, 0, 0, 0, 0, 0, 0
FILE, @ROMFS/hwdef.dat, 768, 64, ART6_TX USART6\nPC7 USART6_RX USART6\nIOMCU_UART USART6\nPC5 BATT_V
STAK, 60477712, 2, 60, 1200, 880, UART_RX
FILE, @ROMFS/hwdef.dat, 832, 64, OLTAGE_SENS ADC1 SCALE(1)\nPC4 BATT_CURRENT_SENS ADC1 SCALE(1)\nPB
IMU, 60487601, 0, -6.808024E-05, -0.0007510186, -0.0002342236, 0.5102886, 1.076282, -9.827293, 0, 0, 49.15459, 1, 1, 2021, 2021
IMU, 60487601, 1, 0.001306353, -0.0003742125, -0.001381948, 0.5553156, 1.147751, -9.792782, 0, 0, 49, 1, 1, 1998, 2050
FILE, @ROMFS/hwdef.dat, 896, 64, 1 BATT2_VOLTAGE_SENS ADC1 SCALE(1)\nPA2 BATT2_CURRENT_SENS ADC1 S
FILE, @ROMFS/hwdef.dat, 960, 64, CALE(1)\ndefine HAL_BATT_VOLT_PIN 8\ndefine HAL_BATT_CURR_PIN 4\nde
GPS, 60508739, 0, 3, 484465200, 2379, 9, 1.11, 15.3693619, 75.1238025, 671.19, 0.197, 270.5699, 0.02, 0, 1
GPA, 60508739, 0, 1.82, 3.73, 6.01, 0.95, 0, 1, 60493, 200, 593.18, 0, 0
SURF, 60517494, 0, 2, 0, 0, -0.03156232
SURF, 60517504, 1, 2, 0, 0, -0.03156232
FILE, @ROMFS/hwdef.dat, 1024, 64, fine HAL_BATT_VOLT_SCALE 18.18\ndefine HAL_BATT_CURR_SCALE 36.36\n
IMU, 60527640, 0, 0.0005357437, -0.0008417466, -0.0003615443, 0.5148157, 1.074871, -9.825675, 0, 0, 49.15459, 1, 1, 2021, 2021
IMU, 60527640, 1, 0.0005435703, 0.0001285161, -0.001465666, 0.5376161, 1.157342, -9.811326, 0, 0, 49, 1, 1, 1998, 2050
FILE, @ROMFS/hwdef.dat, 1088, 64, PA4 VDD_5V_SENS  ADC1 SCALE(2)\nPA5 SPI1_SCK SPI1\nPA6 SPI1_MISO S
FILE, @ROMFS/hwdef.dat, 1152, 64, PI1\nPA7 SPI1_MOSI SPI1\nPC13 ICM42688_CS CS\nPC14 BMI055_G_CS CS\nP
FILE, @ROMFS/hwdef.dat, 1216, 64, C15 BMI055_A_CS CS\nPE4  BMI055_DRDY_A INPUT\nPE5  BMI055_DRDY_G I
FILE, @ROMFS/hwdef.dat, 1280, 64, NPUT\nPE6  ICM42688_DRDY INPUT\nPD3 SPI2_SCK SPI2\nPC2 SPI2_MISO SP
POWR, 60567542, 4.966113, 5.038241, 1, 1, 6
MCU, 60567542, 49.20477, 3.352903, 3.344179, 3.359122
BAT, 60567556, 0, 15.07778, 15.40455, 1.078566, 17.03531, 0.2578219, 0, 0.3029681, 99, 1, 0
MAG, 60567568, 0, -483, 74, 144, -382, 367, 647, 0, 0, 0, 1, 60567567
MAG, 60567568, 1, -394, 169, 120, 59, 22, -40, 0, 0, 0, 1, 60567564
SURF, 60567586, 0, 2, 0, 0, -0.02867546
SURF, 60567598, 1, 2, 0, 0, -0.02867546
BARO, 60567674, 0, 0.2088013, 0.2088013, 93564.04, 53.35, 0.4577065, 60567, 0, 35, 1
CTUN, 60567698, 0, 0, 0, 0.431117, 0, 0.02855225, 0.2, NaN, 0, 24.35002, 0, 1
DU32, 60567715, 7, 6349272
TERR, 60567743, 2, 15.3693619, 75.1238025, 100, 646.84, 24.35002, 0, 336, 0
ATT, 60567832, -20.70462, -6.312708, 22.20741, 2.796454, 190.9909, 190.9909, 3
ANG, 60567139, -20.70462, -6.312708, 22.20741, 2.796454, 190.9909, 190.9909, 0.0025
RATE, 60567152, -67.53743, -0.00254024, -0.1590417, 82.39913, 0.01746853, 0.1939774, 21.52839, -0.01691502, 0.06766706, 0.1900673, -0.2771378, 0, 0
PIDR, 60567848, -1.17875, -4.433555E-05, -1.178706, -0.1591253, 0, 8.358951E-05, 0, 0, 1, 0.1847148, 9
PIDP, 60567852, 1.438143, 0.0003048834, 1.437838, 0.1941081, 0, -0.0001307673, 0, 0, 1, 0.1858455, 9
PIDY, 60567856, 0.3757402, -0.0002952229, 0.3759281, 0.06766706, 0, 0, 0, 0, 1, 0.01738847, 9
PIDA, 60567860, 0.1900673, 0.1900673, 0, 0, -431.1174, 0, 0, 0, 1, 0, 13
XKF4, 60567303, 0, 0, 0, 0, 0.01, 0, 0.009003656, 0, 0, 0, 50, 67751, 1, 0
XKF1, 60567303, 0, -6.31, 2.79, 190.99, -0.07851413, -0.01605172, -0.01146754, -0.01675069, 0, 0, -0.02855225, 0.02, -0.03, 0, 0
XKF2, 60567303, 0, 0, 0, -0.09, 0, 0, 454, 0, 172, 0, 0, 0, 0, 0, 0
XKF3, 60567303, 0, 0, 0, 0, -0.13, -0.02, 0.08, 0, 0, 0, 1.09, 0, 0, 1.649223E-05
XKF5, 60567303, 0, 0, 0, 0, 0, 0.06, 0.04, 0, 0, 0.5, 0.0003138575, 0.003016494, 0.01043759
XKFS, 60567303, 0, 0, 0, 0, 0, 0, 0, 0, 1
XKQ, 60567303, 0, -0.09693047, -0.01898081, -0.05712481, 0.9934692
XKF4, 60567303, 1, 0, 0, 0, 0.01, 0, 0.009126282, 0, 0, 0, 50, 67751, 1, 0
XKF1, 60567303, 1, -6.79, 3.11, 191.14, -0.01104897, 0.01972494, -0.01339517, -0.01893071, 0, 0, -0.02988239, 0, -0.03, -0.02, 0
XKF2, 60567303, 1, 0, 0, -0.07, 0, 0, 454, 0, 172, 0, 0, 0, 0, 0, 0
XKF3, 60567303, 1, 0, 0, 0, 0, 0.03, 0.07, 0, 0, 0, 1.09, 0, 3.738235E-05, 1.564663E-05
XKFS, 60567303, 1, 0, 0, 0, 0, 0, 0, 0, 1
XKQ, 60567303, 1, -0.09852517, -0.02125047, -0.06162441, 0.9929973
AHR2, 60567979, -6.1, 3.17, 190.92, 0.09, 15.3693622, 75.1238025, -0.09647648, -0.02249472, -0.05563368, 0.9935246
POS, 60567984, 15.3693619, 75.1238025, 671.19, 0.2088013, 0.02855225
MOTB, 60567989, 1, 1, 1, 0.0431117, 0, 2
RCIN, 60567995, 1102, 1927, 1102, 1927, 1927, 2000, 1000, 1000, 2000, 1495, 1000, 875, 875, 875
RCI2, 60567998, 875, 875, 0, 1
RCOU, 60568005, 1000, 1000, 1000, 1000, 0, 0, 0, 0, 1495, 0, 0, 0, 0, 0
RCO2, 60568008, 0, 0, 0, 0
VIBE, 60568012, 0, 0.008273382, 0.007825471, 0.00763481, 0
VIBE, 60568012, 1, 0.06167757, 0.05412993, 0.067634, 0
CTRL, 60568021, 0.1591195, 0.0001034686, 0.1941421, 0.0001350985, 0.06764935
IMU, 60568031, 0, 0.0004575031, -0.0002841176, -0.0003721762, 0.5062643, 1.074391, -9.824295, 0, 0, 49.15459, 1, 1, 2021, 2021
IMU, 60568031, 1, 0.000217948, -0.001600417, -0.002072786, 0.5234159, 1.163598, -9.806743, 0, 0, 49, 1, 1, 1998, 2050
UART, 60568169, 1, 2693, 162
UART, 60568187, 2, 45, 0
UART, 60568191, 3, 0, 653
UART, 60568195, 100, 8339, 5070
DCM, 60569791, -6.106046, 3.175893, 190.923, 0.08030599, 0.01949659, 0, 0, 0
EAHR, 60569813, 0, 0, 0, 0, 0, 0, 0, 0, 0, 0
FILE, @ROMFS/hwdef.dat, 1344, 64, I2\nPC3 SPI2_MOSI SPI2\nPD4 FRAM_CS CS\nPA8  TIM1_CH1 TIM1 PWM(1) G
STAK, 60577707, 3, 60, 752, 480, OTG1
FILE, @ROMFS/hwdef.dat, 1408, 64, PIO(50)\nPE11 TIM1_CH2 TIM1 PWM(2) GPIO(51)\nPE13 TIM1_CH3 TIM1 PW
RAD, 60595450, 66, 0, 100, 99, 0, 0, 0
FILE, @ROMFS/hwdef.dat, 1472, 64, M(3) GPIO(52)\nPE14 TIM1_CH4 TIM1 PWM(4) GPIO(53)\nPD14 TIM4_CH3 T
IMU, 60608630, 0, 0.0003397345, -0.002376114, -0.0003672772, 0.5101861, 1.078218, -9.827824, 0, 0, 49.15459, 1, 1, 2021, 2021
IMU, 60608630, 1, 0.0003501591, -0.0007784213, -3.527715E-05, 0.5261833, 1.147433, -9.803079, 0, 0, 49, 1, 1, 1998, 2050
FILE, @ROMFS/hwdef.dat, 1536, 64, IM4 PWM(5) GPIO(54)\nPD15 TIM4_CH4 TIM4 PWM(6) GPIO(55)\nPA0  TIM5
SURF, 60617479, 0, 2, 0, 0, -0.02588102
SURF, 60617492, 1, 2, 0, 0, -0.02588102
FILE, @ROMFS/hwdef.dat, 1600, 64, _CH1 TIM5 PWM(7) GPIO(56)\nPA1  TIM5_CH2 TIM5 PWM(8) GPIO(57)\nPD0
FILE, @ROMFS/hwdef.dat, 1664, 64,   CAN1_RX CAN1\nPD1  CAN1_TX CAN1\nPB5  CAN2_RX CAN2\nPB13 CAN2_TX 
MAV, 60642535, 1, 2685, 496, 0, 6, 0, 0
FILE, @ROMFS/hwdef.dat, 1728, 64, CAN2\nPB7 I2C1_SDA I2C1\nPB8 I2C1_SCL I2C1\nPB10 I2C2_SCL I2C2\nPB11
IMU, 60647572, 0, -0.0001520028, -0.001678392, -0.0006007152, 0.5008827, 1.07951, -9.834949, 0, 0, 49.15459, 1, 1, 2021, 2021
IMU, 60647572, 1, -0.001805486, -0.003683375, -0.002803011, 0.5323616, 1.159495, -9.803538, 0, 0, 49, 1, 1, 1998, 2050
FILE, @ROMFS/hwdef.dat, 1792, 64,  I2C2_SDA I2C2\nPD12 I2C4_SCL I2C4\nPD13 I2C4_SDA I2C4\nI2C_ORDER I
POWR, 60667525, 4.966012, 5.038241, 1, 1, 6
MCU, 60667525, 49.22465, 3.352762, 3.346426, 3.358273
BAT, 60667556, 0, 15.07652, 15.40831, 1.094454, 17.06571, 0.2582803, 0, 0.3031594, 99, 1, 0
MAG, 60667568, 0, -484, 73, 149, -382, 367, 647, 0, 0, 0, 1, 60667566
MAG, 60667568, 1, -394, 168, 121, 59, 22, -40, 0, 0, 0, 1, 60667565
SURF, 60667590, 0, 2, 0, 0, -0.02317054
SURF, 60667599, 1, 2, 0, 0, -0.02317054
BARO, 60667618, 0, 0.07647705, 0.07647705, 93565.55, 53.35, 0.4374313, 60667, 0, 35, 1
CTUN, 60667631, 0, 0, 0, 0.431117, 0, 0.03108808, 0.07, NaN, 0, 24.35002, 0, 1
ATT, 60667810, -20.70462, -6.31347, 22.2074, 2.790483, 190.9799, 190.98, 3
ANG, 60667139, -20.70462, -6.31347, 22.2074, 2.790483, 190.9799, 190.98, 0.0025
RATE, 60667152, -67.53571, -0.01192367, -0.1591277, 82.42439, -0.02468843, 0.1940987, 21.53538, -0.04220251, 0.06771506, 0.1900673, 0.3697395, 0, 0
PIDR, 60667830, -1.178734, -0.0002081073, -1.178526, -0.159101, 0, -2.667999E-05, 0, 0, 1, 0.1671159, 9
PIDP, 60667834, 1.43855, -0.0004308944, 1.438981, 0.1942625, 0, -0.0001637599, 0, 0, 1, 0.168139, 9
PIDY, 60667837, 0.3758524, -0.0007365728, 0.3761948, 0.06771506, 0, 0, 0, 0, 1, 0.01573177, 9
PIDA, 60667841, 0.1900673, 0.1900673, 0, 0, -431.1174, 0, 0, 0, 1, 0, 13
XKF4, 60667296, 0, 0, 0, 0, 0.01, 0, 0.009070295, 0, 0, 0, 50, 67751, 1, 0
XKF1, 60667296, 0, -6.31, 2.79, 190.97, -0.08148127, -0.01667048, -0.0122467, -0.02523421, 0, 0, -0.03108808, 0.02, -0.03, 0, 0
XKF2, 60667296, 0, 0, 0, -0.09, 0, 0, 454, 0, 172, 0, 0, 0, 0, 0, 0
XKF3, 60667296, 0, 0, 0, 0, -0.13, -0.02, 0.18, 0, 0, 0, 1.05, 0, 0, 8.686439E-05
XKF5, 60667296, 0, 0, 0, 0, 0, 0.07, 0.04, 0, 0, 0.5, 0.0002943288, 0.002981911, 0.00874018
XKFS, 60667296, 0, 0, 0, 0, 0, 0, 0, 0, 1
XKQ, 60667296, 0, -0.09683293, -0.01893384, -0.0571247, 0.9934795
XKV1, 60667296, 0, 0.0004962365, 1.010911E-05, 8.71164E-06, 4.818086E-06, 0.1407466, 0.1396251, 0.02334127, 0.3440334, 0.3435887, 0.3001896, 4.530952E-11, 4.847656E-11
XKV2, 60667296, 0, 4.084873E-10, 6.186695E-06, 6.186222E-06, 6.190554E-08, 0, 0, 0, 0, 0, 0, 0, 0
XKF4, 60667296, 1, 0, 0, 0, 0.01, 0, 0.009191129, 0, 0, 0, 50, 67751, 1, 0
XKF1, 60667296, 1, -6.79, 3.12, 191.13, -0.01138368, 0.02043741, -0.01406879, -0.02730203, 0, 0, -0.03262533, 0, -0.03, -0.02, 0
XKF2, 60667296, 1, 0, 0, -0.07, 0, 0, 454, 0, 172, 0, 0, 0, 0, 0, 0
XKF3, 60667296, 1, 0, 0, 0, 0, 0.03, 0.18, 0, 0, 0, 1.06, 0, 3.738235E-05, 8.481752E-05
XKFS, 60667296, 1, 0, 0, 0, 0, 0, 0, 0, 1
