FMT, 128, 89, FMT, BBnNZ, Type,Length,Name,Format,Columns
FMT, 119, 76, UNIT, QbZ, TimeUS,Id,Label
FMT, 118, 44, FMTU, QBNN, TimeUS,FmtType,UnitIds,MultIds
FMT, 120, 20, MULT, Qbd, TimeUS,Id,Mult
FMT, 32, 35, PARM, QNff, TimeUS,Name,Value,Default
FMT, 94, 51, GPS, QBBIHBcLLeffffB, TimeUS,I,Status,GMS,GWk,NSats,HDop,Lat,Lng,Alt,Spd,GCrs,VZ,Yaw,U
FMT, 95, 39, GPA, QBCCCCfBIHeHH, TimeUS,I,VDop,HAcc,VAcc,SAcc,YAcc,VV,SMS,Delta,AEl,RTCMFU,RTCMFD
FMT, 99, 22, UBX1, QBHBBHI, TimeUS,Instance,noisePerMS,jamInd,aPower,agcCnt,config
FMT, 100, 16, UBX2, QBbBbB, TimeUS,Instance,ofsI,magI,ofsQ,magQ
FMT, 96, 42, GRAW, QIHBBddfBbB, TimeUS,WkMS,Week,numSV,sv,cpMes,prMes,doMes,mesQI,cno,lli
FMT, 97, 24, GRXH, QdHbBB, TimeUS,rcvTime,week,leapS,numMeas,recStat
FMT, 98, 41, GRXS, QddfBBBHBBBBB, TimeUS,prMes,cpMes,doMes,gnss,sv,freq,lock,cno,prD,cpD,doD,trk
FMT, 101, 23, SBPH, QIII, TimeUS,CrcError,LastInject,IARhyp
FMT, 102, 67, SBRH, QQQQQQQQ, TimeUS,msg_flag,1,2,3,4,5,6
FMT, 103, 123, SBRM, QQQQQQQQQQQQQQQ, TimeUS,msg_flag,1,2,3,4,5,6,7,8,9,10,11,12,13
FMT, 104, 23, SBRE, QHIiBB, TimeUS,GWk,GMS,ns_residual,level,quality
FMT, 59, 75, MSG, QZ, TimeUS,Message
FMT, 60, 39, RCIN, QHHHHHHHHHHHHHH, TimeUS,C1,C2,C3,C4,C5,C6,C7,C8,C9,C10,C11,C12,C13,C14
FMT, 61, 18, RCI2, QHHHB, TimeUS,C15,C16,OMask,Flags
FMT, 62, 39, RCOU, QHHHHHHHHHHHHHH, TimeUS,C1,C2,C3,C4,C5,C6,C7,C8,C9,C10,C11,C12,C13,C14
FMT, 207, 19, RCO2, QHHHH, TimeUS,C15,C16,C17,C18
FMT, 208, 39, RCO3, QHHHHHHHHHHHHHH, TimeUS,C19,C20,C21,C22,C23,C24,C25,C26,C27,C28,C29,C30,C31,C32
FMT, 63, 19, RSSI, Qff, TimeUS,RXRSSI,RXLQ
FMT, 64, 43, BARO, QBfffcfIffB, TimeUS,I,Alt,AltAMSL,Press,Temp,CRt,SMS,Offset,GndTemp,Health
FMT, 65, 24, BARD, QBfff, TimeUS,I,DynPrX,DynPrY,DynPrZ
FMT, 66, 25, CANF, QBIBBBBBBBBB, TimeUS,Bus,Id,DLC,B0,B1,B2,B3,B4,B5,B6,B7
FMT, 67, 81, CAFD, QBIBQQQQQQQQ, TimeUS,Bus,Id,DLC,D0,D1,D2,D3,D4,D5,D6,D7
FMT, 196, 50, PL, QBBfffffffIIB, TimeUS,Heal,TAcq,pX,pY,vX,vY,mX,mY,mZ,LastMeasMS,EKFOutl,Est
FMT, 68, 24, POWR, QffHHB, TimeUS,Vcc,VServo,Flags,AccFlags,Safety
FMT, 69, 27, MCU, Qffff, TimeUS,MTemp,MVolt,MVmin,MVmax
FMT, 93, 46, CMD, QHHHffffLLfB, TimeUS,CTot,CNum,CId,Prm1,Prm2,Prm3,Prm4,Lat,Lng,Alt,Frame
FMT, 92, 46, MISE, QHHHffffLLfB, TimeUS,CTot,CNum,CId,Prm1,Prm2,Prm3,Prm4,Lat,Lng,Alt,Frame
FMT, 78, 48, MAVC, QBBBBBHffffiifBB, TimeUS,TS,TC,SS,SC,Fr,Cmd,P1,P2,P3,P4,X,Y,Z,Res,WL
FMT, 79, 20, RAD, QBBBBBHH, TimeUS,RSSI,RemRSSI,TxBuf,Noise,RemNoise,RxErrors,Fixed
FMT, 81, 46, CAM, QBHIHLLeeeccC, TimeUS,I,Img,GPSTime,GPSWeek,Lat,Lng,Alt,RelAlt,GPSAlt,R,P,Y
FMT, 82, 46, TRIG, QBHIHLLeeeccC, TimeUS,I,Img,GPSTime,GPSWeek,Lat,Lng,Alt,RelAlt,GPSAlt,R,P,Y
FMT, 83, 48, MNT, QBfffffffff, TimeUS,I,DRoll,Roll,DPitch,Pitch,DYawB,YawB,DYawE,YawE,Dist
FMT, 114, 41, ARSP, QBffcffBBffB, TimeUS,I,Airspeed,DiffPress,Temp,RawPress,Offset,U,H,Hp,TR,Pri
FMT, 88, 41, BAT, QBfffffcfBBB, TimeUS,Inst,Volt,VoltR,Curr,CurrTot,EnrgTot,Temp,Res,RemPct,H,SH
FMT, 89, 40, BCL, QBfHHHHHHHHHHHH, TimeUS,Instance,Volt,V1,V2,V3,V4,V5,V6,V7,V8,V9,V10,V11,V12
FMT, 113, 35, MAG, QBhhhhhhhhhBI, TimeUS,I,MagX,MagY,MagZ,OfsX,OfsY,OfsZ,MOX,MOY,MOZ,Health,S
FMT, 122, 14, MODE, QMBB, TimeUS,Mode,ModeNum,Rsn
FMT, 116, 17, RFND, QBCBBb, TimeUS,Instance,Dist,Stat,Orient,Quality
FMT, 117, 36, DMS, QIIIIBBBBBBBBB, TimeUS,N,Dp,RT,RS,Fa,Fmn,Fmx,Pa,Pmn,Pmx,Sa,Smn,Smx
FMT, 174, 41, BCN, QBBfffffff, TimeUS,Health,Cnt,D0,D1,D2,D3,PosX,PosY,PosZ
FMT, 175, 57, PRX, QBBfffffffffff, TimeUS,Layer,He,D0,D45,D90,D135,D180,D225,D270,D315,DUp,CAn,CDis
FMT, 176, 44, PRXR, QBffffffff, TimeUS,Layer,D0,D45,D90,D135,D180,D225,D270,D315
FMT, 179, 61, PM, QHHHIIHHIIIIIIQ, TimeUS,LR,NLon,NL,MaxT,Mem,Load,ErrL,InE,ErC,SPIC,I2CC,I2CI,Ex,R
FMT, 178, 29, SRTL, QBHHBfff, TimeUS,Active,NumPts,MaxPts,Action,N,E,D
FMT, 170, 48, OABR, QBBHHHBfLLiLLi, TimeUS,Type,Act,DYaw,Yaw,DP,RChg,Mar,DLt,DLg,DAlt,OLt,OLg,OAlt
FMT, 171, 31, OADJ, QBBBBLLLL, TimeUS,State,Err,CurrPoint,TotPoints,DLat,DLng,OALat,OALng
FMT, 172, 37, SA, QBffffffB, TimeUS,State,DVelX,DVelY,DVelZ,MVelX,MVelY,MVelZ,Back
FMT, 173, 21, OAVG, QBBLL, TimeUS,version,point_num,Lat,Lon
FMT, 77, 45, SIM, QccCfLLffff, TimeUS,Roll,Pitch,Yaw,Alt,Lat,Lng,Q1,Q2,Q3,Q4
FMT, 84, 38, TERR, QBLLHffHHf, TimeUS,Status,Lat,Lng,Spacing,TerrH,CHeight,Pending,Loaded,ROfs
FMT, 86, 40, ESC, QBffffcfcf, TimeUS,Instance,RPM,RawRPM,Volt,Curr,Temp,CTot,MotTemp,Err
FMT, 87, 15, EDT2, QBBBB, TimeUS,Instance,Stress,MaxStress,Status
FMT, 85, 46, CSRV, QBfffBfffffB, TimeUS,Id,Pos,Force,Speed,Pow,PosCmd,V,A,MotT,PCBT,Err
FMT, 105, 52, PIDR, QffffffffffB, TimeUS,Tar,Act,Err,P,I,D,FF,DFF,Dmod,SRate,Flags
FMT, 106, 52, PIDP, QffffffffffB, TimeUS,Tar,Act,Err,P,I,D,FF,DFF,Dmod,SRate,Flags
FMT, 107, 52, PIDY, QffffffffffB, TimeUS,Tar,Act,Err,P,I,D,FF,DFF,Dmod,SRate,Flags
FMT, 108, 52, PIDA, QffffffffffB, TimeUS,Tar,Act,Err,P,I,D,FF,DFF,Dmod,SRate,Flags
FMT, 109, 52, PIDS, QffffffffffB, TimeUS,Tar,Act,Err,P,I,D,FF,DFF,Dmod,SRate,Flags
FMT, 110, 52, PIDN, QffffffffffB, TimeUS,Tar,Act,Err,P,I,D,FF,DFF,Dmod,SRate,Flags
FMT, 111, 52, PIDE, QffffffffffB, TimeUS,Tar,Act,Err,P,I,D,FF,DFF,Dmod,SRate,Flags
FMT, 112, 56, DSTL, QBfLLeccfeffff, TimeUS,Stg,THdg,Lat,Lng,Alt,XT,Travel,L1I,Loiter,Des,P,I,D
FMT, 161, 32, ACC, QBQfff, TimeUS,I,SampleUS,AccX,AccY,AccZ
FMT, 162, 32, GYR, QBQfff, TimeUS,I,SampleUS,GyrX,GyrY,GyrZ
FMT, 163, 54, IMU, QBffffffIIfBBHH, TimeUS,I,GyrX,GyrY,GyrZ,AccX,AccY,AccZ,EG,EA,T,GH,AH,GHz,AHz
FMT, 166, 28, VIBE, QBfffI, TimeUS,IMU,VibeX,VibeY,VibeZ,Clip
FMT, 164, 31, ISBH, QHBBHHQf, TimeUS,N,type,instance,mul,smp_cnt,SampleUS,smp_rate
FMT, 165, 207, ISBD, QHHaaa, TimeUS,N,seqno,x,y,z
FMT, 129, 15, RFRH, QI, TimeUS,TF
FMT, 130, 5, RFRF, BB, FTypes,Slow
FMT, 138, 38, RFRN, IIIfIfffBBB, HLat,HLon,HAlt,E2T,AM,TX,TY,TZ,VC,EKT,Flags
FMT, 131, 4, REV2, B, Event
FMT, 132, 15, RSO2, III, Lat,Lon,Alt
FMT, 133, 11, RWA2, ff, Airspeed,uncertainty
FMT, 134, 4, REV3, B, Event
FMT, 135, 15, RSO3, III, Lat,Lon,Alt
FMT, 136, 11, RWA3, ff, Airspeed,Uncertainty
FMT, 137, 16, REY3, ffIB, yawangle,yawangleerr,timestamp_ms,type
FMT, 139, 13, RISH, HBBfBB, LR,PG,PA,LD,AC,GC
FMT, 140, 37, RISI, ffffffffBB, DVX,DVY,DVZ,DAX,DAY,DAZ,DVDT,DADT,Flags,I
FMT, 148, 5, RASH, BB, Primary,NumInst
FMT, 149, 14, RASI, fIBBB, pd,UpdateMS,H,Use,I
FMT, 141, 5, RBRH, BB, Primary,NumInst
FMT, 142, 13, RBRI, IfBB, LastUpdate,Alt,H,I
FMT, 143, 8, RRNH, hhB, GCl,MaxD,NumSensors
FMT, 144, 20, RRNI, fffHBBB, PX,PY,PZ,Dist,Orient,Status,I
FMT, 145, 5, RGPH, BB, NumInst,Primary
FMT, 146, 23, RGPI, ffffBBBB, OX,OY,OZ,Lg,Flags,Stat,NSats,I
FMT, 147, 58, RGPJ, IffffffIiiiffHB, TS,VX,VY,VZ,SA,Y,YA,YT,Lat,Lon,Alt,HA,VA,HD,I
FMT, 153, 14, RMGH, fBBBBBBB, Dec,Avail,NumInst,AutoDec,NumEna,LOE,C,FUsable
FMT, 154, 35, RMGI, IffffffBBBB, LU,OX,OY,OZ,FX,FY,FZ,UFY,H,HSF,I
FMT, 150, 33, RBCH, ffffiiiBB, PX,PY,PZ,AE,OLat,OLng,OAlt,Flags,NumInst
FMT, 151, 25, RBCI, IffffBB, LU,PX,PY,PZ,Dist,H,I
FMT, 152, 21, RVOH, fffIBB, OX,OY,OZ,Del,H,Ena
FMT, 155, 40, ROFH, ffffIffffB, FX,FY,GX,GY,Tms,PX,PY,PZ,HgtOvr,Qual
FMT, 156, 49, REPH, fffffffffIIH, PX,PY,PZ,Q1,Q2,Q3,Q4,PEr,AEr,TS,RT,D
FMT, 157, 19, RSLL, IIfI, Lat,Lng,PosAccSD,TS
FMT, 158, 25, REVH, ffffIH, VX,VY,VZ,Er,TS,D
FMT, 159, 31, RWOH, ffIffff, DA,DT,TS,PX,PY,PZ,R
FMT, 160, 53, RBOH, ffffffffIfffH, Q,DPX,DPY,DPZ,DAX,DAY,DAZ,DT,TS,OX,OY,OZ,D
FMT, 43, 37, XKF0, QBBccCCcccccccc, TimeUS,C,ID,rng,innov,SIV,TR,BPN,BPE,BPD,OFH,OFL,OFN,OFE,OFD
FMT, 44, 56, XKF1, QBccCfffffffccce, TimeUS,C,Roll,Pitch,Yaw,VN,VE,VD,dPD,PN,PE,PD,GX,GY,GZ,OH
FMT, 45, 46, XKF2, QBccccchhhhhhfff, TimeUS,C,AX,AY,AZ,VWN,VWE,MN,ME,MD,MX,MY,MZ,IDX,IDY,IS
FMT, 46, 42, XKF3, QBcccccchhhccff, TimeUS,C,IVN,IVE,IVD,IPN,IPE,IPD,IMX,IMY,IMZ,IYAW,IVT,RErr,ErSc
FMT, 47, 44, XKF4, QBcccccfffHBIHb, TimeUS,C,SV,SP,SH,SM,SVT,errRP,OFN,OFE,FS,TS,SS,GPS,PI
FMT, 48, 41, XKF5, QBBhhhcccCCfff, TimeUS,C,NI,FIX,FIY,AFI,HAGL,offset,RI,rng,Herr,eAng,eVel,ePos
FMT, 49, 36, XKFD, QBffffff, TimeUS,C,IX,IY,IZ,IVX,IVY,IVZ
FMT, 50, 29, XKFM, QBBffff, TimeUS,C,OGNM,GLR,ALR,GDR,ADR
FMT, 51, 20, XKFS, QBBBBBBBBB, TimeUS,C,MI,BI,GI,AI,SS,GPS_GTA,GPS_CHK_WAIT,MAG_FUSION
FMT, 52, 28, XKQ, QBffff, TimeUS,C,Q1,Q2,Q3,Q4
FMT, 53, 48, XKT, QBIffffffff, TimeUS,C,Cnt,IMUMin,IMUMax,EKFMin,EKFMax,AngMin,AngMax,VMin,VMax
FMT, 54, 20, XKTV, QBff, TimeUS,C,TVS,TVD
FMT, 55, 60, XKV1, QBffffffffffff, TimeUS,C,V00,V01,V02,V03,V04,V05,V06,V07,V08,V09,V10,V11
FMT, 56, 60, XKV2, QBffffffffffff, TimeUS,C,V12,V13,V14,V15,V16,V17,V18,V19,V20,V21,V22,V23
FMT, 57, 60, XKY0, QBffffffffffff, TimeUS,C,YC,YCS,Y0,Y1,Y2,Y3,Y4,W0,W1,W2,W3,W4
FMT, 58, 52, XKY1, QBffffffffff, TimeUS,C,IVN0,IVN1,IVN2,IVN3,IVN4,IVE0,IVE1,IVE2,IVE3,IVE4
FMT, 41, 60, NKY0, QBffffffffffff, TimeUS,C,YC,YCS,Y0,Y1,Y2,Y3,Y4,W0,W1,W2,W3,W4
FMT, 42, 52, NKY1, QBffffffffff, TimeUS,C,IVN0,IVN1,IVN2,IVN3,IVN4,IVE0,IVE1,IVE2,IVE3,IVE4
FMT, 70, 45, AHR2, QccCfLLffff, TimeUS,Roll,Pitch,Yaw,Alt,Lat,Lng,Q1,Q2,Q3,Q4
FMT, 71, 19, AOA, Qff, TimeUS,AOA,SSA
FMT, 72, 36, ATT, QffffffB, TimeUS,DesRoll,Roll,DesPitch,Pitch,DesYaw,Yaw,AEKF
FMT, 73, 24, ORGN, QBLLe, TimeUS,Type,Lat,Lng,Alt
FMT, 181, 12, EV, QB, TimeUS,Id
EV, 73022632, 56
IMU, 73023053, 0, -0.001187554, -0.01958304, -0.01168161, 0.1094343, -0.429784, -9.732686, 0, 0, 44.80676, 1, 1, 2022, 2022
IMU, 73023053, 1, -0.000215052, -0.004847663, -0.01242083, -0.07287795, -0.3551401, -9.755087, 0, 0, 45, 1, 1, 1998, 2046
FMT, 74, 31, POS, QLLfff, TimeUS,Lat,Lng,Alt,RelHomeAlt,RelOriginAlt
FMT, 76, 35, ATSC, Qffffff, TimeUS,AngPScX,AngPScY,AngPScZ,PDScX,PDScY,PDScZ
FMT, 204, 51, VSTB, Qffffffffff, TimeUS,GyrX,GyrY,GyrZ,AccX,AccY,AccZ,Q1,Q2,Q3,Q4
FMT, 90, 38, MON, QIbIHHHHHII, TimeUS,Dly,Tsk,IErr,IErrCnt,IErrLn,MM,MC,SmLn,SPICnt,I2CCnt
FMT, 91, 47, WDOG, QbIHHHHHHHIBIIn, TimeUS,Tsk,IE,IEC,IEL,MvMsg,MvCmd,SmLn,FL,FT,FA,FP,ICSR,LR,TN
FMT, 210, 20, UART, QBff, TimeUS,I,Tx,Rx
FMT, 115, 21, RPM, QBffB, TimeUS,I,RPM,Qual,H
FMT, 209, 27, FNCE, QBBBLLBf, TimeUS,Tot,Seq,Type,Lat,Lng,Count,Radius
FMT, 177, 33, DSF, QIHIIII, TimeUS,Dp,Blk,Bytes,FMn,FMx,FAv
FMT, 121, 24, RALY, QBBLLhB, TimeUS,Tot,Seq,Lat,Lng,Alt,Flags
FMT, 183, 23, MAV, QBHHHBHH, TimeUS,chan,txp,rxp,rxdp,flags,ss,tf
FMT, 167, 43, VISO, Qffffffff, TimeUS,dt,AngDX,AngDY,AngDZ,PosDX,PosDY,PosDZ,conf
FMT, 168, 58, VISP, QQIffffffffBBb, TimeUS,RTimeUS,CTimeMS,PX,PY,PZ,R,P,Y,PErr,AErr,Rst,Ign,Q
FMT, 169, 42, VISV, QQIffffBBb, TimeUS,RTimeUS,CTimeMS,VX,VY,VZ,VErr,Rst,Ign,Q
FMT, 180, 28, OF, QBffff, TimeUS,Qual,flowX,flowY,bodyX,bodyY
FMT, 182, 21, WENC, Qfbfb, TimeUS,Dist0,Qual0,Dist1,Qual1
FMT, 185, 35, ADSB, QIiiiHHhH, TimeUS,ICAO_address,Lat,Lng,Alt,Heading,Hor_vel,Ver_vel,Squark
FMT, 186, 18, ARM, QBIBB, TimeUS,ArmState,ArmChecks,Forced,Method
FMT, 184, 13, ERR, QBB, TimeUS,Subsys,ECode
FMT, 187, 35, WINC, QBBBBBfffHfb, TimeUS,Heal,ThEnd,Mov,Clut,Mode,DLen,Len,DRate,Tens,Vcc,Temp
FMT, 188, 47, PSCN, Qfffffffff, TimeUS,DPN,TPN,PN,DVN,TVN,VN,DAN,TAN,AN
FMT, 189, 47, PSCE, Qfffffffff, TimeUS,DPE,TPE,PE,DVE,TVE,VE,DAE,TAE,AE
FMT, 190, 47, PSCD, Qfffffffff, TimeUS,DPD,TPD,PD,DVD,TVD,VD,DAD,TAD,AD
FMT, 191, 35, PSON, Qffffff, TimeUS,TPON,PON,TVON,VON,TAON,AON
FMT, 192, 35, PSOE, Qffffff, TimeUS,TPOE,POE,TVOE,VOE,TAOE,AOE
FMT, 193, 35, PSOD, Qffffff, TimeUS,TPOD,POD,TVOD,VOD,TAOD,AOD
FMT, 194, 35, PSOT, Qffffff, TimeUS,TPOT,POT,TVOT,VOT,TAOT,AOT
FMT, 75, 63, RATE, Qfffffffffffff, TimeUS,RDes,R,ROut,PDes,P,POut,YDes,Y,YOut,ADes,A,AOut,AOutSlew
FMT, 195, 39, ANG, Qfffffff, TimeUS,DesRoll,Roll,DesPitch,Pitch,DesYaw,Yaw,Dt
FMT, 201, 33, STAK, QBBHHN, TimeUS,Id,Pri,Total,Free,Name
FMT, 202, 88, FILE, NIBZ, FileName,Offset,Length,Data
FMT, 197, 78, AISR, QBBBZ, TimeUS,num,total,ID,payload
FMT, 198, 41, AIS1, QBBIBbHbLLHHBBbI, US,typ,rep,mmsi,nav,rot,sog,pos,lon,lat,cog,hed,sec,man,raim,rad
FMT, 199, 38, AIS4, QBIHBBBBBBLLBBI, US,rep,mmsi,year,mth,day,h,m,s,fix,lon,lat,epfd,raim,rad
FMT, 200, 175, AIS5, QBIBINZBHHBBBBZB, US,rep,mmsi,ver,imo,cal,nam,typ,bow,stn,prt,str,fix,dght,dst,dte
FMT, 203, 39, SCR, QNIii, TimeUS,Name,Runtime,Total_mem,Run_mem
FMT, 206, 90, VER, QBHBBBBIZHBB, TimeUS,BT,BST,Maj,Min,Pat,FWT,GH,FWS,APJ,BU,FV
FMT, 205, 32, MOTB, QfffffB, TimeUS,LiftMax,BatVolt,ThLimit,ThrAvMx,ThrOut,FailFlags
FMT, 6, 24, PTUN, QBfff, TimeUS,Param,TunVal,TunMin,TunMax
FMT, 0, 55, CTUN, Qffffffefffhh, TimeUS,ThI,ABst,ThO,ThH,DAlt,Alt,BAlt,DSAlt,SAlt,TAlt,DCRt,CRt
FMT, 1, 14, D16, QBh, TimeUS,Id,Value
FMT, 2, 14, DU16, QBH, TimeUS,Id,Value
FMT, 3, 16, D32, QBi, TimeUS,Id,Value
FMT, 4, 16, DU32, QBI, TimeUS,Id,Value
FMT, 5, 16, DFLT, QBf, TimeUS,Id,Value
FMT, 9, 47, SIDD, Qfffffffff, TimeUS,Time,Targ,F,Gx,Gy,Gz,Ax,Ay,Az
FMT, 10, 40, SIDS, QBfffffff, TimeUS,Ax,Mag,FSt,FSp,TFin,TC,TR,TFout
FMT, 8, 49, GUIP, QBfffbffffff, TimeUS,Type,pX,pY,pZ,Terrain,vX,vY,vZ,aX,aY,aZ
FMT, 11, 44, GUIA, QBffffffff, TimeUS,Type,Roll,Pitch,Yaw,RollRt,PitchRt,YawRt,Thrust,ClimbRt
FMT, 249, 25, SURF, QBBfff, TimeUS,I,St,D,FD,TO
SURF, 73033631, 0, 2, 0, 0, 0.3045878
SURF, 73033661, 1, 2, 0, 0, 0.3045878
FMT, 253, 28, HEAT, Qfbfff, TimeUS,Temp,Targ,P,I,Out
HEAT, 73060107, 44.77053, 45, 11.47346, 4.442431, 15.9159
GPS, 73063093, 0, 3, 294926400, 2379, 13, 0.72, 15.3676902, 75.1254453, 631.95, 0.289, 0, -0.102, 0, 1
GPA, 73063093, 0, 1.29, 1.73, 2.69, 0.6, 0, 1, 73039, 200, 553.94, 0, 0
IMU, 73063184, 0, -0.0003158724, -0.01667908, -0.02092806, -0.03854164, 0.1691591, -9.833373, 0, 0, 44.80676, 1, 1, 2022, 2022
IMU, 73063184, 1, 0.001839614, 0.001841752, -0.02120846, -0.1072036, 0.3082614, -9.825748, 0, 0, 45, 1, 1, 1998, 2046
POWR, 73083397, 4.943454, 0, 1, 1, 2
MCU, 73083397, 39.96024, 3.348676, 3.341514, 3.35601
BAT, 73083415, 0, 15.6459, 15.88223, 1.714794, 26.08977, 0.4120758, 0, 0.137823, 99, 1, 0
MAG, 73083427, 0, -274, -184, 272, 102, 25, 42, 0, 0, 0, 1, 73083426
MAG, 73083427, 1, -195, -336, 188, 32, 17, -32, 0, 0, 0, 1, 73083424
SURF, 73083447, 0, 2, 0, 0, 0.3051785
SURF, 73083456, 1, 2, 0, 0, 0.3051785
BARO, 73083493, 0, 0.1951904, 629.2952, 93684.05, 40.65, 0.2967834, 73083, 0, 35, 1
CTUN, 73083553, 0, 0, 0, 0.2570977, 0, 0.3160395, 0.19, NaN, 0, -3.766711, 0, 2
ATT, 73083627, 3.369199E-05, 0.3110825, 0.0004001264, 0.09198835, 139.2167, 139.2167, 3
ANG, 73082599, 3.369199E-05, 0.3110825, 0.0004001264, 0.09198835, 139.2167, 139.2167, 0.0025
RATE, 73082612, -1.400817, 0.3488744, -0.004319123, -0.4150737, -0.1205796, -0.001124144, 0.001073735, -1.314107, 0.001547833, -0.1167297, -0.271225, 0, 0
PIDR, 73083647, -0.02425256, 0.006089008, -0.03034157, -0.004096112, 0, -0.0002230111, 0, 0, 1, 0.4205794, 9
PIDP, 73083651, -0.006770654, -0.002104511, -0.004666142, -0.0006299292, 0, -0.0004942147, 0, 0, 1, 0.2843311, 9
PIDY, 73083656, 1.814287E-05, -0.0229355, 0.008599071, 0.001547833, 0, 0, 0, 0, 1, 0.03706665, 9
PIDA, 73083660, -0.1167297, -0.1167297, 0, 0, -257.0977, 0, 0, 0, 1, 0, 13
XKF4, 73082707, 0, 0.09, 0.01, 0, 0.07, 0, 0.007124284, -2.117084, 2.099773, 0, 48, 107327, 0, 0
XKY0, 73082707, 0, 179.985, 15.03863, 216.0122, 288.0122, 0.01224323, 72.01225, 144.0122, 0.2, 0.2, 0.2, 0.2, 0.2
XKY1, 73082707, 0, 0, 0, 0, 0, 0, 0, 0, 0, 0, 0
XKF1, 73082707, 0, 0.31, 0.09, 139.21, 0.02987622, 0.02387733, -0.02791564, 0.04601458, -0.7788209, 2.24596, -0.3160395, -0.18, -0.9, -0.04, 629.09
XKF2, 73082707, 0, 0.02, 0, 0.01, 0, 0, 400, -5, 144, 0, 0, 0, 0, 0, 0
XKF3, 73082707, 0, -0.16, -0.21, 0.07, -0.18, 0.16, 0.07, 0, 0, 0, -6.2, 0, 0, 0.00158594
XKF5, 73082707, 0, 0, 0, 0, 0, 0.36, 0.05, 0, 0, 0.5, 0.001342004, 0.02707913, 0.02378121
XKFS, 73082707, 0, 0, 0, 0, 0, 0, 1, 0, 1
XKQ, 73082707, 0, 0.3484357, 0.0001934569, 0.002824286, 0.9373284
XKF4, 73082707, 1, 0.1, 0.01, 0, 0.07, 0, 0.007123186, -2.14774, 2.073202, 0, 48, 107327, 0, 0
XKY0, 73082707, 1, 180.7971, 15.00707, 216.0066, 288.0066, 0.0065505, 72.00655, 144.0065, 0.2, 0.2, 0.2, 0.2, 0.2
XKY1, 73082707, 1, 0, 0, 0, 0, 0, 0, 0, 0, 0, 0
XKF1, 73082707, 1, 0.16, 0.13, 139.29, 0.09451326, -0.08616754, -0.03965842, 0.04156447, -0.7429823, 2.201031, -0.3319588, -0.04, -0.03, 0.04, 629.09
XKF2, 73082707, 1, -0.05, 0.01, 0, 0, 0, 400, -5, 144, 0, 0, 0, 0, 0, 0
XKF3, 73082707, 1, -0.09, -0.3, 0.07, -0.16, 0.15, 0.06, 0, 0, 0, -6.18, 0, 0.2873539, 0.002479865
XKFS, 73082707, 1, 0, 0, 0, 0, 0, 1, 0, 1
XKQ, 73082707, 1, 0.347817, -0.0005703653, 0.001749361, 0.9375606
AHR2, 73083771, -0.05, -2.31, 142.05, 629.48, 15.3676904, 75.1254455, 0.3250768, 0.01895982, -0.00700371, 0.9454716
POS, 73083778, 15.3676885, 75.1254468, 629.41, 0.3160395, 0.3160395
MOTB, 73083784, 1, 1, 1, 0.02570977, 0, 2
RCIN, 73083791, 1495, 1495, 982, 1495, 982, 982, 982, 982, 1495, 982, 982, 982, 1495, 1495
RCI2, 73083795, 1495, 1495, 0, 1
RCOU, 73083802, 1000, 1000, 1000, 1000, 0, 0, 0, 0, 0, 0, 0, 0, 0, 0
RCO2, 73083806, 0, 0, 0, 0
VIBE, 73083812, 0, 1.708569, 2.63789, 1.066006, 0
VIBE, 73083812, 1, 1.958507, 2.763307, 1.366357, 0
FMT, 246, 31, CTRL, Qfffff, TimeUS,RMSRollP,RMSRollD,RMSPitchP,RMSPitchD,RMSYaw
CTRL, 73083822, 0.003290897, 0.001362344, 0.001001369, 0.001065456, 0.0006885272
FMT, 252, 43, DCM, Qffffffff, TimeUS,Roll,Pitch,Yaw,ErrRP,ErrYaw,VWN,VWE,VWD
DCM, 73085214, -0.05766339, -2.316238, 142.0583, 0.05218685, 0.08321834, 0, 0, 0
FMT, 251, 51, EAHR, QffffffLLfI, TimeUS,Roll,Pitch,Yaw,VN,VE,VD,Lat,Lon,Alt,Flg
EAHR, 73085256, 0, 0, 0, 0, 0, 0, 0, 0, 0, 0
IMU, 73103098, 0, -0.002486512, -0.01906218, -0.0005943257, 0.1746349, 0.3529754, -9.836529, 0, 0, 44.80676, 1, 1, 2022, 2022
IMU, 73103098, 1, -0.001443694, -0.005321748, 0.001553052, -0.1269261, 0.3104954, -9.873994, 0, 0, 45, 1, 1, 1998, 2046
MSG, 73111119, ArduCopter V4.6.2 (1ebd4d99)
MSG, 73111129, ChibiOS: 88b84600
VER, 73111135, 10, 5009, 4, 6, 2, 255, 515722649, ArduCopter V4.6.2 (1ebd4d99), 56, 2, 2
MSG, 73111149, Pixhawk6C 003D0048 3133510F 31343630
MSG, 73111157, Param space used: 869/5376
MSG, 73111165, RC Protocol: SBUS
MSG, 73111176, RCOut: PWM:1-16
MSG, 73111181, New mission
CMD, 73113047, 4, 0, 16, 0, 0, 0, 0, 15.3676955, 75.1254258, 629.1, 0
CMD, 73113057, 4, 1, 22, 1, 0, 0, 0, 0, 0, 10, 3
CMD, 73113065, 4, 2, 16, 10, 0, 0, 0, 15.367361, 75.1254623, 10, 3
CMD, 73113072, 4, 3, 20, 0, 0, 0, 0, 0, 0, 0, 0
MSG, 73113077, New rally
MSG, 73113083, New fence
FNCE, 73113090, 14, 0, 98, 15.3679153, 75.1255443, 14, 0
FNCE, 73113096, 14, 1, 98, 15.3678714, 75.1258394, 14, 0
FNCE, 73113102, 14, 2, 98, 15.3676541, 75.1260915, 14, 0
FNCE, 73113111, 14, 3, 98, 15.3674795, 75.1260915, 14, 0
FNCE, 73113116, 14, 4, 98, 15.3673825, 75.1260754, 14, 0
FNCE, 73113123, 14, 5, 98, 15.3673075, 75.12607, 14, 0
FNCE, 73113128, 14, 6, 98, 15.3670748, 75.1260566, 14, 0
FNCE, 73113134, 14, 7, 98, 15.3668963, 75.1258796, 14, 0
FNCE, 73113140, 14, 8, 98, 15.366811, 75.1255792, 14, 0
FNCE, 73113146, 14, 9, 98, 15.3668653, 75.1252922, 14, 0
FNCE, 73113152, 14, 10, 98, 15.3670334, 75.1250857, 14, 0
FNCE, 73113158, 14, 11, 98, 15.3673696, 75.1251125, 14, 0
FNCE, 73113164, 14, 12, 98, 15.3675817, 75.1251393, 14, 0
FNCE, 73113172, 14, 13, 98, 15.3678481, 75.1253163, 14, 0
MSG, 73113182, Frame: QUAD/X
MODE, 73113187, Stabilize, 0, 1
ORGN, 73113191, 0, 15.3676955, 75.1254258, 629.1
ORGN, 73113195, 1, 15.3676955, 75.1254258, 629.1
MSG, 73113205, GPS 1: probing for u-blox at 230400 baud
MSG, 73113215, u-blox 1 HW: 00190000 SW: EXT CORE 4.04 (7f89f7)
SURF, 73133634, 0, 2, 0, 0, 0.3057088
SURF, 73133644, 1, 2, 0, 0, 0.3057088
IMU, 73143095, 0, -0.005983701, -0.01966309, 0.01854341, 0.2367652, -0.09792157, -9.838099, 0, 0, 44.80676, 1, 1, 2022, 2022
IMU, 73143095, 1, -0.003259612, -0.002064376, 0.01958566, -0.02701071, -0.0663556, -9.901625, 0, 0, 45, 1, 1, 1998, 2046
STAK, 73154071, 18, 176, 1456, 984, I2C1
POWR, 73183409, 4.94718, 0, 1, 1, 2
MCU, 73183409, 39.98012, 3.349098, 3.341374, 3.355021
BAT, 73183423, 0, 15.7151, 15.8561, 1.034809, 26.11852, 0.4125277, 0, 0.1362494, 99, 1, 0
MAG, 73183435, 0, -269, -179, 206, 102, 25, 42, 0, 0, 0, 1, 73183433
MAG, 73183435, 1, -194, -338, 186, 32, 17, -32, 0, 0, 0, 1, 73183432
SURF, 73183455, 0, 2, 0, 0, 0.3062023
SURF, 73183464, 1, 2, 0, 0, 0.3062023
BARO, 73183538, 0, 0.2422485, 629.3422, 93683.53, 40.65, 0.2489281, 73183, 0, 35, 1
CTUN, 73183566, 0, 0, 0, 0.2570977, 0, 0.3153427, 0.24, NaN, 0, -3.767565, 0, 3
ATT, 73183627, 3.369193E-05, 0.3203521, 0.0004001264, 0.07613216, 139.2876, 139.2876, 3
ANG, 73182599, 3.369193E-05, 0.3203521, 0.0004001264, 0.07613216, 139.2876, 139.2876, 0.0025
RATE, 73182611, -1.442073, 0.3053876, -0.004818012, -0.3435617, -0.1505738, 7.907866E-05, 0.0009034747, -0.6226681, -0.0003140024, -0.1167297, -1.324272, 0, 0
PIDR, 73183646, -0.02482217, 0.005330019, -0.03015219, -0.004070546, 0, -0.000747466, 0, 0, 1, 0.4480307, 9
PIDP, 73183651, -0.006432708, -0.002628008, -0.0038047, -0.0005136345, 0, 0.0005927132, 0, 0, 1, 0.2887171, 9
PIDY, 73183655, 1.802443E-05, -0.01086761, -0.001744458, -0.0003140024, 0, 0, 0, 0, 1, 0.0392793, 9
PIDA, 73183659, -0.1167297, -0.1167297, 0, 0, -257.0977, 0, 0, 0, 1, 0, 13
XKF4, 73182701, 0, 0.09, 0.01, 0.01, 0.06, 0, 0.007202193, -2.117084, 2.099773, 0, 48, 107327, 0, 0
XKY0, 73182701, 0, 181.8382, 14.96245, 215.9414, 287.9414, 359.9414, 71.9414, 143.9414, 0.2, 0.2, 0.2, 0.2, 0.2
XKY1, 73182701, 0, 0, 0, 0, 0, 0, 0, 0, 0, 0, 0
XKF1, 73182701, 0, 0.32, 0.07, 139.28, 0.02972892, 0.03147014, -0.03101814, 0.007114913, -0.7645354, 2.249105, -0.3153427, -0.18, -0.9, -0.04, 629.09
XKF2, 73182701, 0, 0.02, 0, 0.01, 0, 0, 400, -5, 144, 0, 0, 0, 0, 0, 0
XKF3, 73182701, 0, -0.16, -0.21, 0.07, -0.18, 0.16, -0.11, 0, 0, 0, -5.75, 0, 0, 0.00158594
XKF5, 73182701, 0, 0, 0, 0, 0, 0.36, 0.05, 0, 0, 0.5, 0.001262867, 0.01793059, 0.01925336
XKFS, 73182701, 0, 0, 0, 0, 0, 0, 1, 0, 1
XKQ, 73182701, 0, 0.3478561, 0.0003495799, 0.002852112, 0.9375435
XKV1, 73182701, 0, 0.0003429717, 6.483456E-06, 6.481482E-06, 4.873054E-05, 0.04284512, 0.04284481, 0.01246599, 0.159239, 0.159239, 0.1717405, 4.139374E-11, 4.13925E-11
XKV2, 73182701, 0, 2.168273E-10, 3.280629E-06, 3.280641E-06, 5.365989E-08, 0, 0, 0, 0, 0, 0, 0, 0
XKF4, 73182701, 1, 0.1, 0.01, 0.01, 0.06, 0, 0.007200617, -2.14774, 2.073202, 0, 48, 107327, 0, 0
XKY0, 73182701, 1, 181.522, 14.97453, 215.9279, 287.9279, 359.9279, 71.9279, 143.9279, 0.2, 0.2, 0.2, 0.2, 0.2
XKY1, 73182701, 1, 0, 0, 0, 0, 0, 0, 0, 0, 0, 0
XKF1, 73182701, 1, 0.17, 0.11, 139.36, 0.09890456, -0.07803943, -0.04263646, 0.003209169, -0.7279705, 2.202491, -0.3315408, -0.04, -0.03, 0.04, 629.09
XKF2, 73182701, 1, -0.05, 0.01, 0, 0, 0, 400, -5, 144, 0, 0, 0, 0, 0, 0
XKF3, 73182701, 1, -0.09, -0.3, 0.07, -0.16, 0.15, -0.13, 0, 0, 0, -5.76, 0, 0.2873539, 0.002479865
XKFS, 73182701, 1, 0, 0, 0, 0, 0, 1, 0, 1
XKQ, 73182701, 1, 0.3472314, -0.0004409466, 0.001784359, 0.9377777
AHR2, 73183775, -0.03, -2.34, 142.13, 629.29, 15.3676905, 75.1254457, 0.3244171, 0.01925643, -0.006938829, 0.9456927
POS, 73183781, 15.3676886, 75.1254468, 629.41, 0.3153427, 0.3153427
MOTB, 73183787, 1, 1, 1, 0.02570977, 0, 2
RCIN, 73183794, 1495, 1495, 982, 1495, 982, 982, 982, 982, 1495, 982, 982, 982, 1495, 1495
RCI2, 73183798, 1495, 1495, 0, 1
RCOU, 73183806, 1000, 1000, 1000, 1000, 0, 0, 0, 0, 0, 0, 0, 0, 0, 0
RCO2, 73183810, 0, 0, 0, 0
VIBE, 73183815, 0, 1.372303, 1.946328, 1.066782, 0
VIBE, 73183815, 1, 1.58791, 2.266593, 1.356662, 0
CTRL, 73183839, 0.003386275, 0.001172493, 0.0009476813, 0.001030261, 0.0007992563
IMU, 73183867, 0, 0.002026135, -0.01842277, -0.01161663, 0.1094867, -0.1363926, -9.782645, 0, 0, 44.32367, 1, 1, 2022, 2022
IMU, 73183867, 1, 0.005255125, -0.005615934, -0.009452012, 0.007013062, 0.05410929, -9.929101, 0, 0, 45, 1, 1, 1998, 2046
DCM, 73185219, -0.04365207, -2.342099, 142.1371, 0.05218685, 0.08149069, 0, 0, 0
EAHR, 73185238, 0, 0, 0, 0, 0, 0, 0, 0, 0, 0
IMU, 73223053, 0, -0.002766501, -0.01610876, -0.01240344, -0.04692335, 0.1889876, -9.68224, 0, 0, 44.80676, 1, 1, 2022, 2022
IMU, 73223053, 1, -0.0008172854, 0.0002417049, -0.01164273, -0.1807616, 0.1220663, -9.636464, 0, 0, 45, 1, 1, 1998, 2046
SURF, 73233654, 0, 2, 0, 0, 0.3066486
SURF, 73233666, 1, 2, 0, 0, 0.3066486
STAK, 73254587, 19, 176, 1456, 984, I2C0
GPS, 73263117, 0, 3, 294926600, 2379, 13, 0.72, 15.3676908, 75.1254457, 631.9, 0.447, 0, -0.072, 0, 1
GPA, 73263117, 0, 1.29, 1.74, 2.7, 0.62, 0, 1, 73239, 200, 553.89, 0, 0
IMU, 73263180, 0, -0.003285695, -0.01486383, 0.009937999, -0.05385544, -0.2689488, -9.871728, 0, 0, 44.80676, 1, 1, 2022, 2022
IMU, 73263180, 1, -0.000401866, 0.0006498374, 0.01082087, -0.06881283, -0.2056049, -9.942107, 0, 0, 45, 1, 1, 1998, 2046
POWR, 73283379, 4.949899, 0, 1, 1, 2
MCU, 73283379, 39.98012, 3.349239, 3.341655, 3.355727
BAT, 73283397, 0, 15.71885, 15.85826, 1.032205, 26.14719, 0.4129783, 0, 0.1350649, 99, 1, 0
MAG, 73283408, 0, -264, -180, 249, 102, 25, 42, 0, 0, 0, 1, 73283406
MAG, 73283408, 1, -195, -337, 185, 32, 17, -32, 0, 0, 0, 1, 73283405
SURF, 73283428, 0, 2, 0, 0, 0.3070489
SURF, 73283437, 1, 2, 0, 0, 0.3070489
BARO, 73283487, 0, 0.256958, 629.3569, 93683.35, 40.66, -0.08277893, 73283, 0, 35, 1
CTUN, 73283549, 0, 0, 0, 0.2570977, 0, 0.3147146, 0.25, NaN, 0, -3.767687, 0, 2
ATT, 73283608, 3.369188E-05, 0.3117318, 0.0004001265, 0.08158822, 139.3261, 139.3261, 3
ANG, 73282599, 3.369188E-05, 0.3117318, 0.0004001265, 0.08158822, 139.3261, 139.3261, 0.00249
RATE, 73282613, -1.402584, -0.03099341, -0.003321835, -0.3679425, 0.1736725, -0.001695372, 0.001041531, 0.6881904, -0.000389473, -0.1167297, 11.30085, 0, 0
PIDR, 73283626, -0.02504657, -0.0005409371, -0.02450563, -0.00330826, 0, -1.357447E-05, 0, 0, 1, 0.4699006, 9
PIDP, 73283631, -0.006250734, 0.003031157, -0.00928189, -0.001253055, 0, -0.0004423167, 0, 0, 1, 0.2922155, 9
PIDY, 73283635, 1.720082E-05, 0.01201119, -0.002163739, -0.000389473, 0, 0, 0, 0, 1, 0.04173867, 9
PIDA, 73283639, -0.1167297, -0.1167297, 0, 0, -257.0977, 0, 0, 0, 1, 0, 13
XKF4, 73282740, 0, 0.12, 0.02, 0, 0.07, 0, 0.007264116, -2.117084, 2.099773, 0, 48, 107327, 0, 0
XKY0, 73282740, 0, 22.27792, 13.743, 216.5835, 290.5365, 0.9500115, 70.01651, 141.79, 0.1748089, 0.197441, 0.2248926, 0.2170199, 0.1858376
XKY1, 73282740, 0, -0.6584449, -0.04616114, 0.3963635, 0.05757498, -0.5943325, -0.3391907, -0.6055456, -0.1055373, 0.4698397, 0.3254339
XKF1, 73282740, 0, 0.31, 0.08, 139.32, 0.0358722, 0.02964103, -0.02826396, 0.002619604, -0.7486144, 2.254617, -0.3147146, -0.18, -0.9, -0.04, 629.09
XKF2, 73282740, 0, 0.02, 0, 0.01, 0, 0, 400, -5, 144, 0, 0, 0, 0, 0, 0
XKF3, 73282740, 0, -0.31, -0.23, 0.04, -0.19, 0.14, -0.06, 0, 0, 0, -6.09, 0, 0, 0.00158594
XKF5, 73282740, 0, 0, 0, 0, 0, 0.36, 0.05, 0, 0, 0.5, 0.001267889, 0.04909785, 0.05165717
XKFS, 73282740, 0, 0, 0, 0, 0, 0, 1, 0, 1
XKQ, 73282740, 0, 0.347541, 0.0002778315, 0.00279824, 0.9376606
XKF4, 73282740, 1, 0.13, 0.01, 0, 0.07, 0, 0.007262775, -2.14774, 2.073202, 0, 48, 107327, 0, 0
XKY0, 73282740, 1, 62.80441, 14.22316, 215.7832, 288.2355, 0.3059467, 71.89719, 143.5741, 0.1969224, 0.1975633, 0.2015717, 0.2034199, 0.2005227
XKY1, 73282740, 1, -0.2418222, -0.2037809, -0.1176736, -0.1024977, -0.1792257, -0.03809057, -0.1162688, -0.1042478, -0.01864018, 0.02224721
XKF1, 73282740, 1, 0.16, 0.12, 139.4, 0.1059209, -0.07319807, -0.03611134, 0.002448377, -0.7104841, 2.205371, -0.3311366, -0.04, -0.03, 0.04, 629.09
XKF2, 73282740, 1, -0.05, 0.01, 0, 0, 0, 400, -5, 144, 0, 0, 0, 0, 0, 0
XKF3, 73282740, 1, -0.24, -0.32, 0.03, -0.17, 0.12, -0.08, 0, 0, 0, -6.08, 0, 0.2873539, 0.002479865
XKFS, 73282740, 1, 0, 0, 0, 0, 0, 1, 0, 1
XKQ, 73282740, 1, 0.3469315, -0.0005339656, 0.001711913, 0.9378887
AHR2, 73283793, -0.03, -2.35, 142.17, 629.34, 15.3676912, 75.125446, 0.3240437, 0.01931244, -0.006976602, 0.9458193
POS, 73283799, 15.3676887, 75.1254469, 629.41, 0.3147146, 0.3147146
MOTB, 73283805, 1, 1, 1, 0.02570977, 0, 2
RCIN, 73283812, 1495, 1495, 982, 1495, 982, 982, 982, 982, 1495, 982, 982, 982, 1495, 1495
RCI2, 73283817, 1495, 1495, 0, 1
RCOU, 73283824, 1000, 1000, 1000, 1000, 0, 0, 0, 0, 0, 0, 0, 0, 0, 0
RCO2, 73283828, 0, 0, 0, 0
VIBE, 73283833, 0, 0.8484648, 1.387852, 1.036356, 0
VIBE, 73283833, 1, 1.014923, 1.62587, 1.185986, 0
CTRL, 73283843, 0.003414298, 0.0009993061, 0.000910146, 0.0008654667, 0.0007602904
DCM, 73285188, -0.03569492, -2.354725, 142.1774, 0.04827694, 0.07847086, 0, 0, 0
EAHR, 73285212, 0, 0, 0, 0, 0, 0, 0, 0, 0, 0
IMU, 73302989, 0, -0.006561056, -0.01529054, 0.004232373, 0.2472283, 0.01559273, -9.793546, 0, 0, 44.80676, 1, 1, 2022, 2022
IMU, 73302989, 1, -0.003762259, 0.0001323086, 0.006506489, 0.05050327, 0.2355495, -9.724173, 0, 0, 45, 1, 1, 1998, 2046
SURF, 73333639, 0, 2, 0, 0, 0.3074232
SURF, 73333649, 1, 2, 0, 0, 0.3074232
IMU, 73343006, 0, -0.005146306, -0.01628116, -0.009667268, 0.02158054, 0.2644976, -9.724931, 0, 0, 44.80676, 1, 1, 2022, 2022
IMU, 73343006, 1, -0.002105635, -0.001066502, -0.008585109, -0.1382888, 0.246464, -9.701498, 0, 0, 45, 1, 1, 1998, 2046
STAK, 73355598, 20, 181, 1456, 800, SPI1
POWR, 73383387, 4.971551, 0, 1, 1, 2
MCU, 73383387, 39.96024, 3.349098, 3.342215, 3.355727
BAT, 73383402, 0, 15.80042, 15.95812, 1.15528, 26.17928, 0.4134854, 0, 0.1365021, 99, 1, 0
MAG, 73383414, 0, -228, -180, 238, 102, 25, 42, 0, 0, 0, 1, 73383412
MAG, 73383414, 1, -191, -337, 176, 32, 17, -32, 0, 0, 0, 1, 73383410
SURF, 73383433, 0, 2, 0, 0, 0.3077879
SURF, 73383445, 1, 2, 0, 0, 0.3077879
BARO, 73383531, 0, 0.1187134, 629.2187, 93684.91, 40.66, -0.2719879, 73383, 0, 35, 1
CTUN, 73383547, 0, 0, 0, 0.2570977, 0, 0.3150333, 0.11, NaN, 0, -3.769213, 0, 2
ATT, 73383612, 3.369182E-05, 0.319852, 0.0004001266, 0.08179315, 139.3305, 139.3305, 3
ANG, 73382599, 3.369182E-05, 0.319852, 0.0004001266, 0.08179315, 139.3305, 139.3305, 0.0025
RATE, 73382613, -1.441228, -0.04258367, -0.003416806, -0.3694016, 0.01855848, -0.000981584, 0.0009961596, 0.4122346, 0.000498521, -0.1167297, -5.595398, 0, 0
PIDR, 73383632, -0.02467672, -0.0007432252, -0.0239335, -0.003231022, 0, -0.0001857834, 0, 0, 1, 0.4801257, 9
PIDP, 73383636, -0.006463645, 0.0003239065, -0.006787552, -0.0009163195, 0, -6.526442E-05, 0, 0, 1, 0.2810708, 9
PIDY, 73383641, 1.730746E-05, 0.007194852, 0.002769561, 0.000498521, 0, 0, 0, 0, 1, 0.0437392, 9
PIDA, 73383645, -0.1167297, -0.1167297, 0, 0, -257.0977, 0, 0, 0, 1, 0, 13
XKF4, 73382739, 0, 0.12, 0.02, 0, 0.06, 0, 0.007341344, -2.117084, 2.099773, 0, 48, 107327, 0, 0
XKY0, 73382739, 0, 22.27698, 13.74302, 216.5826, 290.5356, 0.9490755, 70.01558, 141.7891, 0.1748089, 0.197441, 0.2248926, 0.2170199, 0.1858376
XKY1, 73382739, 0, -0.6584449, -0.04616114, 0.3963635, 0.05757498, -0.5943325, -0.3391907, -0.6055456, -0.1055373, 0.4698397, 0.3254339
XKF1, 73382739, 0, 0.31, 0.08, 139.33, 0.05445325, 0.03535527, -0.02674381, -0.006218337, -0.7240425, 2.26526, -0.3150333, -0.18, -0.9, -0.04, 629.09
XKF2, 73382739, 0, 0.02, 0, 0.01, 0, 0, 400, -5, 144, 0, 0, 0, 0, 0, 0
XKF3, 73382739, 0, -0.31, -0.23, 0.04, -0.19, 0.14, -0.05, 0, 0, 0, -5.41, 0, 0, 0.00158594
XKF5, 73382739, 0, 0, 0, 0, 0, 0.36, 0.05, 0, 0, 0.5, 0.001200052, 0.0315932, 0.03635842
XKFS, 73382739, 0, 0, 0, 0, 0, 0, 1, 0, 1
XKQ, 73382739, 0, 0.3475049, 0.0003006721, 0.002865318, 0.9376737
XKF4, 73382739, 1, 0.13, 0.01, 0, 0.06, 0, 0.007340165, -2.14774, 2.073202, 0, 48, 107327, 0, 0
XKY0, 73382739, 1, 62.80149, 14.22318, 215.7803, 288.2326, 0.3030325, 71.89427, 143.5712, 0.1969224, 0.1975633, 0.2015717, 0.2034199, 0.2005227
XKY1, 73382739, 1, -0.2418222, -0.2037809, -0.1176736, -0.1024977, -0.1792257, -0.03809057, -0.1162688, -0.1042478, -0.01864018, 0.02224721
XKF1, 73382739, 1, 0.17, 0.11, 139.4, 0.1233843, -0.05752773, -0.03774342, -0.007383185, -0.6852213, 2.214609, -0.3314728, -0.04, -0.03, 0.04, 629.09
XKF2, 73382739, 1, -0.05, 0.01, 0, 0, 0, 400, -5, 144, 0, 0, 0, 0, 0, 0
XKF3, 73382739, 1, -0.24, -0.32, 0.03, -0.17, 0.12, -0.07, 0, 0, 0, -5.4, 0, 0.2873539, 0.002479865
XKFS, 73382739, 1, 0, 0, 0, 0, 0, 1, 0, 1
XKQ, 73382739, 1, 0.3468757, -0.000413694, 0.001774689, 0.9379094
AHR2, 73383802, -0.03, -2.36, 142.18, 629.35, 15.3676915, 75.1254463, 0.3239839, 0.01939684, -0.00696628, 0.9458381
POS, 73383808, 15.3676889, 75.1254469, 629.41, 0.3150333, 0.3150333
MOTB, 73383814, 1, 1, 1, 0.02570977, 0, 2
RCIN, 73383822, 1495, 1495, 982, 1495, 982, 982, 982, 982, 1495, 982, 982, 982, 1495, 1495
RCI2, 73383826, 1495, 1495, 0, 1
RCOU, 73383833, 1000, 1000, 1000, 1000, 0, 0, 0, 0, 0, 0, 0, 0, 0, 0
RCO2, 73383837, 0, 0, 0, 0
VIBE, 73383843, 0, 0.7190645, 1.587434, 0.7421697, 0
VIBE, 73383843, 1, 0.8596123, 1.749532, 0.8162615, 0
CTRL, 73383853, 0.003422275, 0.001153757, 0.0008993536, 0.0007208819, 0.0006983652
IMU, 73383864, 0, -0.004039211, -0.01547916, 0.006415826, -0.1154461, 0.3380334, -9.742832, 0, 0, 44.80676, 1, 1, 2022, 2022
IMU, 73383864, 1, 0.0005622343, -0.003789955, 0.007551074, -0.3083616, 0.1684923, -9.747769, 0, 0, 45, 1, 1, 1998, 2046
DCM, 73385196, -0.03291957, -2.359721, 142.1791, 0.04827694, 0.06305435, 0, 0, 0
EAHR, 73385223, 0, 0, 0, 0, 0, 0, 0, 0, 0, 0
FMT, 254, 35, IOMC, QHHIIIII, TimeUS,RSErr,Mem,TS,NPkt,Nerr,Nerr2,NDel
IOMC, 73418306, 0, 12896, 73420, 34711, 0, 0, 0
IMU, 73423388, 0, -0.003175701, -0.0157206, 0.00590707, 0.04131965, 0.2515338, -9.786242, 0, 0, 44.80676, 1, 1, 2022, 2022
IMU, 73423388, 1, 0.0005624529, 0.001730031, 0.005710655, -0.1728319, 0.07392924, -9.774713, 0, 0, 45, 1, 1, 1998, 2046
SURF, 73433587, 0, 2, 0, 0, 0.3081417
SURF, 73433655, 1, 2, 0, 0, 0.3081417
STAK, 73455695, 21, 58, 2992, 1368, FTP
GPS, 73463146, 0, 3, 294926800, 2379, 13, 0.72, 15.3676914, 75.1254461, 631.83, 0.261, 0, -0.033, 0, 1
GPA, 73463146, 0, 1.29, 1.74, 2.71, 0.61, 0, 1, 73439, 200, 553.82, 0, 0
IMU, 73463207, 0, -0.004451464, -0.01723741, -0.004869455, 0.0482949, 0.378286, -9.839512, 0, 0, 44.80676, 1, 1, 2022, 2022
IMU, 73463207, 1, -0.001729244, -0.002657634, -0.002250286, -0.2088517, 0.3986215, -9.816408, 0, 0, 45, 1, 1, 1998, 2046
POWR, 73483393, 4.968027, 0, 1, 1, 2
MCU, 73483393, 39.94036, 3.349098, 3.342215, 3.35375
BAT, 73483408, 0, 15.80848, 15.96636, 1.145393, 26.2111, 0.4139884, 0, 0.137839, 99, 1, 0
MAG, 73483419, 0, -224, -178, 228, 102, 25, 42, 0, 0, 0, 1, 73483417
MAG, 73483419, 1, -191, -338, 174, 32, 17, -32, 0, 0, 0, 1, 73483416
SURF, 73483439, 0, 2, 0, 0, 0.3084564
SURF, 73483448, 1, 2, 0, 0, 0.3084564
BARO, 73483468, 0, 0.3392944, 629.4393, 93682.41, 40.66, -0.2122498, 73483, 0, 35, 1
CTUN, 73483482, 0, 0, 0, 0.2570977, 0, 0.3137307, 0.33, NaN, 0, -3.771227, 0, 2
ATT, 73483610, 3.36918E-05, 0.30984, 0.0004001266, 0.08131184, 139.3497, 139.3497, 3
ANG, 73482599, 3.36918E-05, 0.30984, 0.0004001266, 0.08131184, 139.3497, 139.3497, 0.002501
RATE, 73482611, -1.394386, -0.1782799, -0.001553734, -0.3667808, -0.05208232, -0.0009991636, 0.001018107, -0.3150153, 0.000619076, -0.1167297, 4.140186, 0, 0
PIDR, 73483629, -0.02441343, -0.003111572, -0.02130186, -0.002875751, 0, 0.001322016, 0, 0, 1, 0.4539393, 9
PIDP, 73483634, -0.006554326, -0.0009090081, -0.005645318, -0.000762118, 0, -0.0002370457, 0, 0, 1, 0.2542917, 9
PIDY, 73483638, 1.784816E-05, -0.005498055, 0.003439311, 0.000619076, 0, 0, 0, 0, 1, 0.04498427, 9
PIDA, 73483642, -0.1167297, -0.1167297, 0, 0, -257.0977, 0, 0, 0, 1, 0, 13
XKF4, 73482701, 0, 0.05, 0.02, 0.01, 0.01, 0, 0.007399105, -2.117084, 2.099773, 0, 48, 107327, 0, 0
XKY0, 73482701, 0, 303.8264, 13.48625, 217.7445, 288.7702, 358.6863, 70.23579, 144.1752, 0.2018007, 0.2248188, 0.2123806, 0.1835855, 0.1774145
XKY1, 73482701, 0, -0.675945, 0.2738178, 0.8970025, 0.4120106, -0.5670883, -0.3388446, -0.7168456, 0.03927178, 0.8716565, 0.6875058
XKF1, 73482701, 0, 0.3, 0.08, 139.34, 0.06008963, 0.04065169, -0.02719594, 0.00386282, -0.7009062, 2.275823, -0.3137307, -0.18, -0.9, -0.04, 629.09
XKF2, 73482701, 0, 0.02, 0, 0, 0, 0, 400, -5, 144, 0, 0, 0, 0, 0, 0
XKF3, 73482701, 0, -0.13, -0.08, 0, -0.22, 0.11, -0.19, 0, 0, 0, -1.32, 0, 0, 0.00158594
XKF5, 73482701, 0, 0, 0, 0, 0, 0.36, 0.05, 0, 0, 0.5, 0.0007196647, 0.03531603, 0.04743604
XKFS, 73482701, 0, 0, 0, 0, 0, 0, 1, 0, 1
XKQ, 73482701, 0, 0.3473475, 0.0002737815, 0.002781978, 0.9377323
XKF4, 73482701, 1, 0.06, 0.01, 0.02, 0.01, 0, 0.007397716, -2.14774, 2.073202, 0, 48, 107327, 0, 0
XKY0, 73482701, 1, 338.4656, 14.4507, 216.2218, 288.1966, 359.7943, 71.56853, 143.8307, 0.1982952, 0.2020185, 0.2029555, 0.1997957, 0.1969352
XKY1, 73482701, 1, -0.06162103, 0.001428003, 0.1314716, 0.1488362, 0.0304459, 0.1184359, 0.001444899, 0.02574098, 0.1561217, 0.2137435
XKF1, 73482701, 1, 0.16, 0.11, 139.43, 0.1295749, -0.05564297, -0.0372095, 0.003494465, -0.66049, 2.222742, -0.3302719, -0.04, -0.03, 0.04, 629.09
XKF2, 73482701, 1, -0.05, 0.01, 0, 0, 0, 400, -5, 144, 0, 0, 0, 0, 0, 0
XKF3, 73482701, 1, -0.07, -0.17, 0, -0.19, 0.09, -0.21, 0, 0, 0, -1.32, 0, 0.2873539, 0.002479865
XKFS, 73482701, 1, 0, 0, 0, 0, 0, 1, 0, 1
XKQ, 73482701, 1, 0.3466597, -0.0004328313, 0.001700058, 0.9379893
AHR2, 73483748, -0.04, -2.37, 142.17, 629.21, 15.3676916, 75.1254462, 0.3240255, 0.01943153, -0.007093454, 0.9458222
POS, 73483755, 15.3676892, 75.125447, 629.41, 0.3137307, 0.3137307
MOTB, 73483761, 1, 1, 1, 0.02570977, 0, 2
RCIN, 73483768, 1495, 1495, 982, 1495, 982, 982, 982, 982, 1495, 982, 982, 982, 1495, 1495
RCI2, 73483772, 1495, 1495, 0, 1
RCOU, 73483779, 1000, 1000, 1000, 1000, 0, 0, 0, 0, 0, 0, 0, 0, 0, 0
RCO2, 73483783, 0, 0, 0, 0
VIBE, 73483789, 0, 0.8473155, 1.688754, 0.4639119, 0
VIBE, 73483789, 1, 0.9101858, 1.798303, 0.5341122, 0
CTRL, 73483799, 0.003400281, 0.001093891, 0.0008947969, 0.000626943, 0.000594088
DCM, 73485213, -0.04586916, -2.369844, 142.1793, 0.0456338, 0.05148218, 0, 0, 0
EAHR, 73485232, 0, 0, 0, 0, 0, 0, 0, 0, 0, 0
IMU, 73503073, 0, -0.005531291, -0.01414574, -0.0008895617, 0.1714193, 0.2346392, -9.860888, 0, 0, 44.80676, 1, 1, 2022, 2022
IMU, 73503073, 1, -0.003926569, 0.001044561, 0.0007298531, -0.0556811, 0.4933143, -9.819746, 0, 0, 45, 1, 1, 1998, 2046
SURF, 73533636, 0, 2, 0, 0, 0.308714
SURF, 73533647, 1, 2, 0, 0, 0.308714
IMU, 73543051, 0, -0.002810933, -0.016799, -0.0005103963, 0.3257273, -0.4068114, -9.807258, 0, 0, 44.80676, 1, 1, 2022, 2022
IMU, 73543051, 1, -0.0002206268, -0.003044673, 0.002374202, 0.2482731, -0.2161215, -9.827392, 0, 0, 45, 1, 1, 1998, 2046
RAD, 73545973, 68, 0, 100, 100, 0, 0, 0
STAK, 73556700, 255, 255, 1536, 1268, ISR
POWR, 73583404, 4.980917, 0, 1, 1, 2
MCU, 73583404, 39.94036, 3.349239, 3.341935, 3.354597
BAT, 73583418, 0, 15.82679, 15.99263, 1.188602, 26.24413, 0.4145111, 0, 0.139526, 99, 1, 0
MAG, 73583430, 0, -219, -177, 228, 102, 25, 42, 0, 0, 0, 1, 73583428
MAG, 73583430, 1, -191, -337, 173, 32, 17, -32, 0, 0, 0, 1, 73583426
SURF, 73583449, 0, 2, 0, 0, 0.3089413
SURF, 73583503, 1, 2, 0, 0, 0.3089413
BARO, 73583552, 0, 0.2393188, 629.3393, 93683.55, 40.66, -0.05790709, 73583, 0, 35, 1
CTUN, 73583567, 0, 0, 0, 0.2570977, 0, 0.313382, 0.23, NaN, 0, -3.772204, 0, 2
DU32, 73583586, 7, 4252120
TERR, 73583621, 2, 15.3676894, 75.1254471, 100, 633.1822, -3.772204, 0, 224, 0
ATT, 73583670, 3.369181E-05, 0.3085296, 0.0004001265, 0.08225948, 139.3671, 139.3671, 3
ANG, 73582600, 3.369181E-05, 0.3085296, 0.0004001265, 0.08225948, 139.3671, 139.3671, 0.002501
RATE, 73582612, -1.390291, 0.02064148, -0.003421488, -0.3715236, -0.1054773, -0.000171663, 0.0009336736, 0.01419411, 4.431466E-05, -0.1167297, -6.300735, 0, 0
PIDR, 73583689, -0.02408257, 0.0003602619, -0.02444283, -0.003299782, 0, -0.0001217059, 0, 0, 1, 0.4106895, 9
PIDP, 73583694, -0.00659834, -0.001840927, -0.004757413, -0.0006422508, 0, 0.0004705878, 0, 0, 1, 0.2300635, 9
PIDY, 73583698, 1.739919E-05, 0.000247734, 0.0002461926, 4.431466E-05, 0, 0, 0, 0, 1, 0.04392248, 9
PIDA, 73583702, -0.1167297, -0.1167297, 0, 0, -257.0977, 0, 0, 0, 1, 0, 13
XKF4, 73582729, 0, 0.05, 0.02, 0, 0.01, 0, 0.007476514, -2.117084, 2.099773, 0, 48, 107327, 0, 0
XKY0, 73582729, 0, 303.8154, 13.48628, 217.7335, 288.7592, 358.6754, 70.22481, 144.1642, 0.2018007, 0.2248188, 0.2123806, 0.1835855, 0.1774145
XKY1, 73582729, 0, -0.675945, 0.2738178, 0.8970025, 0.4120106, -0.5670883, -0.3388446, -0.7168456, 0.03927178, 0.8716565, 0.6875058
XKF1, 73582729, 0, 0.3, 0.08, 139.36, 0.07446974, 0.05560912, -0.0255806, 0.008902618, -0.6745297, 2.286595, -0.313382, -0.18, -0.9, -0.04, 629.09
XKF2, 73582729, 0, 0.02, 0, 0.01, 0, 0, 400, -5, 144, 0, 0, 0, 0, 0, 0
XKF3, 73582729, 0, -0.13, -0.08, 0, -0.22, 0.11, 0.02, 0, 0, 0, -1.11, 0, 0, 0.00158594
XKF5, 73582729, 0, 0, 0, 0, 0, 0.36, 0.05, 0, 0, 0.5, 0.0003412043, 0.02146524, 0.03070012
XKFS, 73582729, 0, 0, 0, 0, 0, 0, 1, 0, 1
XKQ, 73582729, 0, 0.3472053, 0.0002616339, 0.002774167, 0.937785
XKF4, 73582729, 1, 0.06, 0.01, 0, 0.01, 0, 0.007474929, -2.14774, 2.073202, 0, 48, 107327, 0, 0
XKY0, 73582729, 1, 338.4604, 14.45072, 216.2167, 288.1915, 359.7891, 71.56342, 143.8256, 0.1982952, 0.2020185, 0.2029555, 0.1997957, 0.1969352
XKY1, 73582729, 1, -0.06162103, 0.001428003, 0.1314716, 0.1488362, 0.0304459, 0.1184359, 0.001444899, 0.02574098, 0.1561217, 0.2137435
XKF1, 73582729, 1, 0.16, 0.11, 139.45, 0.1398065, -0.03648864, -0.03672207, 0.008344139, -0.6329732, 2.232177, -0.3298797, -0.04, -0.03, 0.04, 629.09
XKF2, 73582729, 1, -0.05, 0.01, 0, 0, 0, 400, -5, 144, 0, 0, 0, 0, 0, 0
XKF3, 73582729, 1, -0.07, -0.17, 0, -0.19, 0.09, 0.01, 0, 0, 0, -1.1, 0, 0.2873539, 0.002479865
XKFS, 73582729, 1, 0, 0, 0, 0, 0, 1, 0, 1
XKQ, 73582729, 1, 0.3465011, -0.0004669987, 0.001691789, 0.9380479
AHR2, 73583874, -0.03, -2.37, 142.18, 629.43, 15.3676918, 75.1254464, 0.3239933, 0.0195018, -0.007029466, 0.9458323
POS, 73583881, 15.3676894, 75.1254471, 629.41, 0.313382, 0.313382
MOTB, 73583886, 1, 1, 1, 0.02570977, 0, 2
RCIN, 73583894, 1495, 1495, 982, 1495, 982, 982, 982, 982, 1495, 982, 982, 982, 1495, 1495
RCI2, 73583898, 1495, 1495, 0, 1
RCOU, 73583905, 1000, 1000, 1000, 1000, 0, 0, 0, 0, 0, 0, 0, 0, 0, 0
RCO2, 73583909, 0, 0, 0, 0
VIBE, 73583917, 0, 1.045175, 1.351654, 0.3956032, 0
VIBE, 73583917, 1, 1.049813, 1.444209, 0.4763474, 0
CTRL, 73583927, 0.003349545, 0.0009748562, 0.0008893561, 0.000567202, 0.0005306269
IMU, 73583939, 0, -0.002929744, -0.01763933, -0.0005372498, -0.2690388, 0.08024997, -9.734612, 0, 0, 44.80676, 1, 1, 2022, 2022
IMU, 73583939, 1, -0.000248577, -0.000645534, 0.0005800832, -0.2395375, -0.1339487, -9.712902, 0, 0, 45, 1, 1, 1998, 2046
PM, 73583953, 400, 0, 4000, 2538, 589296, 212, 0, 0, 0, 842560, 43055, 217192, 0, 1755078908944743
UART, 73584066, 1, 1966, 240
UART, 73584070, 2, 20, 0
UART, 73584074, 3, 0, 653
UART, 73584079, 100, 8369, 5084
DCM, 73585194, -0.0390298, -2.375353, 142.1805, 0.0456338, 0.04354464, 0, 0, 0
EAHR, 73585222, 0, 0, 0, 0, 0, 0, 0, 0, 0, 0
IMU, 73623055, 0, -0.004684482, -0.01514685, -0.006809316, -0.004967479, 0.02165022, -9.793781, 0, 0, 44.80676, 1, 1, 2022, 2022
IMU, 73623055, 1, -0.001811228, -0.00203338, -0.004959612, -0.3910849, 0.1778699, -9.821803, 0, 0, 45, 1, 1, 1998, 2046
SURF, 73633558, 0, 2, 0, 0, 0.3091582
SURF, 73633568, 1, 2, 0, 0, 0.3091582
STAK, 73658518, 0, 182, 7168, 4176, ArduCopter
GPS, 73663129, 0, 3, 294927000, 2379, 13, 0.72, 15.3676916, 75.1254462, 631.79, 0.033, 0, 0.24, 0, 1
GPA, 73663129, 0, 1.29, 1.75, 2.72, 0.55, 0, 1, 73639, 200, 553.78, 0, 0
IMU, 73663191, 0, -0.002684758, -0.01695409, 0.007910548, 0.3174825, -0.2541689, -9.711373, 0, 0, 44.80676, 1, 1, 2022, 2022
IMU, 73663191, 1, -0.0001614773, -0.001095156, 0.009141679, 0.2502843, -0.3434087, -9.732335, 0, 0, 45, 1, 1, 1998, 2046
POWR, 73683363, 4.979004, 0, 1, 1, 2
MCU, 73683363, 39.98012, 3.349239, 3.341374, 3.355162
BAT, 73683378, 0, 15.82715, 15.99776, 1.210023, 26.27773, 0.4150428, 0, 0.140995, 99, 1, 0
MAG, 73683389, 0, -219, -176, 229, 102, 25, 42, 0, 0, 0, 1, 73683387
MAG, 73683389, 1, -190, -338, 172, 32, 17, -32, 0, 0, 0, 1, 73683386
SURF, 73683424, 0, 2, 0, 0, 0.3093616
SURF, 73683447, 1, 2, 0, 0, 0.3093616
BARO, 73683491, 0, 0.1246338, 629.2246, 93684.87, 40.66, 0.1029396, 73683, 0, 35, 1
CTUN, 73683505, 0, 0, 0, 0.2570977, 0, 0.3109027, 0.12, NaN, 0, -3.773425, 0, 2
ATT, 73683562, 3.369181E-05, 0.3043434, 0.0004001265, 0.08013204, 139.3778, 139.3778, 3
ANG, 73682599, 3.369181E-05, 0.3043434, 0.0004001265, 0.08013204, 139.3778, 139.3778, 0.0025
RATE, 73682611, -1.369949, -0.1174868, -0.002245733, -0.3615497, -0.1004219, -0.0002347764, 0.0009681231, 0.2065666, -0.0001210493, -0.1167297, 0.5284309, 0, 0
PIDR, 73683582, -0.02389208, -0.002050531, -0.02184155, -0.002948609, 0, 0.000702876, 0, 0, 1, 0.3715611, 9
PIDP, 73683610, -0.006346945, -0.001752693, -0.004594252, -0.000620224, 0, 0.0003854477, 0, 0, 1, 0.2081443, 9
PIDY, 73683647, 1.706803E-05, 0.003605267, -0.0006724962, -0.0001210493, 0, 0, 0, 0, 1, 0.03973776, 9
PIDA, 73683662, -0.1167297, -0.1167297, 0, 0, -257.0977, 0, 0, 0, 1, 0, 13
XKF4, 73682709, 0, 0.1, 0.01, 0, 0, 0, 0.00752766, -2.117084, 2.099773, 0, 48, 107327, 0, 0
XKY0, 73682709, 0, 232.3148, 10.01178, 218.2684, 282.5722, 354.1935, 73.4561, 150.7266, 0.3779669, 0.2722721, 0.09929023, 0.07292856, 0.1775422
XKY1, 73682709, 0, -0.6608295, 0.5547385, 1.397082, 0.7428386, -0.5756965, -0.3877773, -0.8625885, 0.110895, 1.24972, 0.9548848
XKF1, 73682709, 0, 0.3, 0.08, 139.37, 0.07770962, 0.05789934, -0.02552195, 0.008030641, -0.6528378, 2.29542, -0.3109027, -0.18, -0.9, -0.04, 629.09
XKF2, 73682709, 0, 0.02, 0, 0, 0, 0, 400, -5, 144, 0, 0, 0, 0, 0, 0
XKF3, 73682709, 0, 0.11, 0.07, -0.26, -0.23, 0.1, -0.07, 0, 0, 0, -0.71, 0, 0, 0.00158594
XKF5, 73682709, 0, 0, 0, 0, 0, 0.34, 0.05, 0, 0, 0.5, 0.000156532, 0.01090981, 0.0314556
XKFS, 73682709, 0, 0, 0, 0, 0, 0, 1, 0, 1
XKQ, 73682709, 0, 0.3471178, 0.0002661055, 0.002733487, 0.9378175
XKV1, 73682709, 0, 0.0003407155, 7.082836E-06, 7.080595E-06, 4.839938E-05, 0.03252488, 0.03252472, 0.01201422, 0.1606727, 0.1606726, 0.1608446, 4.219012E-11, 4.2189E-11
XKV2, 73682709, 0, 2.135213E-10, 3.280629E-06, 3.280641E-06, 5.084408E-08, 0, 0, 0, 0, 0, 0, 0, 0
XKF4, 73682709, 1, 0.11, 0.01, 0, 0, 0, 0.007526651, -2.14774, 2.073202, 0, 48, 107327, 0, 0
XKY0, 73682709, 1, 270.8695, 13.82642, 217.8858, 287.2094, 357.519, 71.12917, 145.8318, 0.2124035, 0.2211395, 0.1999851, 0.1796725, 0.1867994
XKY1, 73682709, 1, 0.1392808, 0.218547, 0.3815021, 0.4048002, 0.2548382, 0.2450422, 0.09879299, 0.1282388, 0.2925434, 0.3658549
XKF1, 73682709, 1, 0.15, 0.11, 139.46, 0.1501953, -0.03306268, -0.03378058, 0.009958861, -0.6089943, 2.23868, -0.3273273, -0.04, -0.03, 0.04, 629.09
XKF2, 73682709, 1, -0.05, 0.01, 0, 0, 0, 400, -5, 144, 0, 0, 0, 0, 0, 0
XKF3, 73682709, 1, 0.18, -0.01, -0.27, -0.2, 0.07, -0.08, 0, 0, 0, -0.7, 0, 0.2873539, 0.002479865
XKFS, 73682709, 1, 0, 0, 0, 0, 0, 1, 0, 1
XKQ, 73682709, 1, 0.3463955, -0.0004349455, 0.001625355, 0.938087
AHR2, 73683779, -0.03, -2.38, 142.18, 629.33, 15.3676916, 75.1254462, 0.3239821, 0.01957672, -0.007026744, 0.9458346
POS, 73683785, 15.3676896, 75.1254472, 629.41, 0.3109027, 0.3109027
MOTB, 73683791, 1, 1, 1, 0.02570977, 0, 2
RCIN, 73683798, 1495, 1495, 982, 1495, 982, 982, 982, 982, 1495, 982, 982, 982, 1495, 1495
RCI2, 73683802, 1495, 1495, 0, 1
RCOU, 73683810, 1000, 1000, 1000, 1000, 0, 0, 0, 0, 0, 0, 0, 0, 0, 0
RCO2, 73683813, 0, 0, 0, 0
VIBE, 73683819, 0, 1.039784, 0.9529648, 0.3485655, 0
VIBE, 73683819, 1, 1.019712, 1.117663, 0.4623645, 0
CTRL, 73683829, 0.003311288, 0.0008503518, 0.0008557318, 0.0005250124, 0.0004603098
DCM, 73685218, -0.0349009, -2.382718, 142.1841, 0.04283851, 0.03672989, 0, 0, 0
EAHR, 73685238, 0, 0, 0, 0, 0, 0, 0, 0, 0, 0
IMU, 73703069, 0, -0.003287602, -0.0172235, -0.00878697, -0.1406458, -0.04657836, -9.865309, 0, 0, 44.80676, 1, 1, 2022, 2022
IMU, 73703069, 1, -0.002573466, -0.001472595, -0.007208258, -0.2070532, 0.02443092, -9.833228, 0, 0, 45, 1, 1, 1998, 2046
SURF, 73733692, 0, 2, 0, 0, 0.3094369
SURF, 73733702, 1, 2, 0, 0, 0.3094369
IMU, 73743064, 0, -0.003571471, -0.01639952, 0.001993292, -0.02667487, 0.1148441, -9.74541, 0, 0, 44.80676, 1, 1, 2022, 2022
IMU, 73743064, 1, -0.0006702528, -0.003537092, 0.00380799, 0.01611223, 0.02293393, -9.717083, 0, 0, 45, 1, 1, 1998, 2046
DSF, 73748041, 0, 1894, 81670, 171780, 204710, 186843
STAK, 73758557, 1, 1, 496, 288, idle
POWR, 73783408, 4.982327, 0, 1, 1, 2
MCU, 73783408, 39.98012, 3.349098, 3.342776, 3.355727
BAT, 73783422, 0, 15.81791, 15.98599, 1.184574, 26.31065, 0.4155636, 0, 0.1418929, 99, 1, 0
MAG, 73783434, 0, -222, -176, 232, 102, 25, 42, 0, 0, 0, 1, 73783432
MAG, 73783434, 1, -190, -337, 174, 32, 17, -32, 0, 0, 0, 1, 73783431
SURF, 73783453, 0, 2, 0, 0, 0.3092801
SURF, 73783509, 1, 2, 0, 0, 0.3092801
BARO, 73783553, 0, 0.2745972, 629.3746, 93683.17, 40.66, 0.03314972, 73783, 0, 35, 1
CTUN, 73783566, 0, 0, 0, 0.2570977, 0, 0.3017668, 0.27, NaN, 0, -3.784157, 0, 2
ATT, 73783626, 3.369181E-05, 0.3060367, 0.0004001265, 0.07841013, 139.3691, 139.3691, 3
ANG, 73782599, 3.369181E-05, 0.3060367, 0.0004001265, 0.07841013, 139.3691, 139.3691, 0.0025
RATE, 73782614, -1.377713, -0.0117595, -0.003353748, -0.3538352, 0.01934299, -0.0009311953, 0.0009146812, 0.1443059, -4.132795E-05, -0.1167297, 5.982971, 0, 0
PIDR, 73783645, -0.02396708, -0.0002052421, -0.02376183, -0.003207848, 0, -0.0001458997, 0, 0, 1, 0.3361603, 9
PIDP, 73783650, -0.006223968, 0.0003375988, -0.006561567, -0.0008858115, 0, -4.538383E-05, 0, 0, 1, 0.1883132, 9
PIDY, 73783654, 1.640552E-05, 0.002518612, -0.0002295997, -4.132795E-05, 0, 0, 0, 0, 1, 0.03595173, 9
PIDA, 73783658, -0.1167297, -0.1167297, 0, 0, -257.0977, 0, 0, 0, 1, 0, 13
XKF4, 73782702, 0, 0.1, 0.01, 0.01, 0, 0, 0.007604944, -2.117084, 2.099773, 0, 48, 107327, 0, 0
XKY0, 73782702, 0, 232.3173, 10.01181, 218.271, 282.5747, 354.196, 73.45863, 150.7291, 0.3779669, 0.2722721, 0.09929023, 0.07292856, 0.1775422
XKY1, 73782702, 0, -0.6608295, 0.5547385, 1.397082, 0.7428386, -0.5756965, -0.3877773, -0.8625885, 0.110895, 1.24972, 0.9548848
XKF1, 73782702, 0, 0.3, 0.07, 139.36, 0.08106203, 0.05847742, -0.02446452, 0.08501691, -0.6355547, 2.299876, -0.3017668, -0.18, -0.9, -0.04, 629.09
XKF2, 73782702, 0, 0.02, 0, 0, 0, 0, 400, -5, 144, 0, 0, 0, 0, 0, 0
XKF3, 73782702, 0, 0.11, 0.07, -0.26, -0.23, 0.1, -0.16, 0, 0, 0, -0.84, 0, 0, 0.00158594
XKF5, 73782702, 0, 0, 0, 0, 0, 0.33, 0.05, 0, 0, 0.5, 0.0001457053, 0.00867483, 0.02659594
XKFS, 73782702, 0, 0, 0, 0, 0, 0, 1, 0, 1
XKQ, 73782702, 0, 0.3471888, 0.0002855348, 0.002742108, 0.9377912
XKF4, 73782702, 1, 0.11, 0.01, 0.01, 0, 0, 0.007603703, -2.14774, 2.073202, 0, 48, 107327, 0, 0
XKY0, 73782702, 1, 270.8744, 13.82644, 217.8906, 287.2142, 357.5239, 71.13406, 145.8367, 0.2124035, 0.2211395, 0.1999851, 0.1796725, 0.1867994
XKY1, 73782702, 1, 0.1392808, 0.218547, 0.3815021, 0.4048002, 0.2548382, 0.2450422, 0.09879299, 0.1282388, 0.2925434, 0.3658549
XKF1, 73782702, 1, 0.15, 0.1, 139.45, 0.1501181, -0.02328842, -0.03166962, 0.08871406, -0.5903242, 2.242942, -0.3179503, -0.04, -0.03, 0.04, 629.09
XKF2, 73782702, 1, -0.05, 0.01, 0, 0, 0, 400, -5, 144, 0, 0, 0, 0, 0, 0
XKF3, 73782702, 1, 0.18, -0.01, -0.27, -0.2, 0.07, -0.17, 0, 0, 0, -0.84, 0, 0.2873539, 0.002479865
XKFS, 73782702, 1, 0, 0, 0, 0, 0, 1, 0, 1
XKQ, 73782702, 1, 0.346498, -0.0003859203, 0.001610233, 0.9380493
AHR2, 73783765, -0.03, -2.39, 142.17, 629.22, 15.3676916, 75.1254462, 0.3240913, 0.01964925, -0.007066125, 0.9457954
POS, 73783771, 15.3676897, 75.1254472, 629.4, 0.3017668, 0.3017668
MOTB, 73783777, 1, 1, 1, 0.02570977, 0, 2
RCIN, 73783784, 1495, 1495, 982, 1495, 982, 982, 982, 982, 1495, 982, 982, 982, 1495, 1495
RCI2, 73783788, 1495, 1495, 0, 1
RCOU, 73783798, 1000, 1000, 1000, 1000, 0, 0, 0, 0, 0, 0, 0, 0, 0, 0
RCO2, 73783802, 0, 0, 0, 0
VIBE, 73783837, 0, 0.6229434, 0.6309137, 0.27577, 0
VIBE, 73783837, 1, 0.630639, 0.871727, 0.4005194, 0
CTRL, 73783847, 0.00327166, 0.0007246353, 0.0008366269, 0.0004576388, 0.0003916214
IMU, 73783859, 0, -0.003500605, -0.01546582, 0.001729414, 0.2234219, -0.1590677, -9.856549, 0, 0, 44.80676, 1, 1, 2022, 2022
IMU, 73783859, 1, 0.0002461343, 0.0009128921, 0.00150139, 0.1457157, -0.1511371, -9.87114, 0, 0, 45, 1, 1, 1998, 2046
DCM, 73785191, -0.03565788, -2.392649, 142.1693, 0.04283851, 0.03005035, 0, 0, 0
EAHR, 73785215, 0, 0, 0, 0, 0, 0, 0, 0, 0, 0
IMU, 73822986, 0, -0.003192219, -0.01649085, -0.007487834, -0.03162976, -0.1095379, -9.787493, 0, 0, 44.80676, 1, 1, 2022, 2022
IMU, 73822986, 1, -0.0006035869, 0.0004753057, -0.006133794, -0.04971237, -0.04792798, -9.801095, 0, 0, 45, 1, 1, 1998, 2046
MAV, 73827938, 1, 2773, 698, 0, 6, 0, 0
SURF, 73833630, 0, 2, 0, 0, 0.3089133
SURF, 73833641, 1, 2, 0, 0, 0.3089133
STAK, 73859457, 2, 60, 1200, 880, UART_RX
GPS, 73863108, 0, 3, 294927200, 2379, 13, 0.72, 15.3676915, 75.1254462, 631.75, 0.054, 0, 0.147, 0, 1
GPA, 73863108, 0, 1.29, 1.75, 2.73, 0.57, 0, 1, 73839, 200, 553.74, 0, 0
IMU, 73863173, 0, -0.003252924, -0.01699419, -0.00490564, -0.09567454, 0.08821637, -9.798038, 0, 0, 44.80676, 1, 1, 2022, 2022
IMU, 73863173, 1, -0.0009076369, -0.0007241347, -0.0025134, -0.09161228, 0.1238641, -9.777567, 0, 0, 45, 1, 1, 1998, 2046
POWR, 73883395, 4.971551, 0, 1, 1, 2
MCU, 73883395, 40, 3.349239, 3.341374, 3.353891
BAT, 73883436, 0, 15.82505, 15.99422, 1.184574, 26.34356, 0.4160844, 0, 0.1428085, 99, 1, 0
MAG, 73883448, 0, -220, -178, 230, 102, 25, 42, 0, 0, 0, 1, 73883446
MAG, 73883448, 1, -190, -337, 176, 32, 17, -32, 0, 0, 0, 1, 73883445
SURF, 73883486, 0, 2, 0, 0, 0.3083826
SURF, 73883496, 1, 2, 0, 0, 0.3083826
BARO, 73883517, 0, 0.3480835, 629.4481, 93682.34, 40.66, -0.1120758, 73883, 0, 35, 1
CTUN, 73883530, 0, 0, 0, 0.2570977, 0, 0.2935152, 0.34, NaN, 0, -3.795744, 0, 1
ATT, 73883649, 3.369181E-05, 0.3104395, 0.0004001266, 0.0784606, 139.3602, 139.3602, 3
ANG, 73882599, 3.369181E-05, 0.3104395, 0.0004001266, 0.0784606, 139.3602, 139.3602, 0.0025
RATE, 73882612, -1.397639, 0.07525165, -0.003696068, -0.3540895, 0.04444009, -0.001066474, 0.0009230229, -0.3190372, 0.0002907459, -0.1167297, 2.451706, 0, 0
PIDR, 73883685, -0.02437244, 0.001313389, -0.02568583, -0.003467588, 0, -0.0002284801, 0, 0, 1, 0.3041324, 9
PIDP, 73883690, -0.006224622, 0.0007756259, -0.007000247, -0.0009450334, 0, -0.0001214408, 0, 0, 1, 0.1703715, 9
PIDY, 73883694, 1.661349E-05, -0.00556825, 0.001615255, 0.0002907459, 0, 0, 0, 0, 1, 0.03252639, 9
PIDA, 73883698, -0.1167297, -0.1167297, 0, 0, -257.0977, 0, 0, 0, 1, 0, 13
XKF4, 73882706, 0, 0.07, 0.01, 0, 0.01, 0, 0.007649405, -2.117084, 2.099773, 0, 48, 107327, 0, 0
XKY0, 73882706, 0, 224.7807, 7.182754, 217.9271, 280.0552, 352.6993, 75.20354, 153.0711, 0.5451269, 0.2410451, 0.03413347, 0.02398282, 0.1557117
XKY1, 73882706, 0, -0.9100052, 0.4122105, 1.565272, 0.7156639, -0.9111735, -0.6131803, -1.212652, -0.1068087, 1.410365, 0.9041184
XKF1, 73882706, 0, 0.31, 0.07, 139.36, 0.0831397, 0.05655879, -0.01985321, 0.09854024, -0.621828, 2.303564, -0.2935152, -0.18, -0.9, -0.04, 629.09
XKF2, 73882706, 0, 0.02, 0, 0, 0, 0, 400, -5, 144, 0, 0, 0, 0, 0, 0
XKF3, 73882706, 0, 0.13, 0.04, -0.16, -0.21, 0.1, -0.01, 0, 0, 0, -1.18, 0, 0, 0.00158594
XKF5, 73882706, 0, 0, 0, 0, 0, 0.32, 0.05, 0, 0, 0.5, 0.0002288592, 0.01852943, 0.03633358
XKFS, 73882706, 0, 0, 0, 0, 0, 0, 1, 0, 1
XKQ, 73882706, 0, 0.3472617, 0.0002986772, 0.002778269, 0.9377641
XKF4, 73882706, 1, 0.08, 0.01, 0, 0.01, 0, 0.007648183, -2.14774, 2.073202, 0, 48, 107327, 0, 0
XKY0, 73882706, 1, 264.5331, 13.32704, 219.4637, 286.0231, 355.1528, 70.83115, 148.021, 0.2289494, 0.2414706, 0.1943584, 0.158389, 0.1768327
XKY1, 73882706, 1, 0.03599469, 0.1313382, 0.3482253, 0.3951832, 0.1919463, 0.1681535, -0.02500377, -0.001968801, 0.2200395, 0.3272723
XKF1, 73882706, 1, 0.16, 0.1, 139.44, 0.1456563, -0.01338965, -0.02768377, 0.100746, -0.5749442, 2.246247, -0.3094918, -0.04, -0.03, 0.04, 629.09
XKF2, 73882706, 1, -0.05, 0.01, 0, 0, 0, 400, -5, 144, 0, 0, 0, 0, 0, 0
XKF3, 73882706, 1, 0.2, -0.03, -0.16, -0.17, 0.06, -0.02, 0, 0, 0, -1.18, 0, 0.2873539, 0.002479865
XKFS, 73882706, 1, 0, 0, 0, 0, 0, 1, 0, 1
XKQ, 73882706, 1, 0.3465843, -0.0003567237, 0.001634659, 0.9380174
AHR2, 73883798, -0.03, -2.39, 142.16, 629.37, 15.3676915, 75.1254462, 0.3241787, 0.01969603, -0.007066386, 0.9457644
POS, 73883804, 15.3676899, 75.1254472, 629.39, 0.2935152, 0.2935152
MOTB, 73883809, 1, 1, 1, 0.02570977, 0, 2
RCIN, 73883817, 1495, 1495, 982, 1495, 982, 982, 982, 982, 1495, 982, 982, 982, 1495, 1495
RCI2, 73883824, 1495, 1495, 0, 1
RCOU, 73883831, 1000, 1000, 1000, 1000, 0, 0, 0, 0, 0, 0, 0, 0, 0, 0
RCO2, 73883835, 0, 0, 0, 0
VIBE, 73883840, 0, 0.3858053, 0.4562444, 0.230966, 0
VIBE, 73883840, 1, 0.4011208, 0.7112427, 0.3460073, 0
CTRL, 73883850, 0.003291567, 0.0006125094, 0.0008375337, 0.0004053112, 0.0003386393
DCM, 73885228, -0.03488591, -2.398069, 142.1602, 0.04264653, 0.02646403, 0, 0, 0
EAHR, 73885265, 0, 0, 0, 0, 0, 0, 0, 0, 0, 0
IMU, 73903106, 0, -0.003844053, -0.01663789, 0.002791287, 0.09790487, 0.06188266, -9.773412, 0, 0, 44.80676, 1, 1, 2022, 2022
IMU, 73903106, 1, -0.0003321473, -0.0003979592, 0.003830665, 0.1247979, 0.02017594, -9.806808, 0, 0, 45, 1, 1, 1998, 2046
SURF, 73933627, 0, 2, 0, 0, 0.3076566
SURF, 73933637, 1, 2, 0, 0, 0.3076566
IMU, 73943092, 0, -0.00276477, -0.01459683, 0.005978487, 0.06537957, -0.03926029, -9.802743, 0, 0, 44.32367, 1, 1, 2022, 2022
IMU, 73943092, 1, -0.0003537101, 0.0002549585, 0.00727074, 0.09315958, -0.1117027, -9.809343, 0, 0, 45, 1, 1, 1998, 2046
STAK, 73959482, 3, 60, 752, 480, OTG1
POWR, 73983412, 4.974069, 0, 1, 1, 2
MCU, 73983412, 40, 3.349098, 3.341234, 3.357141
BAT, 73983427, 0, 15.82111, 15.99284, 1.196658, 26.3768, 0.4166103, 0, 0.1435115, 99, 1, 0
MAG, 73983438, 0, -220, -177, 233, 102, 25, 42, 0, 0, 0, 1, 73983436
MAG, 73983438, 1, -190, -337, 174, 32, 17, -32, 0, 0, 0, 1, 73983435
SURF, 73983458, 0, 2, 0, 0, 0.3067303
SURF, 73983467, 1, 2, 0, 0, 0.3067303
BARO, 73983488, 0, 0.06872559, 629.1687, 93685.49, 40.67, 0.05048752, 73983, 0, 35, 1
CTUN, 73983505, 0, 0, 0, 0.2570977, 0, 0.2849149, 0.06, NaN, 0, -3.806537, 0, 1
ATT, 73983632, 3.369181E-05, 0.3115124, 0.0004001267, 0.07666463, 139.3695, 139.3695, 3
ANG, 73982606, 3.369181E-05, 0.3115124, 0.0004001267, 0.07666463, 139.3695, 139.3695, 0.002507
RATE, 73982621, -1.402476, -0.05485913, -0.00320298, -0.3460059, 0.01887507, -0.0008160826, 0.0009903623, 0.0931875, 2.319365E-05, -0.1167297, -0.1935005, 0, 0
PIDR, 73983651, -0.02449642, -0.0009574725, -0.02353895, -0.003177758, 0, -2.522248E-05, 0, 0, 1, 0.2751541, 9
PIDP, 73983655, -0.006049421, 0.0003294321, -0.006378853, -0.0008611451, 0, 4.506258E-05, 0, 0, 1, 0.1541381, 9
PIDY, 73983659, 1.670038E-05, 0.001626429, 0.0001288536, 2.319365E-05, 0, 0, 0, 0, 1, 0.02942721, 9
PIDA, 73983664, -0.1167297, -0.1167297, 0, 0, -257.0977, 0, 0, 0, 1, 0, 13
XKF4, 73982709, 0, 0.07, 0.01, 0, 0, 0, 0.007726606, -2.117084, 2.099773, 0, 48, 107327, 0, 0
XKY0, 73982709, 0, 224.7681, 7.182804, 217.9146, 280.0427, 352.6867, 75.19098, 153.0585, 0.5451269, 0.2410451, 0.03413347, 0.02398282, 0.1557117
XKY1, 73982709, 0, -0.9100052, 0.4122105, 1.565272, 0.7156639, -0.9111735, -0.6131803, -1.212652, -0.1068087, 1.410365, 0.9041184
XKF1, 73982709, 0, 0.31, 0.07, 139.36, 0.07942622, 0.0561458, -0.01658023, 0.1045646, -0.6121702, 2.304684, -0.2849149, -0.18, -0.9, -0.04, 629.09
XKF2, 73982709, 0, 0.02, 0, 0, 0, 0, 400, -5, 144, 0, 0, 0, 0, 0, 0
XKF3, 73982709, 0, 0.13, 0.04, -0.16, -0.21, 0.1, 0.07, 0, 0, 0, -0.65, 0, 0, 0.00158594
XKF5, 73982709, 0, 0, 0, 0, 0, 0.32, 0.05, 0, 0, 0.5, 0.0002046504, 0.01416081, 0.02653326
XKFS, 73982709, 0, 0, 0, 0, 0, 0, 1, 0, 1
XKQ, 73982709, 0, 0.3471857, 0.0003164005, 0.002781632, 0.9377922
XKF4, 73982709, 1, 0.08, 0.01, 0, 0, 0, 0.007725153, -2.14774, 2.073202, 0, 48, 107327, 0, 0
XKY0, 73982709, 1, 264.5193, 13.32706, 219.4498, 286.0092, 355.1389, 70.81725, 148.0071, 0.2289494, 0.2414706, 0.1943584, 0.158389, 0.1768327
