FMT, 128, 89, FMT, BBnNZ, Type,Length,Name,Format,Columns
FMT, 119, 76, UNIT, QbZ, TimeUS,Id,Label
FMT, 118, 44, FMTU, QBNN, TimeUS,FmtType,UnitIds,MultIds
FMT, 120, 20, MULT, Qbd, TimeUS,Id,Mult
FMT, 32, 35, PARM, QNff, TimeUS,Name,Value,Default
FMT, 94, 51, GPS, QBBIHBcLLeffffB, TimeUS,I,Status,GMS,GWk,NSats,HDop,Lat,Lng,Alt,Spd,GCrs,VZ,Yaw,U
FMT, 95, 39, GPA, QBCCCCfBIHeHH, TimeUS,I,VDop,HAcc,VAcc,SAcc,YAcc,VV,SMS,Delta,AEl,RTCMFU,RTCMFD
FMT, 99, 22, UBX1, QBHBBHI, TimeUS,Instance,noisePerMS,jamInd,aPower,agcCnt,config
FMT, 100, 16, UBX2, QBbBbB, TimeUS,Instance,ofsI,magI,ofsQ,magQ
FMT, 96, 42, GRAW, QIHBBddfBbB, TimeUS,WkMS,Week,numSV,sv,cpMes,prMes,doMes,mesQI,cno,lli
FMT, 97, 24, GRXH, QdHbBB, TimeUS,rcvTime,week,leapS,numMeas,recStat
FMT, 98, 41, GRXS, QddfBBBHBBBBB, TimeUS,prMes,cpMes,doMes,gnss,sv,freq,lock,cno,prD,cpD,doD,trk
FMT, 101, 23, SBPH, QIII, TimeUS,CrcError,LastInject,IARhyp
FMT, 102, 67, SBRH, QQQQQQQQ, TimeUS,msg_flag,1,2,3,4,5,6
FMT, 103, 123, SBRM, QQQQQQQQQQQQQQQ, TimeUS,msg_flag,1,2,3,4,5,6,7,8,9,10,11,12,13
FMT, 104, 23, SBRE, QHIiBB, TimeUS,GWk,GMS,ns_residual,level,quality
FMT, 59, 75, MSG, QZ, TimeUS,Message
FMT, 60, 39, RCIN, QHHHHHHHHHHHHHH, TimeUS,C1,C2,C3,C4,C5,C6,C7,C8,C9,C10,C11,C12,C13,C14
FMT, 61, 18, RCI2, QHHHB, TimeUS,C15,C16,OMask,Flags
FMT, 62, 39, RCOU, QHHHHHHHHHHHHHH, TimeUS,C1,C2,C3,C4,C5,C6,C7,C8,C9,C10,C11,C12,C13,C14
FMT, 207, 19, RCO2, QHHHH, TimeUS,C15,C16,C17,C18
FMT, 208, 39, RCO3, QHHHHHHHHHHHHHH, TimeUS,C19,C20,C21,C22,C23,C24,C25,C26,C27,C28,C29,C30,C31,C32
FMT, 63, 19, RSSI, Qff, TimeUS,RXRSSI,RXLQ
FMT, 64, 43, BARO, QBfffcfIffB, TimeUS,I,Alt,AltAMSL,Press,Temp,CRt,SMS,Offset,GndTemp,Health
FMT, 65, 24, BARD, QBfff, TimeUS,I,DynPrX,DynPrY,DynPrZ
FMT, 66, 25, CANF, QBIBBBBBBBBB, TimeUS,Bus,Id,DLC,B0,B1,B2,B3,B4,B5,B6,B7
FMT, 67, 81, CAFD, QBIBQQQQQQQQ, TimeUS,Bus,Id,DLC,D0,D1,D2,D3,D4,D5,D6,D7
FMT, 196, 50, PL, QBBfffffffIIB, TimeUS,Heal,TAcq,pX,pY,vX,vY,mX,mY,mZ,LastMeasMS,EKFOutl,Est
FMT, 68, 24, POWR, QffHHB, TimeUS,Vcc,VServo,Flags,AccFlags,Safety
FMT, 69, 27, MCU, Qffff, TimeUS,MTemp,MVolt,MVmin,MVmax
FMT, 93, 46, CMD, QHHHffffLLfB, TimeUS,CTot,CNum,CId,Prm1,Prm2,Prm3,Prm4,Lat,Lng,Alt,Frame
FMT, 92, 46, MISE, QHHHffffLLfB, TimeUS,CTot,CNum,CId,Prm1,Prm2,Prm3,Prm4,Lat,Lng,Alt,Frame
FMT, 78, 48, MAVC, QBBBBBHffffiifBB, TimeUS,TS,TC,SS,SC,Fr,Cmd,P1,P2,P3,P4,X,Y,Z,Res,WL
FMT, 79, 20, RAD, QBBBBBHH, TimeUS,RSSI,RemRSSI,TxBuf,Noise,RemNoise,RxErrors,Fixed
FMT, 81, 46, CAM, QBHIHLLeeeccC, TimeUS,I,Img,GPSTime,GPSWeek,Lat,Lng,Alt,RelAlt,GPSAlt,R,P,Y
FMT, 82, 46, TRIG, QBHIHLLeeeccC, TimeUS,I,Img,GPSTime,GPSWeek,Lat,Lng,Alt,RelAlt,GPSAlt,R,P,Y
FMT, 83, 48, MNT, QBfffffffff, TimeUS,I,DRoll,Roll,DPitch,Pitch,DYawB,YawB,DYawE,YawE,Dist
FMT, 114, 41, ARSP, QBffcffBBffB, TimeUS,I,Airspeed,DiffPress,Temp,RawPress,Offset,U,H,Hp,TR,Pri
FMT, 88, 41, BAT, QBfffffcfBBB, TimeUS,Inst,Volt,VoltR,Curr,CurrTot,EnrgTot,Temp,Res,RemPct,H,SH
FMT, 89, 40, BCL, QBfHHHHHHHHHHHH, TimeUS,Instance,Volt,V1,V2,V3,V4,V5,V6,V7,V8,V9,V10,V11,V12
FMT, 113, 35, MAG, QBhhhhhhhhhBI, TimeUS,I,MagX,MagY,MagZ,OfsX,OfsY,OfsZ,MOX,MOY,MOZ,Health,S
FMT, 122, 14, MODE, QMBB, TimeUS,Mode,ModeNum,Rsn
FMT, 116, 17, RFND, QBCBBb, TimeUS,Instance,Dist,Stat,Orient,Quality
FMT, 117, 36, DMS, QIIIIBBBBBBBBB, TimeUS,N,Dp,RT,RS,Fa,Fmn,Fmx,Pa,Pmn,Pmx,Sa,Smn,Smx
FMT, 174, 41, BCN, QBBfffffff, TimeUS,Health,Cnt,D0,D1,D2,D3,PosX,PosY,PosZ
FMT, 175, 57, PRX, QBBfffffffffff, TimeUS,Layer,He,D0,D45,D90,D135,D180,D225,D270,D315,DUp,CAn,CDis
FMT, 176, 44, PRXR, QBffffffff, TimeUS,Layer,D0,D45,D90,D135,D180,D225,D270,D315
FMT, 179, 61, PM, QHHHIIHHIIIIIIQ, TimeUS,LR,NLon,NL,MaxT,Mem,Load,ErrL,InE,ErC,SPIC,I2CC,I2CI,Ex,R
FMT, 178, 29, SRTL, QBHHBfff, TimeUS,Active,NumPts,MaxPts,Action,N,E,D
FMT, 170, 48, OABR, QBBHHHBfLLiLLi, TimeUS,Type,Act,DYaw,Yaw,DP,RChg,Mar,DLt,DLg,DAlt,OLt,OLg,OAlt
FMT, 171, 31, OADJ, QBBBBLLLL, TimeUS,State,Err,CurrPoint,TotPoints,DLat,DLng,OALat,OALng
FMT, 172, 37, SA, QBffffffB, TimeUS,State,DVelX,DVelY,DVelZ,MVelX,MVelY,MVelZ,Back
FMT, 173, 21, OAVG, QBBLL, TimeUS,version,point_num,Lat,Lon
FMT, 77, 45, SIM, QccCfLLffff, TimeUS,Roll,Pitch,Yaw,Alt,Lat,Lng,Q1,Q2,Q3,Q4
FMT, 84, 38, TERR, QBLLHffHHf, TimeUS,Status,Lat,Lng,Spacing,TerrH,CHeight,Pending,Loaded,ROfs
FMT, 86, 40, ESC, QBffffcfcf, TimeUS,Instance,RPM,RawRPM,Volt,Curr,Temp,CTot,MotTemp,Err
FMT, 87, 15, EDT2, QBBBB, TimeUS,Instance,Stress,MaxStress,Status
FMT, 85, 46, CSRV, QBfffBfffffB, TimeUS,Id,Pos,Force,Speed,Pow,PosCmd,V,A,MotT,PCBT,Err
FMT, 105, 52, PIDR, QffffffffffB, TimeUS,Tar,Act,Err,P,I,D,FF,DFF,Dmod,SRate,Flags
FMT, 106, 52, PIDP, QffffffffffB, TimeUS,Tar,Act,Err,P,I,D,FF,DFF,Dmod,SRate,Flags
FMT, 107, 52, PIDY, QffffffffffB, TimeUS,Tar,Act,Err,P,I,D,FF,DFF,Dmod,SRate,Flags
FMT, 108, 52, PIDA, QffffffffffB, TimeUS,Tar,Act,Err,P,I,D,FF,DFF,Dmod,SRate,Flags
FMT, 109, 52, PIDS, QffffffffffB, TimeUS,Tar,Act,Err,P,I,D,FF,DFF,Dmod,SRate,Flags
FMT, 110, 52, PIDN, QffffffffffB, TimeUS,Tar,Act,Err,P,I,D,FF,DFF,Dmod,SRate,Flags
FMT, 111, 52, PIDE, QffffffffffB, TimeUS,Tar,Act,Err,P,I,D,FF,DFF,Dmod,SRate,Flags
FMT, 112, 56, DSTL, QBfLLeccfeffff, TimeUS,Stg,THdg,Lat,Lng,Alt,XT,Travel,L1I,Loiter,Des,P,I,D
FMT, 161, 32, ACC, QBQfff, TimeUS,I,SampleUS,AccX,AccY,AccZ
FMT, 162, 32, GYR, QBQfff, TimeUS,I,SampleUS,GyrX,GyrY,GyrZ
FMT, 163, 54, IMU, QBffffffIIfBBHH, TimeUS,I,GyrX,GyrY,GyrZ,AccX,AccY,AccZ,EG,EA,T,GH,AH,GHz,AHz
FMT, 166, 28, VIBE, QBfffI, TimeUS,IMU,VibeX,VibeY,VibeZ,Clip
FMT, 164, 31, ISBH, QHBBHHQf, TimeUS,N,type,instance,mul,smp_cnt,SampleUS,smp_rate
FMT, 165, 207, ISBD, QHHaaa, TimeUS,N,seqno,x,y,z
FMT, 129, 15, RFRH, QI, TimeUS,TF
FMT, 130, 5, RFRF, BB, FTypes,Slow
FMT, 138, 38, RFRN, IIIfIfffBBB, HLat,HLon,HAlt,E2T,AM,TX,TY,TZ,VC,EKT,Flags
FMT, 131, 4, REV2, B, Event
FMT, 132, 15, RSO2, III, Lat,Lon,Alt
FMT, 133, 11, RWA2, ff, Airspeed,uncertainty
FMT, 134, 4, REV3, B, Event
FMT, 135, 15, RSO3, III, Lat,Lon,Alt
FMT, 136, 11, RWA3, ff, Airspeed,Uncertainty
FMT, 137, 16, REY3, ffIB, yawangle,yawangleerr,timestamp_ms,type
FMT, 139, 13, RISH, HBBfBB, LR,PG,PA,LD,AC,GC
FMT, 140, 37, RISI, ffffffffBB, DVX,DVY,DVZ,DAX,DAY,DAZ,DVDT,DADT,Flags,I
FMT, 148, 5, RASH, BB, Primary,NumInst
FMT, 149, 14, RASI, fIBBB, pd,UpdateMS,H,Use,I
FMT, 141, 5, RBRH, BB, Primary,NumInst
FMT, 142, 13, RBRI, IfBB, LastUpdate,Alt,H,I
FMT, 143, 8, RRNH, hhB, GCl,MaxD,NumSensors
FMT, 144, 20, RRNI, fffHBBB, PX,PY,PZ,Dist,Orient,Status,I
FMT, 145, 5, RGPH, BB, NumInst,Primary
FMT, 146, 23, RGPI, ffffBBBB, OX,OY,OZ,Lg,Flags,Stat,NSats,I
FMT, 147, 58, RGPJ, IffffffIiiiffHB, TS,VX,VY,VZ,SA,Y,YA,YT,Lat,Lon,Alt,HA,VA,HD,I
FMT, 153, 14, RMGH, fBBBBBBB, Dec,Avail,NumInst,AutoDec,NumEna,LOE,C,FUsable
FMT, 154, 35, RMGI, IffffffBBBB, LU,OX,OY,OZ,FX,FY,FZ,UFY,H,HSF,I
FMT, 150, 33, RBCH, ffffiiiBB, PX,PY,PZ,AE,OLat,OLng,OAlt,Flags,NumInst
FMT, 151, 25, RBCI, IffffBB, LU,PX,PY,PZ,Dist,H,I
FMT, 152, 21, RVOH, fffIBB, OX,OY,OZ,Del,H,Ena
FMT, 155, 40, ROFH, ffffIffffB, FX,FY,GX,GY,Tms,PX,PY,PZ,HgtOvr,Qual
FMT, 156, 49, REPH, fffffffffIIH, PX,PY,PZ,Q1,Q2,Q3,Q4,PEr,AEr,TS,RT,D
FMT, 157, 19, RSLL, IIfI, Lat,Lng,PosAccSD,TS
FMT, 158, 25, REVH, ffffIH, VX,VY,VZ,Er,TS,D
FMT, 159, 31, RWOH, ffIffff, DA,DT,TS,PX,PY,PZ,R
FMT, 160, 53, RBOH, ffffffffIfffH, Q,DPX,DPY,DPZ,DAX,DAY,DAZ,DT,TS,OX,OY,OZ,D
FMT, 43, 37, XKF0, QBBccCCcccccccc, TimeUS,C,ID,rng,innov,SIV,TR,BPN,BPE,BPD,OFH,OFL,OFN,OFE,OFD
FMT, 44, 56, XKF1, QBccCfffffffccce, TimeUS,C,Roll,Pitch,Yaw,VN,VE,VD,dPD,PN,PE,PD,GX,GY,GZ,OH
FMT, 45, 46, XKF2, QBccccchhhhhhfff, TimeUS,C,AX,AY,AZ,VWN,VWE,MN,ME,MD,MX,MY,MZ,IDX,IDY,IS
FMT, 46, 42, XKF3, QBcccccchhhccff, TimeUS,C,IVN,IVE,IVD,IPN,IPE,IPD,IMX,IMY,IMZ,IYAW,IVT,RErr,ErSc
FMT, 47, 44, XKF4, QBcccccfffHBIHb, TimeUS,C,SV,SP,SH,SM,SVT,errRP,OFN,OFE,FS,TS,SS,GPS,PI
FMT, 48, 41, XKF5, QBBhhhcccCCfff, TimeUS,C,NI,FIX,FIY,AFI,HAGL,offset,RI,rng,Herr,eAng,eVel,ePos
FMT, 49, 36, XKFD, QBffffff, TimeUS,C,IX,IY,IZ,IVX,IVY,IVZ
FMT, 50, 29, XKFM, QBBffff, TimeUS,C,OGNM,GLR,ALR,GDR,ADR
FMT, 51, 20, XKFS, QBBBBBBBBB, TimeUS,C,MI,BI,GI,AI,SS,GPS_GTA,GPS_CHK_WAIT,MAG_FUSION
FMT, 52, 28, XKQ, QBffff, TimeUS,C,Q1,Q2,Q3,Q4
FMT, 53, 48, XKT, QBIffffffff, TimeUS,C,Cnt,IMUMin,IMUMax,EKFMin,EKFMax,AngMin,AngMax,VMin,VMax
FMT, 54, 20, XKTV, QBff, TimeUS,C,TVS,TVD
FMT, 55, 60, XKV1, QBffffffffffff, TimeUS,C,V00,V01,V02,V03,V04,V05,V06,V07,V08,V09,V10,V11
FMT, 56, 60, XKV2, QBffffffffffff, TimeUS,C,V12,V13,V14,V15,V16,V17,V18,V19,V20,V21,V22,V23
FMT, 57, 60, XKY0, QBffffffffffff, TimeUS,C,YC,YCS,Y0,Y1,Y2,Y3,Y4,W0,W1,W2,W3,W4
FMT, 58, 52, XKY1, QBffffffffff, TimeUS,C,IVN0,IVN1,IVN2,IVN3,IVN4,IVE0,IVE1,IVE2,IVE3,IVE4
FMT, 41, 60, NKY0, QBffffffffffff, TimeUS,C,YC,YCS,Y0,Y1,Y2,Y3,Y4,W0,W1,W2,W3,W4
FMT, 42, 52, NKY1, QBffffffffff, TimeUS,C,IVN0,IVN1,IVN2,IVN3,IVN4,IVE0,IVE1,IVE2,IVE3,IVE4
FMT, 70, 45, AHR2, QccCfLLffff, TimeUS,Roll,Pitch,Yaw,Alt,Lat,Lng,Q1,Q2,Q3,Q4
FMT, 71, 19, AOA, Qff, TimeUS,AOA,SSA
FMT, 72, 36, ATT, QffffffB, TimeUS,DesRoll,Roll,DesPitch,Pitch,DesYaw,Yaw,AEKF
FMT, 73, 24, ORGN, QBLLe, TimeUS,Type,Lat,Lng,Alt
FMT, 74, 31, POS, QLLfff, TimeUS,Lat,Lng,Alt,RelHomeAlt,RelOriginAlt
FMT, 76, 35, ATSC, Qffffff, TimeUS,AngPScX,AngPScY,AngPScZ,PDScX,PDScY,PDScZ
FMT, 204, 51, VSTB, Qffffffffff, TimeUS,GyrX,GyrY,GyrZ,AccX,AccY,AccZ,Q1,Q2,Q3,Q4
FMT, 90, 38, MON, QIbIHHHHHII, TimeUS,Dly,Tsk,IErr,IErrCnt,IErrLn,MM,MC,SmLn,SPICnt,I2CCnt
FMT, 91, 47, WDOG, QbIHHHHHHHIBIIn, TimeUS,Tsk,IE,IEC,IEL,MvMsg,MvCmd,SmLn,FL,FT,FA,FP,ICSR,LR,TN
FMT, 210, 20, UART, QBff, TimeUS,I,Tx,Rx
FMT, 115, 21, RPM, QBffB, TimeUS,I,RPM,Qual,H
FMT, 209, 27, FNCE, QBBBLLBf, TimeUS,Tot,Seq,Type,Lat,Lng,Count,Radius
FMT, 177, 33, DSF, QIHIIII, TimeUS,Dp,Blk,Bytes,FMn,FMx,FAv
FMT, 121, 24, RALY, QBBLLhB, TimeUS,Tot,Seq,Lat,Lng,Alt,Flags
FMT, 183, 23, MAV, QBHHHBHH, TimeUS,chan,txp,rxp,rxdp,flags,ss,tf
FMT, 167, 43, VISO, Qffffffff, TimeUS,dt,AngDX,AngDY,AngDZ,PosDX,PosDY,PosDZ,conf
FMT, 168, 58, VISP, QQIffffffffBBb, TimeUS,RTimeUS,CTimeMS,PX,PY,PZ,R,P,Y,PErr,AErr,Rst,Ign,Q
FMT, 169, 42, VISV, QQIffffBBb, TimeUS,RTimeUS,CTimeMS,VX,VY,VZ,VErr,Rst,Ign,Q
FMT, 180, 28, OF, QBffff, TimeUS,Qual,flowX,flowY,bodyX,bodyY
FMT, 182, 21, WENC, Qfbfb, TimeUS,Dist0,Qual0,Dist1,Qual1
FMT, 185, 35, ADSB, QIiiiHHhH, TimeUS,ICAO_address,Lat,Lng,Alt,Heading,Hor_vel,Ver_vel,Squark
FMT, 181, 12, EV, QB, TimeUS,Id
FMT, 186, 18, ARM, QBIBB, TimeUS,ArmState,ArmChecks,Forced,Method
FMT, 184, 13, ERR, QBB, TimeUS,Subsys,ECode
FMT, 187, 35, WINC, QBBBBBfffHfb, TimeUS,Heal,ThEnd,Mov,Clut,Mode,DLen,Len,DRate,Tens,Vcc,Temp
FMT, 188, 47, PSCN, Qfffffffff, TimeUS,DPN,TPN,PN,DVN,TVN,VN,DAN,TAN,AN
FMT, 189, 47, PSCE, Qfffffffff, TimeUS,DPE,TPE,PE,DVE,TVE,VE,DAE,TAE,AE
FMT, 190, 47, PSCD, Qfffffffff, TimeUS,DPD,TPD,PD,DVD,TVD,VD,DAD,TAD,AD
FMT, 191, 35, PSON, Qffffff, TimeUS,TPON,PON,TVON,VON,TAON,AON
FMT, 192, 35, PSOE, Qffffff, TimeUS,TPOE,POE,TVOE,VOE,TAOE,AOE
FMT, 193, 35, PSOD, Qffffff, TimeUS,TPOD,POD,TVOD,VOD,TAOD,AOD
FMT, 194, 35, PSOT, Qffffff, TimeUS,TPOT,POT,TVOT,VOT,TAOT,AOT
FMT, 75, 63, RATE, Qfffffffffffff, TimeUS,RDes,R,ROut,PDes,P,POut,YDes,Y,YOut,ADes,A,AOut,AOutSlew
FMT, 195, 39, ANG, Qfffffff, TimeUS,DesRoll,Roll,DesPitch,Pitch,DesYaw,Yaw,Dt
FMT, 201, 33, STAK, QBBHHN, TimeUS,Id,Pri,Total,Free,Name
FMT, 202, 88, FILE, NIBZ, FileName,Offset,Length,Data
FMT, 197, 78, AISR, QBBBZ, TimeUS,num,total,ID,payload
FMT, 198, 41, AIS1, QBBIBbHbLLHHBBbI, US,typ,rep,mmsi,nav,rot,sog,pos,lon,lat,cog,hed,sec,man,raim,rad
FMT, 199, 38, AIS4, QBIHBBBBBBLLBBI, US,rep,mmsi,year,mth,day,h,m,s,fix,lon,lat,epfd,raim,rad
FMT, 200, 175, AIS5, QBIBINZBHHBBBBZB, US,rep,mmsi,ver,imo,cal,nam,typ,bow,stn,prt,str,fix,dght,dst,dte
FMT, 203, 39, SCR, QNIii, TimeUS,Name,Runtime,Total_mem,Run_mem
FMT, 206, 90, VER, QBHBBBBIZHBB, TimeUS,BT,BST,Maj,Min,Pat,FWT,GH,FWS,APJ,BU,FV
FMT, 205, 32, MOTB, QfffffB, TimeUS,LiftMax,BatVolt,ThLimit,ThrAvMx,ThrOut,FailFlags
FMT, 6, 24, PTUN, QBfff, TimeUS,Param,TunVal,TunMin,TunMax
FMT, 0, 55, CTUN, Qffffffefffhh, TimeUS,ThI,ABst,ThO,ThH,DAlt,Alt,BAlt,DSAlt,SAlt,TAlt,DCRt,CRt
FMT, 1, 14, D16, QBh, TimeUS,Id,Value
FMT, 2, 14, DU16, QBH, TimeUS,Id,Value
FMT, 3, 16, D32, QBi, TimeUS,Id,Value
FMT, 4, 16, DU32, QBI, TimeUS,Id,Value
FMT, 5, 16, DFLT, QBf, TimeUS,Id,Value
FMT, 9, 47, SIDD, Qfffffffff, TimeUS,Time,Targ,F,Gx,Gy,Gz,Ax,Ay,Az
FMT, 10, 40, SIDS, QBfffffff, TimeUS,Ax,Mag,FSt,FSp,TFin,TC,TR,TFout
FMT, 8, 49, GUIP, QBfffbffffff, TimeUS,Type,pX,pY,pZ,Terrain,vX,vY,vZ,aX,aY,aZ
FMT, 11, 44, GUIA, QBffffffff, TimeUS,Type,Roll,Pitch,Yaw,RollRt,PitchRt,YawRt,Thrust,ClimbRt
FMT, 249, 25, SURF, QBBfff, TimeUS,I,St,D,FD,TO
SURF, 53464956, 0, 2, 0, 0, -0.256071
SURF, 53464984, 1, 2, 0, 0, -0.256071
IMU, 53475057, 0, -0.0002581016, -0.002274291, 0.0001662451, 0.07419627, -0.262817, -9.804242, 0, 0, 44.80676, 1, 1, 2022, 2022
IMU, 53475057, 1, 0.0007085441, -0.0006087927, -0.0003422715, 0.07678737, -0.2610333, -9.830083, 0, 0, 45, 1, 1, 1998, 2046
POWR, 53515012, 4.950202, 0, 1, 1, 6
MCU, 53515012, 43.9165, 3.353185, 3.344179, 3.361248
BAT, 53515025, 0, 14.53987, 14.57255, 5.106117, 68.67313, 1.006194, 0, 0.006400669, 97, 1, 0
MAG, 53515040, 0, 408, -136, 95, 102, 25, 42, 0, 0, 0, 1, 53515038
MAG, 53515040, 1, 400, -52, 143, 32, 17, -32, 0, 0, 0, 1, 53515037
SURF, 53515058, 0, 2, 0, 0, -0.2560174
SURF, 53515083, 1, 2, 0, 0, -0.2560174
BARO, 53515116, 0, -0.260498, 634.8495, 93685.27, 46.19, 0.04409789, 53515, 0, 35, 1
CTUN, 53515147, 0, 0, 0, 0.4229944, 0, -0.2543115, -0.26, NaN, 0, -0.0003559869, 0, 1
ATT, 53515201, -20.70461, 1.556262, 22.20737, 0.4205712, 15.5265, 15.5265, 3
ANG, 53514610, -20.70461, 1.556262, 22.20737, 0.4205712, 15.5265, 15.5265, 0.0025
RATE, 53514623, -102.0663, -0.003042532, -0.2404118, 94.00784, 0.03954676, 0.2212972, 17.10831, 0.002392327, 0.05376816, 0.6978035, 0.00743866, 0, 0
PIDR, 53515218, -1.781429, -5.310221E-05, -1.781376, -0.2404858, 0, 7.406569E-05, 0, 0, 1, 0.48335, 9
PIDP, 53515222, 1.64079, 0.0006902212, 1.6401, 0.2214135, 0, -0.0001163466, 0, 0, 1, 0.548682, 9
PIDY, 53515226, 0.2985916, 4.175398E-05, 0.298712, 0.05376816, 0, 0, 0, 0, 1, 0.02475071, 9
PIDA, 53515230, 0.6978035, 0.6978035, 0, 0, -422.9946, 0, 0, 0, 1, 0, 13
XKF4, 53514733, 0, 0.02, 0.01, 0, 0.02, 0, 0.006963477, 0.1945541, -1.967802, 0, 48, 109375, 0, 0
XKY0, 53514733, 0, 180.0323, 15.03838, 215.9986, 287.9986, 359.9986, 71.99862, 143.9986, 0.2, 0.2, 0.2, 0.2, 0.2
XKY1, 53514733, 0, 0, 0, 0, 0, 0, 0, 0, 0, 0, 0
XKF1, 53514733, 0, 1.55, 0.42, 15.52, 0.01464389, 0.02182577, -0.01173503, -0.01521742, 0.3033096, -1.93236, 0.2543115, -0.03, -0.1, 0.02, 635.11
XKF2, 53514733, 0, 0, 0, 0, 0, 0, 400, -5, 144, 0, 0, 0, 0, 0, 0
XKF3, 53514733, 0, 0.04, 0.03, 0.02, -0.25, 0.01, -0.17, 0, 0, 0, -2.06, 0, 0, 0.0004089444
XKF5, 53514733, 0, 0, 0, 0, 0, 0.14, 0.4, 0, 0, 0.5, 0.0003666132, 0.002311558, 0.00544574
XKFS, 53514733, 0, 0, 0, 0, 0, 0, 1, 0, 1
XKQ, 53514733, 0, 0.9907434, 0.01296025, 0.00547064, 0.1350173
XKF4, 53514733, 1, 0.01, 0.01, 0, 0.02, 0, 0.00695824, 0.2089318, -1.965155, 0, 48, 109375, 0, 0
XKY0, 53514733, 1, 180.0874, 15.03605, 215.9978, 287.9978, 359.9978, 71.99784, 143.9978, 0.2, 0.2, 0.2, 0.2, 0.2
XKY1, 53514733, 1, 0, 0, 0, 0, 0, 0, 0, 0, 0, 0
XKF1, 53514733, 1, 1.51, 0.47, 15.49, 0.004524383, 0.02528664, -0.01497004, -0.01527221, 0.2945019, -1.931435, 0.2489179, -0.01, -0.01, 0.01, 635.11
XKF2, 53514733, 1, 0, 0, 0, 0, 0, 400, -5, 144, 0, 0, 0, 0, 0, 0
XKF3, 53514733, 1, 0.03, 0.03, 0.02, -0.26, 0.01, -0.18, 0, 0, 0, -2.08, 0, 0.002202442, 0.000369869
XKFS, 53514733, 1, 0, 0, 0, 0, 0, 1, 0, 1
XKQ, 53514733, 1, 0.9907854, 0.01255305, 0.005863728, 0.1347311
AHR2, 53515405, 1.43, 0.29, 15.61, 634.42, 15.3676458, 75.1248188, 0.9906523, 0.01208083, 0.004297349, 0.1358074
POS, 53515411, 15.3676436, 75.1248189, 634.85, 0.005688492, -0.2543115
MOTB, 53515416, 1, 1, 1, 0.04229945, 0, 2
RCIN, 53515423, 1102, 1927, 1102, 1927, 1404, 2000, 2000, 1000, 2000, 875, 875, 875, 875, 875
RCI2, 53515426, 875, 875, 0, 1
RCOU, 53515433, 1000, 1000, 1000, 1000, 0, 0, 0, 0, 0, 0, 0, 0, 0, 0
RCO2, 53515436, 0, 0, 0, 0
VIBE, 53515441, 0, 0.008955908, 0.009102, 0.009025376, 0
VIBE, 53515441, 1, 0.06311648, 0.06445851, 0.08184204, 0
FMT, 246, 31, CTRL, Qfffff, TimeUS,RMSRollP,RMSRollD,RMSPitchP,RMSPitchD,RMSYaw
CTRL, 53515449, 0.2404962, 0.0005186084, 0.2215169, 0.0005679165, 0.05379307
IMU, 53515479, 0, -0.0006642033, -0.001168617, 0.0005070498, 0.07859104, -0.2603045, -9.806495, 0, 0, 44.80676, 1, 1, 2022, 2022
IMU, 53515479, 1, -0.001466755, -0.002728218, 0.001283176, 0.09323964, -0.2611105, -9.811715, 0, 0, 45, 1, 1, 1998, 2046
FMT, 252, 43, DCM, Qffffffff, TimeUS,Roll,Pitch,Yaw,ErrRP,ErrYaw,VWN,VWE,VWD
DCM, 53517268, 1.437409, 0.3009509, 15.61581, 0.01420258, 0.01539031, 0, 0, 0
FMT, 251, 51, EAHR, QffffffLLfI, TimeUS,Roll,Pitch,Yaw,VN,VE,VD,Lat,Lon,Alt,Flg
EAHR, 53517325, 0, 0, 0, 0, 0, 0, 0, 0, 0, 0
MSG, 53530680, ArduCopter V4.6.2 (1ebd4d99)
MSG, 53530688, ChibiOS: 88b84600
VER, 53530693, 10, 5009, 4, 6, 2, 255, 515722649, ArduCopter V4.6.2 (1ebd4d99), 56, 2, 2
MSG, 53530705, Pixhawk6C 003D0048 3133510F 31343630
MSG, 53530787, Param space used: 922/5376
MSG, 53530795, RC Protocol: SBUS
MSG, 53530805, RCOut: PWM:1-16
MSG, 53530811, New mission
CMD, 53532750, 4, 0, 16, 0, 0, 0, 0, 15.3676435, 75.1248189, 634.85, 0
CMD, 53532759, 4, 1, 22, 1, 0, 0, 0, 0, 0, 10, 3
CMD, 53532766, 4, 2, 16, 10, 0, 0, 0, 15.367361, 75.1254623, 10, 3
CMD, 53532772, 4, 3, 20, 0, 0, 0, 0, 0, 0, 0, 0
MSG, 53532777, New rally
MSG, 53532782, New fence
FNCE, 53532789, 14, 0, 98, 15.3679153, 75.1255443, 14, 0
FNCE, 53532801, 14, 1, 98, 15.3678714, 75.1258394, 14, 0
FNCE, 53532819, 14, 2, 98, 15.3676541, 75.1260915, 14, 0
FNCE, 53532837, 14, 3, 98, 15.3674795, 75.1260915, 14, 0
FNCE, 53532844, 14, 4, 98, 15.3673825, 75.1260754, 14, 0
FNCE, 53532852, 14, 5, 98, 15.3673075, 75.12607, 14, 0
FNCE, 53532859, 14, 6, 98, 15.3670748, 75.1260566, 14, 0
FNCE, 53532864, 14, 7, 98, 15.3668963, 75.1258796, 14, 0
FNCE, 53532872, 14, 8, 98, 15.366811, 75.1255792, 14, 0
FNCE, 53532879, 14, 9, 98, 15.3668653, 75.1252922, 14, 0
FNCE, 53532885, 14, 10, 98, 15.3670334, 75.1250857, 14, 0
FNCE, 53532919, 14, 11, 98, 15.3673696, 75.1251125, 14, 0
FNCE, 53532925, 14, 12, 98, 15.3675817, 75.1251393, 14, 0
FNCE, 53532930, 14, 13, 98, 15.3678481, 75.1253163, 14, 0
MSG, 53532939, Frame: QUAD/X
MODE, 53532944, Stabilize, 0, 1
ORGN, 53532948, 0, 15.3676409, 75.124837, 635.11
ORGN, 53532952, 1, 15.3676435, 75.1248189, 634.85
MSG, 53532961, GPS 1: probing for u-blox at 230400 baud
MSG, 53532970, u-blox 1 HW: 00190000 SW: EXT CORE 4.04 (7f89f7)
IMU, 53555488, 0, -0.0003031185, -0.001551989, 0.0003562534, 0.07557061, -0.2633989, -9.801526, 0, 0, 44.80676, 1, 1, 2022, 2022
IMU, 53555488, 1, 0.0001321144, -0.0008994193, 0.001298874, 0.09432004, -0.2546123, -9.805221, 0, 0, 45, 1, 1, 1998, 2046
FILE, @SYS/uarts.txt, 0, 64, UARTV1\nSERIAL0 OTG1  TX =       0 RX =       0 TXBD=     0 RXBD=
SURF, 53564995, 0, 2, 0, 0, -0.2559341
SURF, 53565012, 1, 2, 0, 0, -0.2559341
FILE, @SYS/uarts.txt, 64, 64,      0 FE=0 OE=0 NE=0 FlowCtrl=0\nSERIAL1 UART7 TX*=   68399 RX*=
STAK, 53568844, 255, 255, 1536, 1268, ISR
FILE, @SYS/uarts.txt, 128, 64,    11734 TXBD= 12826 RXBD=  2200 FE=0 OE=0 NE=0 FlowCtrl=0\nSERIA
FILE, @SYS/uarts.txt, 192, 64, L2 UART5 TX*=    1614 RX*=       0 TXBD=   302 RXBD=     0 FE=0 
IMU, 53595312, 0, -0.0003855554, -0.001563918, 0.0004294087, 0.07283, -0.2651123, -9.806149, 0, 0, 44.80676, 1, 1, 2022, 2022
IMU, 53595312, 1, -6.609209E-05, -0.00158639, -0.0001307574, 0.08277722, -0.2282542, -9.812975, 0, 0, 45, 1, 1, 1998, 2046
FILE, @SYS/uarts.txt, 256, 64, OE=0 NE=0 FlowCtrl=0\nSERIAL3 UART1 TX*=    1646 RX*=   32818 TXB
FILE, @SYS/uarts.txt, 320, 64, D=   308 RXBD=  6154 FE=145 OE=0 NE=163 FlowCtrl=0\nSERIAL4 UART8
GPS, 53615130, 0, 3, 302334400, 2379, 14, 0.74, 15.3676459, 75.1248188, 632, 0.058, 0, -0.07, 0, 1
GPA, 53615130, 0, 1.07, 1.9, 2.46, 0.35, 0, 1, 53599, 200, 553.99, 0, 0
POWR, 53615144, 4.953223, 0, 1, 1, 6
MCU, 53615144, 43.89662, 3.353891, 3.346426, 3.359264
BAT, 53615199, 0, 14.55827, 14.59095, 5.105935, 68.8152, 1.008262, 0, 0.006400669, 97, 1, 0
MAG, 53615233, 0, 414, -135, 92, 102, 25, 42, 0, 0, 0, 1, 53615231
MAG, 53615233, 1, 398, -54, 140, 32, 17, -32, 0, 0, 0, 1, 53615230
SURF, 53615252, 0, 2, 0, 0, -0.2558224
SURF, 53615260, 1, 2, 0, 0, -0.2558224
BARO, 53615280, 0, -0.3104858, 634.7995, 93685.83, 46.19, -0.2039719, 53615, 0, 35, 1
CTUN, 53615293, 0, 0, 0, 0.4229944, 0, -0.2529848, -0.31, NaN, 0, 1.022406E-05, 0, 1
ATT, 53615372, -20.7046, 1.555875, 22.20737, 0.4212136, 15.5402, 15.5402, 3
ANG, 53614611, -20.7046, 1.555875, 22.20737, 0.4212136, 15.5402, 15.5402, 0.002501
RATE, 53614625, -102.0646, 0.005207982, -0.2404578, 94.00501, -0.05821536, 0.2218496, 17.10824, -0.01983116, 0.05378434, 0.6978035, 0.1521111, 0, 0
PIDR, 53615407, -1.781372, 9.089644E-05, -1.781463, -0.2404975, 0, 3.974479E-05, 0, 0, 1, 0.437298, 9
PIDP, 53615411, 1.640656, -0.00101605, 1.641672, 0.2216257, 0, 0.0002238721, 0, 0, 1, 0.4964054, 9
PIDY, 53615418, 0.2985892, -0.000346119, 0.2988019, 0.05378434, 0, 0, 0, 0, 1, 0.02239254, 9
PIDA, 53615421, 0.6978035, 0.6978035, 0, 0, -422.9946, 0, 0, 0, 1, 0, 13
XKF4, 53614798, 0, 0.02, 0.01, 0, 0.02, 0, 0.00703913, 0.1945541, -1.967802, 0, 48, 109375, 0, 0
XKY0, 53614798, 0, 180.0502, 15.03763, 215.9978, 287.9978, 359.9978, 71.9978, 143.9978, 0.2, 0.2, 0.2, 0.2, 0.2
XKY1, 53614798, 0, 0, 0, 0, 0, 0, 0, 0, 0, 0, 0
XKF1, 53614798, 0, 1.55, 0.42, 15.54, 0.01453646, 0.02145975, -0.01196295, -0.01504267, 0.3077733, -1.931422, 0.2529848, -0.03, -0.1, 0.02, 635.11
XKF2, 53614798, 0, 0, 0, 0, 0, 0, 400, -5, 144, 0, 0, 0, 0, 0, 0
XKF3, 53614798, 0, 0.04, 0.03, 0.02, -0.25, 0.01, 0, 0, 0, 0, -2.44, 0, 0, 0.0004089444
XKF5, 53614798, 0, 0, 0, 0, 0, 0.14, 0.4, 0, 0, 0.5, 0.0006433557, 0.001706669, 0.003385781
XKFS, 53614798, 0, 0, 0, 0, 0, 0, 1, 0, 1
XKQ, 53614798, 0, 0.9907272, 0.01295549, 0.005477288, 0.1351357
XKF4, 53614798, 1, 0.01, 0.01, 0, 0.02, 0, 0.007033655, 0.2089318, -1.965155, 0, 48, 109375, 0, 0
XKY0, 53614798, 1, 180.2609, 15.02868, 215.9935, 287.9935, 359.9935, 71.99346, 143.9935, 0.2, 0.2, 0.2, 0.2, 0.2
XKY1, 53614798, 1, 0, 0, 0, 0, 0, 0, 0, 0, 0, 0
XKF1, 53614798, 1, 1.51, 0.47, 15.5, 0.004874547, 0.02536611, -0.01528102, -0.0159233, 0.2989663, -1.930355, 0.2475063, -0.01, -0.01, 0.01, 635.11
XKF2, 53614798, 1, 0, 0, 0, 0, 0, 400, -5, 144, 0, 0, 0, 0, 0, 0
XKF3, 53614798, 1, 0.03, 0.03, 0.02, -0.26, 0.01, -0.01, 0, 0, 0, -2.46, 0, 0.002202442, 0.000369869
XKFS, 53614798, 1, 0, 0, 0, 0, 0, 1, 0, 1
XKQ, 53614798, 1, 0.9907679, 0.01252992, 0.005867339, 0.1348611
AHR2, 53615516, 1.4, 0.34, 15.63, 634.58, 15.3676458, 75.1248188, 0.9906274, 0.01173944, 0.004689779, 0.1360056
POS, 53615522, 15.3676436, 75.124819, 634.85, 0.007015232, -0.2529848
MOTB, 53615527, 1, 1, 1, 0.04229945, 0, 2
RCIN, 53615533, 1102, 1927, 1102, 1927, 1404, 2000, 2000, 1000, 2000, 875, 875, 875, 875, 875
RCI2, 53615536, 875, 875, 0, 1
RCOU, 53615543, 1000, 1000, 1000, 1000, 0, 0, 0, 0, 0, 0, 0, 0, 0, 0
RCO2, 53615546, 0, 0, 0, 0
VIBE, 53615551, 0, 0.009630428, 0.008104211, 0.0094488, 0
VIBE, 53615551, 1, 0.06179279, 0.06410681, 0.07512594, 0
CTRL, 53615562, 0.2405015, 0.0004252572, 0.221513, 0.0004695595, 0.05379063
DCM, 53617277, 1.40484, 0.3510758, 15.63943, 0.01603699, 0.01940922, 0, 0, 0
EAHR, 53617296, 0, 0, 0, 0, 0, 0, 0, 0, 0, 0
RAD, 53622547, 69, 0, 100, 102, 0, 0, 0
FILE, @SYS/uarts.txt, 384, 64,  TX*=       0 RX*=       0 TXBD=     0 RXBD=     0 FE=0 OE=0 NE=
IMU, 53635074, 0, -0.0007603722, -0.002377847, -0.0002408424, 0.07327545, -0.2641269, -9.812483, 0, 0, 44.80676, 1, 1, 2022, 2022
IMU, 53635074, 1, -0.0009296598, -0.002341588, -0.0002721187, 0.07290819, -0.2450164, -9.833318, 0, 0, 45, 1, 1, 1998, 2046
FILE, @SYS/uarts.txt, 448, 64, 0 FlowCtrl=0\nSERIAL5 UART2 TX =       0 RX =       0 TXBD=     0
FILE, @SYS/uarts.txt, 512, 64,  RXBD=     0 FE=0 OE=0 NE=0 FlowCtrl=0\nSERIAL6 UART3 TX =       
SURF, 53665011, 0, 2, 0, 0, -0.2556838
SURF, 53665024, 1, 2, 0, 0, -0.2556838
FILE, @SYS/uarts.txt, 576, 64, 0 RX =       0 TXBD=     0 RXBD=     0 FE=0 OE=0 NE=0 FlowCtrl=0
STAK, 53668863, 0, 182, 7168, 4016, ArduCopter
IMU, 53675114, 0, -0.0002686909, -0.001961168, 6.106863E-05, 0.07912014, -0.2631816, -9.805706, 0, 0, 44.80676, 1, 1, 2022, 2022
IMU, 53675114, 1, -0.0001437173, 0.0002797634, 0.001671436, 0.09043279, -0.2356825, -9.819365, 0, 0, 45, 1, 1, 1998, 2046
FILE, @SYS/uarts.txt, 640, 64, \nSERIAL7 OTG2  TX =       0 RX =       0 TXBD=     0 RXBD=     0
FILE, @SYS/uarts.txt, 704, 64,  FE=0 OE=0 NE=0 FlowCtrl=0\nIOMCU   UART6 TX*=  403200 RX*=  2565
FILE, @SYS/uarts.txt, 768, 53, 28 TXBD= 75610 RXBD= 48105 FE=0 OE=0 NE=0 FlowCtrl=0\n
POWR, 53715007, 4.951913, 0, 1, 1, 6
MCU, 53715007, 43.87674, 3.35375, 3.345864, 3.361673
BAT, 53715020, 0, 14.54884, 14.58155, 5.110512, 68.95694, 1.010324, 0, 0.006400669, 97, 1, 0
MAG, 53715032, 0, 409, -137, 73, 102, 25, 42, 0, 0, 0, 1, 53715031
MAG, 53715032, 1, 399, -53, 141, 32, 17, -32, 0, 0, 0, 1, 53715029
SURF, 53715053, 0, 2, 0, 0, -0.2554646
SURF, 53715062, 1, 2, 0, 0, -0.2554646
BARO, 53715081, 0, -0.2545776, 634.8554, 93685.21, 46.19, -0.08441926, 53715, 0, 35, 1
CTUN, 53715093, 0, 0, 0, 0.4229944, 0, -0.2496171, -0.25, NaN, 0, 0.009338837, 0, 1
ATT, 53715175, -20.7046, 1.550425, 22.20737, 0.424061, 15.55996, 15.55996, 3
ANG, 53714610, -20.7046, 1.550425, 22.20737, 0.424061, 15.55996, 15.55996, 0.002498
RATE, 53714625, -102.0407, 0.00426094, -0.2404124, 93.99142, 0.02166931, 0.221497, 17.1135, -0.006386123, 0.05377321, 0.6978035, -0.2481461, 0, 0
PIDR, 53715236, -1.780982, 7.436745E-05, -1.781057, -0.2404427, 0, 3.029511E-05, 0, 0, 1, 0.3956345, 9
PIDP, 53715240, 1.640476, 0.0003782008, 1.640097, 0.2214132, 0, 8.381178E-05, 0, 0, 1, 0.4491104, 9
PIDY, 53715244, 0.2986966, -0.0001114589, 0.29874, 0.05377321, 0, 0, 0, 0, 1, 0.0202591, 9
PIDA, 53715248, 0.6978035, 0.6978035, 0, 0, -422.9946, 0, 0, 0, 1, 0, 13
XKF4, 53714776, 0, 0.03, 0.01, 0, 0.02, 0, 0.006922395, 0.1945541, -1.967802, 0, 48, 109375, 0, 0
XKY0, 53714776, 0, 311.5541, 14.60169, 216.0037, 287.9993, 359.9906, 71.98975, 143.9979, 0.1999935, 0.200061, 0.2000442, 0.1999663, 0.199935
XKY1, 53714776, 0, -0.0271157, -0.02370211, -0.02070019, -0.02225851, -0.0262235, 0.04267442, 0.04062717, 0.04324106, 0.04690378, 0.04655358
XKF1, 53714776, 0, 1.55, 0.42, 15.55, 0.0142317, 0.01760121, -0.01310958, -0.0315212, 0.3140421, -1.935237, 0.2496172, -0.03, -0.1, 0.02, 635.11
XKF2, 53714776, 0, 0, 0, 0, 0, 0, 400, -5, 144, 0, 0, 0, 0, 0, 0
XKF3, 53714776, 0, 0.02, 0.07, 0.05, -0.25, 0, -0.06, 0, 0, 0, -2.13, 0, 0, 0.0007523875
XKF5, 53714776, 0, 0, 0, 0, 0, 0.15, 0.4, 0, 0, 0.5, 0.0007491988, 0.008331385, 0.01396107
XKFS, 53714776, 0, 0, 0, 0, 0, 0, 1, 0, 1
XKQ, 53714776, 0, 0.9907045, 0.01290406, 0.005497704, 0.1353064
XKF4, 53714776, 1, 0.03, 0.01, 0, 0.02, 0, 0.006916736, 0.2089318, -1.965155, 0, 48, 109375, 0, 0
XKY0, 53714776, 1, 299.8311, 14.35286, 215.996, 287.9939, 359.991, 71.99134, 143.9944, 0.2000025, 0.200023, 0.2000117, 0.1999842, 0.1999786
XKY1, 53714776, 1, -0.02498173, -0.02365539, -0.02280529, -0.02360624, -0.02495136, 0.04331867, 0.04285578, 0.04397416, 0.04512826, 0.04472314
XKF1, 53714776, 1, 1.5, 0.46, 15.53, 0.0053559, 0.02194802, -0.01697113, -0.03271193, 0.3056864, -1.934085, 0.2440411, -0.01, -0.01, 0.01, 635.11
XKF2, 53714776, 1, 0, 0, 0, 0, 0, 400, -5, 144, 0, 0, 0, 0, 0, 0
XKF3, 53714776, 1, 0.01, 0.08, 0.05, -0.26, 0, -0.06, 0, 0, 0, -2.15, 0, 0.002202442, 0.000752009
XKFS, 53714776, 1, 0, 0, 0, 0, 0, 1, 0, 1
XKQ, 53714776, 1, 0.9907412, 0.0124553, 0.005821396, 0.1350661
AHR2, 53715367, 1.37, 0.34, 15.66, 634.53, 15.3676459, 75.1248187, 0.9906051, 0.01150734, 0.004626938, 0.1361905
POS, 53715374, 15.3676437, 75.1248189, 634.86, 0.01038283, -0.2496172
MOTB, 53715379, 1, 1, 1, 0.04229945, 0, 2
RCIN, 53715385, 1102, 1927, 1102, 1927, 1404, 2000, 2000, 1000, 2000, 875, 875, 875, 875, 875
RCI2, 53715389, 875, 875, 0, 1
RCOU, 53715395, 1000, 1000, 1000, 1000, 0, 0, 0, 0, 0, 0, 0, 0, 0, 0
RCO2, 53715398, 0, 0, 0, 0
VIBE, 53715403, 0, 0.008853968, 0.008157038, 0.009122077, 0
VIBE, 53715403, 1, 0.06080941, 0.06282591, 0.07229326, 0
CTRL, 53715411, 0.2404911, 0.00034898, 0.221508, 0.0003888144, 0.05379186
IMU, 53715448, 0, -0.000528533, -0.001485352, 0.0003301279, 0.07604434, -0.2641729, -9.803493, 0, 0, 45.28986, 1, 1, 2022, 2022
IMU, 53715448, 1, -0.001723667, -0.004048498, 0.000309215, 0.08316069, -0.2553963, -9.801245, 0, 0, 45, 1, 1, 1998, 2046
DCM, 53717271, 1.377801, 0.3455856, 15.66066, 0.01603699, 0.02390125, 0, 0, 0
EAHR, 53717292, 0, 0, 0, 0, 0, 0, 0, 0, 0, 0
FILE, @SYS/memory.txt, 0, 64, MemInfoV1\nSTART=0x24000000 LEN=512k FREE=  2904 LRG=  1152 TYPE=
FILE, @SYS/memory.txt, 64, 64, 4\nSTART=0x30000000 LEN=256k FREE=262136 LRG=262136 TYPE=8\nSTART=
FILE, @SYS/memory.txt, 128, 64, 0x20000000 LEN=128k FREE=112544 LRG=112544 TYPE=2\nSTART=0x000004
FILE, @SYS/memory.txt, 192, 64, 00 LEN= 63k FREE= 64504 LRG= 64504 TYPE=2\nSTART=0x30040000 LEN= 
IMU, 53755487, 0, -0.0004549444, -0.001657781, -0.0005290708, 0.07863337, -0.265965, -9.810693, 0, 0, 44.80676, 1, 1, 2022, 2022
IMU, 53755487, 1, 0.0002208327, 0.00132631, 0.0005438187, 0.08260844, -0.2647067, -9.804748, 0, 0, 45, 1, 1, 1998, 2046
SURF, 53765026, 0, 2, 0, 0, -0.2551791
SURF, 53765035, 1, 2, 0, 0, -0.2551791
FILE, @SYS/memory.txt, 256, 64, 32k FREE= 32760 LRG= 32760 TYPE=8\nSTART=0x38000000 LEN= 64k FREE
STAK, 53770372, 1, 1, 496, 288, idle
FILE, @SYS/memory.txt, 320, 26, = 56808 LRG= 56152 TYPE=1\n
FMT, 253, 28, HEAT, Qfbfff, TimeUS,Temp,Targ,P,I,Out
HEAT, 53792117, 44.8913, 45, 5.434799, 1.936151, 7.37095
IMU, 53795312, 0, -0.000298599, -0.001593974, 0.0002707603, 0.07770923, -0.2618678, -9.806763, 0, 0, 44.80676, 1, 1, 2022, 2022
IMU, 53795312, 1, -0.0003172008, 7.813232E-05, -0.0004899144, 0.06820112, -0.2635765, -9.816653, 0, 0, 45, 1, 1, 1998, 2046
FILE, @SYS/threads.txt, 0, 64, ThreadsV2\nISR           PRI=255 sp=0x24000000 STACK=1268/1536\nAr
GPS, 53815231, 0, 3, 302334600, 2379, 14, 0.74, 15.367646, 75.1248188, 632.01, 0.036, 0, 0.028, 0, 1
GPA, 53815231, 0, 1.07, 1.9, 2.45, 0.35, 0, 1, 53799, 200, 554, 0, 0
POWR, 53815245, 4.956546, 0, 1, 1, 6
MCU, 53815245, 43.85686, 3.353891, 3.345864, 3.359972
BAT, 53815262, 0, 14.56202, 14.59473, 5.109596, 69.09923, 1.012396, 0, 0.006400669, 97, 1, 0
MAG, 53815273, 0, 412, -135, 85, 102, 25, 42, 0, 0, 0, 1, 53815272
MAG, 53815273, 1, 397, -53, 137, 32, 17, -32, 0, 0, 0, 1, 53815271
SURF, 53815292, 0, 2, 0, 0, -0.2548357
SURF, 53815303, 1, 2, 0, 0, -0.2548357
BARO, 53815323, 0, -0.3840332, 634.726, 93686.69, 46.19, 0.1334191, 53815, 0, 35, 1
CTUN, 53815335, 0, 0, 0, 0.4229944, 0, -0.2467591, -0.38, NaN, 0, 0.009338837, 0, 1
ATT, 53815450, -20.7046, 1.545669, 22.20738, 0.4262144, 15.57918, 15.57917, 3
ANG, 53814617, -20.7046, 1.545669, 22.20738, 0.4262144, 15.57918, 15.57917, 0.002499
RATE, 53814631, -102.02, -0.02594205, -0.2401904, 93.98107, -0.006099045, 0.2215873, 17.11877, -0.01355794, 0.05383121, 0.6978035, 0.1002312, 0, 0
PIDR, 53815467, -1.780626, -0.0004527743, -1.780173, -0.2403234, 0, 0.0001330143, 0, 0, 1, 0.3579376, 9
PIDP, 53815471, 1.640278, -0.0001064484, 1.640385, 0.2214519, 0, 0.0001353791, 0, 0, 1, 0.4063182, 9
PIDY, 53815492, 0.298778, -0.0002366306, 0.2990623, 0.05383121, 0, 0, 0, 0, 1, 0.01832876, 9
PIDA, 53815496, 0.6978035, 0.6978035, 0, 0, -422.9946, 0, 0, 0, 1, 0, 13
XKF4, 53814784, 0, 0.03, 0.01, 0, 0.02, 0, 0.00699795, 0.1945541, -1.967802, 0, 48, 109375, 0, 0
XKY0, 53814784, 0, 311.5527, 14.60172, 216.0023, 287.9978, 359.9892, 71.98831, 143.9964, 0.1999935, 0.200061, 0.2000442, 0.1999663, 0.199935
XKY1, 53814784, 0, -0.0271157, -0.02370211, -0.02070019, -0.02225851, -0.0262235, 0.04267442, 0.04062717, 0.04324106, 0.04690378, 0.04655358
XKF1, 53814784, 0, 1.54, 0.42, 15.57, 0.01426767, 0.01469131, -0.01420086, -0.0340909, 0.3186923, -1.937963, 0.2467591, -0.03, -0.1, 0.02, 635.11
XKF2, 53814784, 0, 0, 0, 0, 0, 0, 400, -5, 144, 0, 0, 0, 0, 0, 0
XKF3, 53814784, 0, 0.02, 0.07, 0.05, -0.25, 0, 0, 0, 0, 0, -2.5, 0, 0, 0.0007523875
XKF5, 53814784, 0, 0, 0, 0, 0, 0.15, 0.4, 0, 0, 0.5, 0.0007605912, 0.005612558, 0.00970899
XKFS, 53814784, 0, 0, 0, 0, 0, 0, 1, 0, 1
XKQ, 53814784, 0, 0.9906823, 0.01285948, 0.005512862, 0.1354725
XKF4, 53814784, 1, 0.03, 0.01, 0, 0.02, 0, 0.006992152, 0.2089318, -1.965155, 0, 48, 109375, 0, 0
XKY0, 53814784, 1, 299.8344, 14.35289, 215.9992, 287.9971, 359.9943, 71.99461, 143.9977, 0.2000025, 0.200023, 0.2000117, 0.1999842, 0.1999786
XKY1, 53814784, 1, -0.02498173, -0.02365539, -0.02280529, -0.02360624, -0.02495136, 0.04331867, 0.04285578, 0.04397416, 0.04512826, 0.04472314
XKF1, 53814784, 1, 1.5, 0.47, 15.55, 0.005642141, 0.01860426, -0.0179958, -0.03596532, 0.3103844, -1.936665, 0.2410019, -0.01, -0.01, 0.01, 635.11
XKF2, 53814784, 1, 0, 0, 0, 0, 0, 400, -5, 144, 0, 0, 0, 0, 0, 0
XKF3, 53814784, 1, 0.01, 0.08, 0.05, -0.26, 0, -0.01, 0, 0, 0, -2.52, 0, 0.002202442, 0.000752009
XKFS, 53814784, 1, 0, 0, 0, 0, 0, 1, 0, 1
XKQ, 53814784, 1, 0.990714, 0.01242139, 0.005872028, 0.1352662
AHR2, 53815588, 1.35, 0.34, 15.68, 634.59, 15.3676459, 75.1248187, 0.9905805, 0.01127089, 0.004552272, 0.136391
POS, 53815597, 15.3676437, 75.1248189, 634.86, 0.01324085, -0.2467591
MOTB, 53815602, 1, 1, 1, 0.04229945, 0, 2
RCIN, 53815610, 1102, 1927, 1102, 1927, 1404, 2000, 2000, 1000, 2000, 875, 875, 875, 875, 875
RCI2, 53815614, 875, 875, 0, 1
RCOU, 53815622, 1000, 1000, 1000, 1000, 0, 0, 0, 0, 0, 0, 0, 0, 0, 0
RCO2, 53815626, 0, 0, 0, 0
VIBE, 53815630, 0, 0.008326664, 0.007798253, 0.008842869, 0
VIBE, 53815630, 1, 0.06247592, 0.05954792, 0.07573276, 0
CTRL, 53815639, 0.2404645, 0.0002886718, 0.2214863, 0.0003228481, 0.0538028
DCM, 53817285, 1.34994, 0.3405013, 15.68365, 0.02005345, 0.02620157, 0, 0, 0
EAHR, 53817303, 0, 0, 0, 0, 0, 0, 0, 0, 0, 0
FILE, @SYS/threads.txt, 64, 64, duCopter    PRI=182 sp=0x24000600 STACK=4016/7168\nidle          
FILE, @SYS/threads.txt, 128, 64, PRI=  1 sp=0x240214B0 STACK=288/496\nUART_RX       PRI= 60 sp=0x2
IMU, 53835054, 0, -0.0005145211, -0.002012199, 0.0001118099, 0.07595478, -0.2667136, -9.813807, 0, 0, 44.80676, 1, 1, 2022, 2022
IMU, 53835054, 1, -0.0009564132, -0.002116793, 0.0001314578, 0.08073214, -0.2409474, -9.803391, 0, 0, 45, 1, 1, 1998, 2046
FILE, @SYS/threads.txt, 192, 64, 407B0E8 STACK=880/1200\nOTG1          PRI= 60 sp=0x2407A1A0 STACK
FILE, @SYS/threads.txt, 256, 64, =480/752\nmonitor       PRI=183 sp=0x2401CE20 STACK=1096/1456\ntim
FILE, @SYS/threads.txt, 320, 64, er         PRI=181 sp=0x2401E3E0 STACK=1520/1968\nrcout         P
SURF, 53864990, 0, 2, 0, 0, -0.2544413
SURF, 53864999, 1, 2, 0, 0, -0.2544413
STAK, 53870324, 2, 60, 1200, 880, UART_RX
FILE, @SYS/threads.txt, 384, 64, RI=181 sp=0x2401DA00 STACK=656/944\nrcin          PRI=177 sp=0x24
IMU, 53875086, 0, -0.0005767405, -0.002037019, 0.0001134385, 0.07727722, -0.2602943, -9.80792, 0, 0, 44.80676, 1, 1, 2022, 2022
IMU, 53875086, 1, -7.536199E-05, 0.0009455298, -0.001338711, 0.08409135, -0.2624043, -9.799382, 0, 0, 45, 1, 1, 1998, 2046
FILE, @SYS/threads.txt, 448, 64, 01D410 STACK=992/1456\nio            PRI= 58 sp=0x2401C430 STACK=
FILE, @SYS/threads.txt, 512, 64, 1576/2480\nstorage       PRI= 59 sp=0x2401DDF0 STACK=952/1456\nUAR
MAV, 53900046, 1, 2095, 566, 0, 6, 0, 0
FILE, @SYS/threads.txt, 576, 64, T7         PRI= 60 sp=0x24078FF8 STACK=240/752\nUART5         PRI
POWR, 53915025, 4.951611, 0, 1, 1, 6
MCU, 53915025, 43.85686, 3.353891, 3.345723, 3.359972
BAT, 53915041, 0, 14.55506, 14.58776, 5.108864, 69.24084, 1.014457, 0, 0.006400669, 97, 1, 0
MAG, 53915054, 0, 410, -135, 109, 102, 25, 42, 0, 0, 0, 1, 53915053
MAG, 53915054, 1, 399, -54, 142, 32, 17, -32, 0, 0, 0, 1, 53915052
SURF, 53915076, 0, 2, 0, 0, -0.2540482
SURF, 53915085, 1, 2, 0, 0, -0.2540482
BARO, 53915107, 0, -0.2340698, 634.8759, 93684.99, 46.19, 0.0699234, 53915, 0, 35, 1
CTUN, 53915121, 0, 0, 0, 0.4229944, 0, -0.2461253, -0.23, NaN, 0, 0.009033661, 0, 1
ATT, 53915259, -20.7046, 1.543828, 22.20737, 0.4289831, 15.60014, 15.60014, 3
ANG, 53914610, -20.7046, 1.543828, 22.20737, 0.4289831, 15.60014, 15.60014, 0.002489
RATE, 53914622, -102.0116, 0.002588478, -0.2404146, 93.96864, -0.01614886, 0.2214977, 17.11709, -0.01005743, 0.05381725, 0.6978035, 0.2782822, 0, 0
PIDR, 53915276, -1.780443, 4.517747E-05, -1.780488, -0.2403659, 0, -4.871866E-05, 0, 0, 1, 0.3238371, 9
PIDP, 53915280, 1.640063, -0.0002818508, 1.640345, 0.2214465, 0, 5.114819E-05, 0, 0, 1, 0.3676085, 9
PIDY, 53915284, 0.2988181, -0.0001755352, 0.2989847, 0.05381725, 0, 0, 0, 0, 1, 0.01658259, 9
PIDA, 53915287, 0.6978035, 0.6978035, 0, 0, -422.9946, 0, 0, 0, 1, 0, 13
XKF4, 53914773, 0, 0.02, 0.01, 0, 0.02, 0, 0.006888842, 0.1945541, -1.967802, 0, 48, 109375, 0, 0
XKY0, 53914773, 0, 136.2149, 14.30421, 215.9885, 287.9902, 359.9941, 71.99484, 143.9914, 0.2000053, 0.1999738, 0.1999785, 0.2000129, 0.2000295
XKY1, 53914773, 0, 0.01284557, 0.01726221, 0.0216427, 0.01993419, 0.01449653, -0.03788728, -0.04105798, -0.03783796, -0.03267621, -0.03270637
XKF1, 53914773, 0, 1.54, 0.42, 15.6, 0.01198269, 0.01191648, -0.01437809, -0.01285845, 0.3231067, -1.940593, 0.2461253, -0.03, -0.1, 0.02, 635.11
XKF2, 53914773, 0, 0, 0, 0, 0, 0, 400, -5, 144, 0, 0, 0, 0, 0, 0
XKF3, 53914773, 0, 0.04, 0, -0.04, -0.25, 0, -0.13, 0, 0, 0, -2.14, 0, 0, 0.0004208093
XKF5, 53914773, 0, 0, 0, 0, 0, 0.15, 0.4, 0, 0, 0.5, 0.0007130335, 0.006298492, 0.007657295
XKFS, 53914773, 0, 0, 0, 0, 0, 0, 1, 0, 1
XKQ, 53914773, 0, 0.9906577, 0.01283928, 0.00553697, 0.1356536
XKV1, 53914773, 0, 9.644771E-06, 5.843659E-06, 5.91337E-06, 0.0005486608, 0.02966613, 0.02966223, 0.0116962, 0.1760029, 0.176002, 0.1390004, 4.041731E-11, 4.073868E-11
XKV2, 53914773, 0, 5.486547E-10, 5.814821E-06, 5.814849E-06, 5.980985E-08, 0, 0, 0, 0, 0, 0, 0, 0
XKF4, 53914773, 1, 0.02, 0.01, 0, 0.02, 0, 0.006883279, 0.2089318, -1.965155, 0, 48, 109375, 0, 0
XKY0, 53914773, 1, 59.87527, 14.35701, 215.9953, 287.9985, 359.9988, 71.99585, 143.9937, 0.1999776, 0.1999836, 0.2000123, 0.200024, 0.2000025
XKY1, 53914773, 1, 0.0163031, 0.01862828, 0.01902965, 0.01695249, 0.01526729, -0.0381999, -0.03786634, -0.03555192, -0.03445492, -0.03609152
XKF1, 53914773, 1, 1.49, 0.47, 15.57, 0.004021836, 0.01568473, -0.0176995, -0.01408091, 0.3152488, -1.939332, 0.240346, -0.01, -0.01, 0, 635.11
XKF2, 53914773, 1, 0, 0, 0, 0, 0, 400, -5, 144, 0, 0, 0, 0, 0, 0
XKF3, 53914773, 1, 0.04, 0.01, -0.04, -0.26, 0, -0.14, 0, 0, 0, -2.15, 0, 0.002533642, 0.0004125835
XKFS, 53914773, 1, 0, 0, 0, 0, 0, 1, 0, 1
XKQ, 53914773, 1, 0.9906901, 0.01238439, 0.005903401, 0.1354435
AHR2, 53915383, 1.38, 0.34, 15.7, 634.46, 15.367646, 75.1248188, 0.9905511, 0.01158215, 0.004665445, 0.1365751
POS, 53915392, 15.3676438, 75.1248189, 634.86, 0.01387474, -0.2461253
MOTB, 53915396, 1, 1, 1, 0.04229945, 0, 2
RCIN, 53915402, 1102, 1927, 1102, 1927, 1404, 2000, 2000, 1000, 2000, 875, 875, 875, 875, 875
RCI2, 53915406, 875, 875, 0, 1
RCOU, 53915412, 1000, 1000, 1000, 1000, 0, 0, 0, 0, 0, 0, 0, 0, 0, 0
RCO2, 53915415, 0, 0, 0, 0
VIBE, 53915420, 0, 0.008671025, 0.007110245, 0.008943298, 0
VIBE, 53915420, 1, 0.06146372, 0.0581977, 0.07419053, 0
CTRL, 53915454, 0.240431, 0.0002381813, 0.2214684, 0.0002678773, 0.05380763
IMU, 53915464, 0, -0.0005578154, -0.002151187, 0.0002420949, 0.07779113, -0.2646686, -9.809012, 0, 0, 44.80676, 1, 1, 2022, 2022
IMU, 53915464, 1, -1.020266E-05, -0.0005075835, 0.0009320336, 0.09439798, -0.2548569, -9.831925, 0, 0, 45, 1, 1, 1998, 2046
DCM, 53917268, 1.388666, 0.3489537, 15.70528, 0.02005345, 0.02850425, 0, 0, 0
EAHR, 53917286, 0, 0, 0, 0, 0, 0, 0, 0, 0, 0
FILE, @SYS/threads.txt, 640, 64, = 60 sp=0x240784B0 STACK=240/752\nUART1         PRI= 60 sp=0x2407
FILE, @SYS/threads.txt, 704, 64, 78E8 STACK=312/752\nUART8         PRI= 60 sp=0x24076D20 STACK=408
FILE, @SYS/threads.txt, 768, 64, /752\nOTG2          PRI= 60 sp=0x24075DD8 STACK=480/752\nUART6    
IMU, 53955487, 0, -0.0005100362, -0.001115903, 0.0008046665, 0.07777739, -0.2620654, -9.808372, 0, 0, 44.80676, 1, 1, 2022, 2022
IMU, 53955487, 1, 0.0006173442, -0.0007528895, -0.0009516441, 0.0923657, -0.2301246, -9.807495, 0, 0, 45, 1, 1, 1998, 2046
FILE, @SYS/threads.txt, 832, 64,      PRI=181 sp=0x24074F58 STACK=336/752\nIOMCU         PRI=183 s
SURF, 53965026, 0, 2, 0, 0, -0.2536613
SURF, 53965036, 1, 2, 0, 0, -0.2536613
STAK, 53970293, 3, 60, 752, 480, OTG1
FILE, @SYS/threads.txt, 896, 64, p=0x2406AB30 STACK=920/1456\nlog_io        PRI= 59 sp=0x2406B2C0 
FILE, @SYS/threads.txt, 960, 64, STACK=784/2016\nI2C1          PRI=176 sp=0x2406BBD0 STACK=984/145
FILE, @SYS/threads.txt, 1024, 64, 6\nI2C0          PRI=176 sp=0x2406C4A0 STACK=984/1456\nSPI1       
IMU, 53995265, 0, -0.001062303, -0.002913857, -0.000393241, 0.07496064, -0.2647338, -9.808952, 0, 0, 44.80676, 1, 1, 2022, 2022
IMU, 53995265, 1, -0.0006186597, -0.0007926209, -0.001028679, 0.08989136, -0.2411252, -9.809782, 0, 0, 45, 1, 1, 1998, 2046
FILE, @SYS/threads.txt, 1088, 40,    PRI=181 sp=0x24070FC0 STACK=800/1456\n
GPS, 54015148, 0, 3, 302334800, 2379, 14, 0.74, 15.3676462, 75.1248189, 632.01, 0.07600001, 0, -0.056, 0, 1
GPA, 54015148, 0, 1.07, 1.9, 2.45, 0.37, 0, 1, 53999, 200, 554, 0, 0
POWR, 54015228, 4.957654, 0, 1, 1, 6
MCU, 54015228, 43.87674, 3.353891, 3.346707, 3.358839
BAT, 54015241, 0, 14.56349, 14.5962, 5.111977, 69.38313, 1.01653, 0, 0.006400669, 97, 1, 0
MAG, 54015252, 0, 412, -135, 78, 102, 25, 42, 0, 0, 0, 1, 54015251
MAG, 54015252, 1, 397, -53, 140, 32, 17, -32, 0, 0, 0, 1, 54015249
SURF, 54015270, 0, 2, 0, 0, -0.2532766
SURF, 54015279, 1, 2, 0, 0, -0.2532766
BARO, 54015298, 0, -0.328125, 634.7819, 93686.03, 46.19, -0.05062103, 54015, 0, 35, 1
CTUN, 54015311, 0, 0, 0, 0.4229944, 0, -0.245363, -0.32, NaN, 0, 0.009033661, 0, 1
ATT, 54015365, -20.7046, 1.542209, 22.20738, 0.429907, 15.61897, 15.61897, 3
ANG, 54014615, -20.7046, 1.542209, 22.20738, 0.429907, 15.61897, 15.61897, 0.002499
RATE, 54014627, -102.0045, -0.03948328, -0.2402503, 93.96436, -0.0446847, 0.2215015, 17.1209, -0.04255902, 0.05384813, 0.6978035, -0.00295639, 0, 0
PIDR, 54015382, -1.780336, -0.0006891133, -1.779647, -0.2402523, 0, 1.942216E-06, 0, 0, 1, 0.2929819, 9
PIDP, 54015386, 1.639962, -0.0007798951, 1.640742, 0.2215002, 0, 1.296176E-06, 0, 0, 1, 0.3325827, 9
PIDY, 54015390, 0.2988204, -0.0007427951, 0.2991562, 0.05384813, 0, 0, 0, 0, 1, 0.0150026, 9
PIDA, 54015394, 0.6978035, 0.6978035, 0, 0, -422.9946, 0, 0, 0, 1, 0, 13
XKF4, 54014786, 0, 0.02, 0.01, 0, 0.02, 0, 0.006964713, 0.1945541, -1.967802, 0, 48, 109375, 0, 0
XKY0, 54014786, 0, 136.2137, 14.30424, 215.9872, 287.989, 359.9929, 71.99358, 143.9901, 0.2000053, 0.1999738, 0.1999785, 0.2000129, 0.2000295
XKY1, 54014786, 0, 0.01284557, 0.01726221, 0.0216427, 0.01993419, 0.01449653, -0.03788728, -0.04105798, -0.03783796, -0.03267621, -0.03270637
XKF1, 54014786, 0, 1.54, 0.42, 15.61, 0.009976611, 0.009893209, -0.01438783, -0.003629386, 0.3260621, -1.942446, 0.245363, -0.03, -0.1, 0.02, 635.11
XKF2, 54014786, 0, 0, 0, 0, 0, 0, 400, -5, 144, 0, 0, 0, 0, 0, 0
XKF3, 54014786, 0, 0.04, 0, -0.04, -0.25, 0, 0.01, 0, 0, 0, -2.27, 0, 0, 0.0004208093
XKF5, 54014786, 0, 0, 0, 0, 0, 0.15, 0.4, 0, 0, 0.5, 0.0006822316, 0.004048589, 0.005829592
XKFS, 54014786, 0, 0, 0, 0, 0, 0, 1, 0, 1
XKQ, 54014786, 0, 0.9906355, 0.01282327, 0.005545147, 0.1358163
XKF4, 54014786, 1, 0.02, 0.01, 0, 0.02, 0, 0.00695936, 0.2089318, -1.965155, 0, 48, 109375, 0, 0
XKY0, 54014786, 1, 59.87346, 14.35704, 215.9936, 287.9968, 359.9971, 71.99412, 143.9919, 0.1999776, 0.1999836, 0.2000123, 0.200024, 0.2000025
XKY1, 54014786, 1, 0.0163031, 0.01862828, 0.01902965, 0.01695249, 0.01526729, -0.0381999, -0.03786634, -0.03555192, -0.03445492, -0.03609152
XKF1, 54014786, 1, 1.49, 0.48, 15.59, 0.002732286, 0.01407751, -0.01736381, -0.004260466, 0.3183148, -1.941096, 0.2394603, -0.01, -0.01, 0, 635.11
XKF2, 54014786, 1, 0, 0, 0, 0, 0, 400, -5, 144, 0, 0, 0, 0, 0, 0
XKF3, 54014786, 1, 0.04, 0.01, -0.04, -0.26, 0, 0, 0, 0, 0, -2.28, 0, 0.002533642, 0.0004125835
XKFS, 54014786, 1, 0, 0, 0, 0, 0, 1, 0, 1
XKQ, 54014786, 1, 0.9906653, 0.01237523, 0.005928784, 0.1356241
AHR2, 54015535, 1.42, 0.35, 15.72, 634.61, 15.3676459, 75.1248188, 0.9905211, 0.01189718, 0.004775324, 0.1367614
POS, 54015541, 15.3676438, 75.1248189, 634.86, 0.01463697, -0.245363
MOTB, 54015545, 1, 1, 1, 0.04229945, 0, 2
RCIN, 54015552, 1102, 1927, 1102, 1927, 1404, 2000, 2000, 1000, 2000, 875, 875, 875, 875, 875
RCI2, 54015555, 875, 875, 0, 1
RCOU, 54015564, 1000, 1000, 1000, 1000, 0, 0, 0, 0, 0, 0, 0, 0, 0, 0
RCO2, 54015569, 0, 0, 0, 0
VIBE, 54015573, 0, 0.007813106, 0.006658222, 0.009239404, 0
VIBE, 54015573, 1, 0.06007979, 0.06106928, 0.0726679, 0
CTRL, 54015583, 0.240398, 0.0002030434, 0.2214549, 0.0002300361, 0.05380825
DCM, 54017276, 1.426678, 0.3558802, 15.72719, 0.02493783, 0.02964192, 0, 0, 0
EAHR, 54017295, 0, 0, 0, 0, 0, 0, 0, 0, 0, 0
FILE, @SYS/timers.txt, 0, 64, TIMERV1\nTIM5  CLK= 200Mhz MODE=  PWM FREQ=       7 TGT=       8\n
IMU, 54035101, 0, -0.0004886257, -0.001213862, 0.0006218775, 0.0835833, -0.2642796, -9.811865, 0, 0, 44.80676, 1, 1, 2022, 2022
IMU, 54035101, 1, 0.00188039, -0.001306979, -0.0009031883, 0.08565982, -0.2624998, -9.799625, 0, 0, 45, 1, 1, 1998, 2046
FILE, @SYS/timers.txt, 64, 64, TIM4  CLK= 200Mhz MODE=  PWM FREQ=       7 TGT=       8\nTIM1  CL
FILE, @SYS/timers.txt, 128, 48, K= 200Mhz MODE=  PWM FREQ=       7 TGT=       8\n
SURF, 54065011, 0, 2, 0, 0, -0.2528901
SURF, 54065023, 1, 2, 0, 0, -0.2528901
STAK, 54071292, 4, 183, 1456, 1096, monitor
FILE, @ROMFS/hwdef.dat, 0, 64, MCU STM32H7xx STM32H743xx\nOSCILLATOR_HZ 16000000\nSTM32_ST_USE_TI
IMU, 54075083, 0, -0.000956788, -0.002600397, 0.0005609139, 0.07823329, -0.2611768, -9.808362, 0, 0, 44.80676, 1, 1, 2022, 2022
IMU, 54075083, 1, 0.0002280692, 0.001329375, 0.0001411806, 0.09238505, -0.2475784, -9.814016, 0, 0, 45, 1, 1, 1998, 2046
FILE, @ROMFS/hwdef.dat, 64, 64, MER 2\nUSB_VENDOR 0x3162\nUSB_PRODUCT 0x0053\nUSB_STRING_MANUFACTUR
FILE, @ROMFS/hwdef.dat, 128, 64, ER "Holybro"\nAPJ_BOARD_ID 56\nFLASH_RESERVE_START_KB 128\nenv USE_
FILE, @ROMFS/hwdef.dat, 192, 64, ALT_RAM_MAP 1\nFLASH_SIZE_KB 2048\nenv OPTIMIZE -O2\nSERIAL_ORDER O
POWR, 54115020, 4.953625, 0, 1, 1, 6
MCU, 54115020, 43.85686, 3.353609, 3.346285, 3.359972
BAT, 54115033, 0, 14.55671, 14.58947, 5.118201, 69.52502, 1.018595, 0, 0.006400669, 97, 1, 0
MAG, 54115044, 0, 417, -137, 105, 102, 25, 42, 0, 0, 0, 1, 54115043
MAG, 54115044, 1, 399, -53, 140, 32, 17, -32, 0, 0, 0, 1, 54115041
SURF, 54115062, 0, 2, 0, 0, -0.2524574
SURF, 54115071, 1, 2, 0, 0, -0.2524574
BARO, 54115090, 0, -0.328125, 634.7819, 93686.05, 46.19, -0.01113892, 54115, 0, 35, 1
CTUN, 54115105, 0, 0, 0, 0.4229944, 0, -0.2428607, -0.32, NaN, 0, 0.009033661, 0, 1
ATT, 54115230, -20.70459, 1.546337, 22.20737, 0.4262669, 15.63816, 15.63816, 3
ANG, 54114611, -20.70459, 1.546337, 22.20737, 0.4262669, 15.63816, 15.63816, 0.0025
RATE, 54114623, -102.0228, -0.005763999, -0.2402728, 93.98098, -0.03478226, 0.2215138, 17.11784, -0.02699297, 0.05381196, 0.6978035, 0.1876831, 0, 0
PIDR, 54115247, -1.780613, -0.0001006008, -1.780513, -0.2403692, 0, 9.640926E-05, 0, 0, 1, 0.2650689, 9
PIDP, 54115251, 1.640205, -0.000607065, 1.640812, 0.2215096, 0, 4.231253E-06, 0, 0, 1, 0.3008968, 9
PIDY, 54115255, 0.2987668, -0.0004711162, 0.2989554, 0.05381196, 0, 0, 0, 0, 1, 0.01357327, 9
PIDA, 54115258, 0.6978035, 0.6978035, 0, 0, -422.9946, 0, 0, 0, 1, 0, 13
XKF4, 54114775, 0, 0.02, 0.01, 0, 0.02, 0, 0.006879701, 0.1945541, -1.967802, 0, 48, 109375, 0, 0
XKY0, 54114775, 0, 85.67593, 14.37115, 215.9541, 288.0065, 0.03480138, 71.9999, 143.95, 0.1997375, 0.1996248, 0.2000304, 0.2003943, 0.200213
XKY1, 54114775, 0, -0.05083041, -0.04477067, -0.03886167, -0.04127, -0.04866666, -0.09955338, -0.1037976, -0.0993456, -0.09235042, -0.09247906
XKF1, 54114775, 0, 1.54, 0.42, 15.63, 0.0103784, 0.01343982, -0.01520141, -0.01873239, 0.3332747, -1.93899, 0.2428607, -0.03, -0.1, 0.02, 635.11
XKF2, 54114775, 0, 0, 0, 0, 0, 0, 400, -5, 144, 0, 0, 0, 0, 0, 0
XKF3, 54114775, 0, -0.01, -0.06, 0.04, -0.26, 0, -0.08, 0, 0, 0, -2.06, 0, 0, 0.00054994
XKF5, 54114775, 0, 0, 0, 0, 0, 0.15, 0.4, 0, 0, 0.5, 0.0006600959, 0.007317635, 0.009221903
XKFS, 54114775, 0, 0, 0, 0, 0, 0, 1, 0, 1
XKQ, 54114775, 0, 0.9906124, 0.01286235, 0.005520727, 0.1359824
XKF4, 54114775, 1, 0.02, 0.02, 0, 0.02, 0, 0.006874083, 0.2089318, -1.965155, 0, 48, 109375, 0, 0
XKY0, 54114775, 1, 46.70469, 14.65068, 215.99, 288.0045, 0.002496407, 71.98667, 143.9789, 0.199881, 0.1999418, 0.200083, 0.2001095, 0.1999846
XKY1, 54114775, 1, -0.04572165, -0.04386574, -0.04341129, -0.0449862, -0.04641407, -0.09884507, -0.09871995, -0.09691626, -0.09592669, -0.09711866
XKF1, 54114775, 1, 1.5, 0.46, 15.61, 0.004013397, 0.01800631, -0.0176752, -0.01826885, 0.3260651, -1.9377, 0.2369833, -0.01, -0.01, 0, 635.11
XKF2, 54114775, 1, 0, 0, 0, 0, 0, 400, -5, 144, 0, 0, 0, 0, 0, 0
XKF3, 54114775, 1, -0.02, -0.06, 0.03, -0.27, 0, -0.09, 0, 0, 0, -2.07, 0, 0.002533642, 0.0005356048
XKFS, 54114775, 1, 0, 0, 0, 0, 0, 1, 0, 1
XKQ, 54114775, 1, 0.9906442, 0.01244975, 0.005844797, 0.1357753
AHR2, 54115349, 1.45, 0.31, 15.74, 634.52, 15.3676462, 75.124819, 0.990493, 0.01223207, 0.004456053, 0.1369457
POS, 54115355, 15.3676438, 75.1248189, 634.86, 0.01713929, -0.2428607
MOTB, 54115360, 1, 1, 1, 0.04229945, 0, 2
RCIN, 54115366, 1102, 1927, 1102, 1927, 1404, 2000, 2000, 1000, 2000, 875, 875, 875, 875, 875
RCI2, 54115370, 875, 875, 0, 1
RCOU, 54115376, 1000, 1000, 1000, 1000, 0, 0, 0, 0, 0, 0, 0, 0, 0, 0
RCO2, 54115379, 0, 0, 0, 0
VIBE, 54115384, 0, 0.00716999, 0.007585272, 0.008949192, 0
VIBE, 54115384, 1, 0.06507847, 0.06466108, 0.07635432, 0
CTRL, 54115392, 0.2403901, 0.0001739776, 0.2214526, 0.0002075228, 0.05381314
IMU, 54115402, 0, -0.000709401, -0.002471841, -7.631735E-05, 0.07774872, -0.2628027, -9.808112, 0, 0, 44.80676, 1, 1, 2022, 2022
IMU, 54115402, 1, 0.001088328, -0.003827099, 0.0002296312, 0.08617879, -0.2306582, -9.810763, 0, 0, 45, 1, 1, 1998, 2046
DCM, 54117269, 1.45917, 0.3128282, 15.74776, 0.02493783, 0.03098302, 0, 0, 0
EAHR, 54117288, 0, 0, 0, 0, 0, 0, 0, 0, 0, 0
FILE, @ROMFS/hwdef.dat, 256, 64, TG1 UART7 UART5 USART1 UART8 USART2 USART3 OTG2\nPA11 OTG_FS_DM O
FILE, @ROMFS/hwdef.dat, 320, 64, TG1\nPA12 OTG_FS_DP OTG1\nPA9 VBUS INPUT OPENDRAIN\nPA13 JTMS-SWDIO
FILE, @ROMFS/hwdef.dat, 384, 64,  SWD\nPA14 JTCK-SWCLK SWD\nPE8  UART7_TX UART7\nPE7  UART7_RX UART7
FILE, @ROMFS/hwdef.dat, 448, 64, \nPE9  UART7_RTS UART7 LOW PULLDOWN\nPE10 UART7_CTS UART7\nPC12 UAR
IMU, 54155520, 0, -0.0008120379, -0.002177458, 0.0002363213, 0.07530189, -0.2620029, -9.811418, 0, 0, 44.80676, 1, 1, 2022, 2022
IMU, 54155520, 1, -0.001062108, 0.003084776, 0.0009473579, 0.08673438, -0.2449772, -9.823451, 0, 0, 45, 1, 1, 1998, 2046
FILE, @ROMFS/hwdef.dat, 512, 64, T5_TX UART5\nPD2 UART5_RX UART5\nPC8 UART5_RTS UART5 LOW PULLDOWN\n
SURF, 54164952, 0, 2, 0, 0, -0.2519888
SURF, 54164961, 1, 2, 0, 0, -0.2519888
STAK, 54171360, 5, 181, 1968, 1520, timer
FILE, @ROMFS/hwdef.dat, 576, 64, PC9 UART5_CTS UART5\nPB6  USART1_TX USART1\nPA10 USART1_RX USART1\n
FILE, @ROMFS/hwdef.dat, 640, 64, PE1 UART8_TX UART8\nPE0 UART8_RX UART8\nPD5 USART2_TX USART2\nPA3 U
IMU, 54195276, 0, -0.0004356289, -0.001314759, -4.208753E-05, 0.08592312, -0.2654456, -9.80331, 0, 0, 44.80676, 1, 1, 2022, 2022
IMU, 54195276, 1, -0.001067435, -0.001780741, 0.0008557754, 0.07518482, -0.2473999, -9.832503, 0, 0, 45, 1, 1, 1998, 2046
FILE, @ROMFS/hwdef.dat, 704, 64, SART2_RX USART2\nPD8 USART3_TX USART3\nPD9 USART3_RX USART3\nPC6 US
FILE, @ROMFS/hwdef.dat, 768, 64, ART6_TX USART6\nPC7 USART6_RX USART6\nIOMCU_UART USART6\nPC5 BATT_V
GPS, 54215173, 0, 3, 302335000, 2379, 15, 0.71, 15.3676464, 75.1248189, 632, 0.056, 0, 0.078, 0, 1
GPA, 54215173, 0, 1.07, 1.89, 2.45, 0.47, 0, 1, 54199, 200, 553.99, 0, 0
POWR, 54215187, 4.958862, 0, 1, 1, 6
MCU, 54215187, 43.85686, 3.35375, 3.3446, 3.359264
BAT, 54215200, 0, 14.56458, 14.59734, 5.117083, 69.66741, 1.020669, 0, 0.006400669, 97, 1, 0
MAG, 54215211, 0, 410, -135, 97, 102, 25, 42, 0, 0, 0, 1, 54215210
MAG, 54215211, 1, 398, -53, 141, 32, 17, -32, 0, 0, 0, 1, 54215208
SURF, 54215281, 0, 2, 0, 0, -0.2514905
SURF, 54215305, 1, 2, 0, 0, -0.2514905
BARO, 54215326, 0, -0.3899536, 634.72, 93686.73, 46.19, -0.02941132, 54215, 0, 35, 1
CTUN, 54215338, 0, 0, 0, 0.4229944, 0, -0.2408494, -0.38, NaN, 0, 0.008728486, 0, 1
ATT, 54215394, -20.7046, 1.548778, 22.20738, 0.4247465, 15.65707, 15.65707, 3
ANG, 54214611, -20.7046, 1.548778, 22.20738, 0.4247465, 15.65707, 15.65707, 0.002494
RATE, 54214623, -102.0336, -0.03483044, -0.2401892, 93.98804, 0.02685126, 0.2214286, 17.1146, 0.01245272, 0.05379682, 0.6978035, 0.2001762, 0, 0
PIDR, 54215411, -1.780841, -0.000607906, -1.780234, -0.2403315, 0, 0.0001423634, 0, 0, 1, 0.2398143, 9
PIDP, 54215415, 1.640387, 0.0004686429, 1.639919, 0.221389, 0, 3.959813E-05, 0, 0, 1, 0.2722287, 9
PIDY, 54215422, 0.2987274, 0.000217341, 0.2988712, 0.05379682, 0, 0, 0, 0, 1, 0.01228007, 9
PIDA, 54215426, 0.6978035, 0.6978035, 0, 0, -422.9946, 0, 0, 0, 1, 0, 13
XKF4, 54214775, 0, 0.02, 0.01, 0, 0.02, 0, 0.006955695, 0.1945541, -1.967802, 0, 48, 109375, 0, 0
XKY0, 54214775, 0, 85.6748, 14.37117, 215.9529, 288.0053, 0.0336771, 71.99878, 143.9489, 0.1997375, 0.1996248, 0.2000304, 0.2003943, 0.200213
XKY1, 54214775, 0, -0.05083041, -0.04477067, -0.03886167, -0.04127, -0.04866666, -0.09955338, -0.1037976, -0.0993456, -0.09235042, -0.09247906
XKF1, 54214775, 0, 1.54, 0.42, 15.65, 0.01063488, 0.01614162, -0.01557781, -0.02214714, 0.3385524, -1.935609, 0.2408494, -0.03, -0.1, 0.02, 635.11
XKF2, 54214775, 0, 0, 0, 0, 0, 0, 400, -5, 144, 0, 0, 0, 0, 0, 0
XKF3, 54214775, 0, -0.01, -0.06, 0.04, -0.26, 0, -0.08, 0, 0, 0, -2.18, 0, 0, 0.00054994
XKF5, 54214775, 0, 0, 0, 0, 0, 0.15, 0.4, 0, 0, 0.5, 0.0006436177, 0.005117275, 0.005732183
XKFS, 54214775, 0, 0, 0, 0, 0, 0, 1, 0, 1
XKQ, 54214775, 0, 0.9905897, 0.01288435, 0.005512607, 0.1361459
XKF4, 54214775, 1, 0.02, 0.02, 0, 0.02, 0, 0.006950432, 0.2089318, -1.965155, 0, 48, 109375, 0, 0
XKY0, 54214775, 1, 46.70394, 14.65071, 215.9893, 288.0038, 0.001782031, 71.98595, 143.9782, 0.199881, 0.1999418, 0.200083, 0.2001095, 0.1999846
XKY1, 54214775, 1, -0.04572165, -0.04386574, -0.04341129, -0.0449862, -0.04641407, -0.09884507, -0.09871995, -0.09691626, -0.09592669, -0.09711866
XKF1, 54214775, 1, 1.5, 0.47, 15.63, 0.004823228, 0.02093403, -0.0185237, -0.02289838, 0.3315839, -1.934188, 0.2349172, -0.01, -0.01, 0, 635.11
XKF2, 54214775, 1, 0, 0, 0, 0, 0, 400, -5, 144, 0, 0, 0, 0, 0, 0
XKF3, 54214775, 1, -0.02, -0.06, 0.03, -0.27, 0, -0.09, 0, 0, 0, -2.19, 0, 0.002533642, 0.0005356048
XKFS, 54214775, 1, 0, 0, 0, 0, 0, 1, 0, 1
XKQ, 54214775, 1, 0.9906203, 0.01244588, 0.005863583, 0.135949
AHR2, 54215533, 1.49, 0.27, 15.76, 634.52, 15.3676462, 75.1248191, 0.9904631, 0.01255478, 0.004144228, 0.1371422
POS, 54215551, 15.3676439, 75.1248189, 634.86, 0.01915057, -0.2408494
MOTB, 54215569, 1, 1, 1, 0.04229945, 0, 2
RCIN, 54215575, 1102, 1927, 1102, 1927, 1404, 2000, 2000, 1000, 2000, 875, 875, 875, 875, 875
RCI2, 54215578, 875, 875, 0, 1
RCOU, 54215585, 1000, 1000, 1000, 1000, 0, 0, 0, 0, 0, 0, 0, 0, 0, 0
RCO2, 54215588, 0, 0, 0, 0
VIBE, 54215610, 0, 0.009684995, 0.007203117, 0.008233725, 0
VIBE, 54215610, 1, 0.06809249, 0.06162436, 0.07378217, 0
CTRL, 54215619, 0.2403934, 0.0001482703, 0.2214493, 0.0001763451, 0.05381121
DCM, 54217244, 1.490989, 0.2724491, 15.7702, 0.02716529, 0.03188552, 0, 0, 0
EAHR, 54217263, 0, 0, 0, 0, 0, 0, 0, 0, 0, 0
RAD, 54222501, 73, 0, 100, 105, 0, 0, 0
FILE, @ROMFS/hwdef.dat, 832, 64, OLTAGE_SENS ADC1 SCALE(1)\nPC4 BATT_CURRENT_SENS ADC1 SCALE(1)\nPB
IMU, 54235087, 0, -0.0009557945, -0.001809322, 0.0003596011, 0.07318834, -0.2624257, -9.804677, 0, 0, 44.80676, 1, 1, 2022, 2022
IMU, 54235087, 1, 0.0009761594, -0.001526474, 0.0009607617, 0.07960471, -0.2447175, -9.800356, 0, 0, 45, 1, 1, 1998, 2046
FILE, @ROMFS/hwdef.dat, 896, 64, 1 BATT2_VOLTAGE_SENS ADC1 SCALE(1)\nPA2 BATT2_CURRENT_SENS ADC1 S
FILE, @ROMFS/hwdef.dat, 960, 64, CALE(1)\ndefine HAL_BATT_VOLT_PIN 8\ndefine HAL_BATT_CURR_PIN 4\nde
FILE, @ROMFS/hwdef.dat, 1024, 64, fine HAL_BATT_VOLT_SCALE 18.18\ndefine HAL_BATT_CURR_SCALE 36.36\n
SURF, 54264999, 0, 2, 0, 0, -0.2509709
SURF, 54265009, 1, 2, 0, 0, -0.2509709
FILE, @ROMFS/hwdef.dat, 1088, 64, PA4 VDD_5V_SENS  ADC1 SCALE(2)\nPA5 SPI1_SCK SPI1\nPA6 SPI1_MISO S
STAK, 54272533, 6, 181, 944, 656, rcout
IMU, 54275039, 0, -0.0006497297, -0.001526742, 0.0004262641, 0.07498738, -0.2613714, -9.807999, 0, 0, 44.80676, 1, 1, 2022, 2022
IMU, 54275039, 1, -0.0002888913, -0.0005974536, 0.0007106718, 0.08869557, -0.2441087, -9.790712, 0, 0, 45, 1, 1, 1998, 2046
FILE, @ROMFS/hwdef.dat, 1152, 64, PI1\nPA7 SPI1_MOSI SPI1\nPC13 ICM42688_CS CS\nPC14 BMI055_G_CS CS\nP
FILE, @ROMFS/hwdef.dat, 1216, 64, C15 BMI055_A_CS CS\nPE4  BMI055_DRDY_A INPUT\nPE5  BMI055_DRDY_G I
FILE, @ROMFS/hwdef.dat, 1280, 64, NPUT\nPE6  ICM42688_DRDY INPUT\nPD3 SPI2_SCK SPI2\nPC2 SPI2_MISO SP
POWR, 54314976, 4.960171, 0, 1, 1, 6
MCU, 54314976, 43.83698, 3.353609, 3.345723, 3.35983
BAT, 54314993, 0, 14.56083, 14.59354, 5.110694, 69.8091, 1.022732, 0, 0.006400669, 97, 1, 0
MAG, 54315004, 0, 413, -138, 90, 102, 25, 42, 0, 0, 0, 1, 54315003
MAG, 54315004, 1, 397, -53, 140, 32, 17, -32, 0, 0, 0, 1, 54315001
SURF, 54315022, 0, 2, 0, 0, -0.2505359
SURF, 54315031, 1, 2, 0, 0, -0.2505359
BARO, 54315051, 0, -0.328125, 634.7819, 93686.05, 46.19, -0.1773453, 54315, 0, 35, 1
CTUN, 54315063, 0, 0, 0, 0.4229944, 0, -0.2431739, -0.32, NaN, 0, 0.00842331, 0, 1
DU32, 54315081, 7, 6349272
TERR, 54315108, 2, 15.367644, 75.1248189, 100, 634.8516, 0.00842331, 0, 336, -0.3292744
ATT, 54315212, -20.70459, 1.548792, 22.20737, 0.4230218, 15.67682, 15.67682, 3
ANG, 54314610, -20.70459, 1.548792, 22.20737, 0.4230218, 15.67682, 15.67682, 0.002492
RATE, 54314622, -102.0339, 0.01348993, -0.240484, 93.99549, 0.02575294, 0.2214436, 17.11403, -0.009606962, 0.05376021, 0.6978035, 0.1993179, 0, 0
PIDR, 54315239, -1.780809, 0.0002354437, -1.781045, -0.2404411, 0, -4.289614E-05, 0, 0, 1, 0.2169659, 9
PIDP, 54315243, 1.640519, 0.0004494736, 1.640069, 0.2214094, 0, 3.424928E-05, 0, 0, 1, 0.2462921, 9
PIDY, 54315247, 0.2987525, -0.0001676731, 0.2986678, 0.05376021, 0, 0, 0, 0, 1, 0.01134851, 9
PIDA, 54315251, 0.6978035, 0.6978035, 0, 0, -422.9946, 0, 0, 0, 1, 0, 13
XKF4, 54314760, 0, 0.03, 0.01, 0, 0.02, 0, 0.006938076, 0.1945541, -1.967802, 0, 48, 109375, 0, 0
XKY0, 54314760, 0, 58.60839, 14.36057, 215.9601, 288.0388, 0.04527381, 71.97068, 143.9181, 0.1994391, 0.1996042, 0.2003164, 0.2005916, 0.2000487
XKY1, 54314760, 0, -0.07421494, -0.06679279, -0.05990274, -0.06306501, -0.07190327, -0.01059021, -0.01542944, -0.009862708, -0.001595772, -0.00204202
XKF1, 54314760, 0, 1.54, 0.42, 15.67, 0.01404895, 0.01773995, -0.0142683, 0.01561349, 0.3492264, -1.932946, 0.2431739, -0.03, -0.1, 0.02, 635.11
XKF2, 54314760, 0, 0, 0, 0, 0, 0, 400, -5, 144, 0, 0, 0, 0, 0, 0
XKF3, 54314760, 0, -0.04, 0, -0.09, -0.26, 0, -0.13, 0, 0, 0, -2.13, 0, 0, 0.0007905356
XKF5, 54314760, 0, 0, 0, 0, 0, 0.14, 0.4, 0, 0, 0.5, 0.00064625, 0.008263444, 0.01500024
XKFS, 54314760, 0, 0, 0, 0, 0, 0, 1, 0, 1
XKQ, 54314760, 0, 0.9905662, 0.01288558, 0.005499935, 0.1363169
XKF4, 54314760, 1, 0.03, 0.02, 0, 0.02, 0, 0.006932661, 0.2089318, -1.965155, 0, 48, 109375, 0, 0
