FMT, 128, 89, FMT, BBnNZ, Type,Length,Name,Format,Columns
FMT, 119, 76, UNIT, QbZ, TimeUS,Id,Label
FMT, 118, 44, FMTU, QBNN, TimeUS,FmtType,UnitIds,MultIds
FMT, 120, 20, MULT, Qbd, TimeUS,Id,Mult
FMT, 32, 35, PARM, QNff, TimeUS,Name,Value,Default
FMT, 94, 51, GPS, QBBIHBcLLeffffB, TimeUS,I,Status,GMS,GWk,NSats,HDop,Lat,Lng,Alt,Spd,GCrs,VZ,Yaw,U
FMT, 95, 39, GPA, QBCCCCfBIHeHH, TimeUS,I,VDop,HAcc,VAcc,SAcc,YAcc,VV,SMS,Delta,AEl,RTCMFU,RTCMFD
FMT, 99, 22, UBX1, QBHBBHI, TimeUS,Instance,noisePerMS,jamInd,aPower,agcCnt,config
FMT, 100, 16, UBX2, QBbBbB, TimeUS,Instance,ofsI,magI,ofsQ,magQ
FMT, 96, 42, GRAW, QIHBBddfBbB, TimeUS,WkMS,Week,numSV,sv,cpMes,prMes,doMes,mesQI,cno,lli
FMT, 97, 24, GRXH, QdHbBB, TimeUS,rcvTime,week,leapS,numMeas,recStat
FMT, 98, 41, GRXS, QddfBBBHBBBBB, TimeUS,prMes,cpMes,doMes,gnss,sv,freq,lock,cno,prD,cpD,doD,trk
FMT, 101, 23, SBPH, QIII, TimeUS,CrcError,LastInject,IARhyp
FMT, 102, 67, SBRH, QQQQQQQQ, TimeUS,msg_flag,1,2,3,4,5,6
FMT, 103, 123, SBRM, QQQQQQQQQQQQQQQ, TimeUS,msg_flag,1,2,3,4,5,6,7,8,9,10,11,12,13
FMT, 104, 23, SBRE, QHIiBB, TimeUS,GWk,GMS,ns_residual,level,quality
FMT, 59, 75, MSG, QZ, TimeUS,Message
FMT, 60, 39, RCIN, QHHHHHHHHHHHHHH, TimeUS,C1,C2,C3,C4,C5,C6,C7,C8,C9,C10,C11,C12,C13,C14
FMT, 61, 18, RCI2, QHHHB, TimeUS,C15,C16,OMask,Flags
FMT, 62, 39, RCOU, QHHHHHHHHHHHHHH, TimeUS,C1,C2,C3,C4,C5,C6,C7,C8,C9,C10,C11,C12,C13,C14
FMT, 207, 19, RCO2, QHHHH, TimeUS,C15,C16,C17,C18
FMT, 208, 39, RCO3, QHHHHHHHHHHHHHH, TimeUS,C19,C20,C21,C22,C23,C24,C25,C26,C27,C28,C29,C30,C31,C32
FMT, 63, 19, RSSI, Qff, TimeUS,RXRSSI,RXLQ
FMT, 64, 43, BARO, QBfffcfIffB, TimeUS,I,Alt,AltAMSL,Press,Temp,CRt,SMS,Offset,GndTemp,Health
FMT, 65, 24, BARD, QBfff, TimeUS,I,DynPrX,DynPrY,DynPrZ
FMT, 66, 25, CANF, QBIBBBBBBBBB, TimeUS,Bus,Id,DLC,B0,B1,B2,B3,B4,B5,B6,B7
FMT, 67, 81, CAFD, QBIBQQQQQQQQ, TimeUS,Bus,Id,DLC,D0,D1,D2,D3,D4,D5,D6,D7
FMT, 196, 50, PL, QBBfffffffIIB, TimeUS,Heal,TAcq,pX,pY,vX,vY,mX,mY,mZ,LastMeasMS,EKFOutl,Est
FMT, 68, 24, POWR, QffHHB, TimeUS,Vcc,VServo,Flags,AccFlags,Safety
FMT, 69, 27, MCU, Qffff, TimeUS,MTemp,MVolt,MVmin,MVmax
FMT, 93, 46, CMD, QHHHffffLLfB, TimeUS,CTot,CNum,CId,Prm1,Prm2,Prm3,Prm4,Lat,Lng,Alt,Frame
FMT, 92, 46, MISE, QHHHffffLLfB, TimeUS,CTot,CNum,CId,Prm1,Prm2,Prm3,Prm4,Lat,Lng,Alt,Frame
FMT, 78, 48, MAVC, QBBBBBHffffiifBB, TimeUS,TS,TC,SS,SC,Fr,Cmd,P1,P2,P3,P4,X,Y,Z,Res,WL
FMT, 79, 20, RAD, QBBBBBHH, TimeUS,RSSI,RemRSSI,TxBuf,Noise,RemNoise,RxErrors,Fixed
FMT, 81, 46, CAM, QBHIHLLeeeccC, TimeUS,I,Img,GPSTime,GPSWeek,Lat,Lng,Alt,RelAlt,GPSAlt,R,P,Y
FMT, 82, 46, TRIG, QBHIHLLeeeccC, TimeUS,I,Img,GPSTime,GPSWeek,Lat,Lng,Alt,RelAlt,GPSAlt,R,P,Y
FMT, 83, 48, MNT, QBfffffffff, TimeUS,I,DRoll,Roll,DPitch,Pitch,DYawB,YawB,DYawE,YawE,Dist
FMT, 114, 41, ARSP, QBffcffBBffB, TimeUS,I,Airspeed,DiffPress,Temp,RawPress,Offset,U,H,Hp,TR,Pri
FMT, 88, 41, BAT, QBfffffcfBBB, TimeUS,Inst,Volt,VoltR,Curr,CurrTot,EnrgTot,Temp,Res,RemPct,H,SH
FMT, 89, 40, BCL, QBfHHHHHHHHHHHH, TimeUS,Instance,Volt,V1,V2,V3,V4,V5,V6,V7,V8,V9,V10,V11,V12
FMT, 113, 35, MAG, QBhhhhhhhhhBI, TimeUS,I,MagX,MagY,MagZ,OfsX,OfsY,OfsZ,MOX,MOY,MOZ,Health,S
FMT, 122, 14, MODE, QMBB, TimeUS,Mode,ModeNum,Rsn
FMT, 116, 17, RFND, QBCBBb, TimeUS,Instance,Dist,Stat,Orient,Quality
FMT, 117, 36, DMS, QIIIIBBBBBBBBB, TimeUS,N,Dp,RT,RS,Fa,Fmn,Fmx,Pa,Pmn,Pmx,Sa,Smn,Smx
FMT, 174, 41, BCN, QBBfffffff, TimeUS,Health,Cnt,D0,D1,D2,D3,PosX,PosY,PosZ
FMT, 175, 57, PRX, QBBfffffffffff, TimeUS,Layer,He,D0,D45,D90,D135,D180,D225,D270,D315,DUp,CAn,CDis
FMT, 176, 44, PRXR, QBffffffff, TimeUS,Layer,D0,D45,D90,D135,D180,D225,D270,D315
FMT, 179, 61, PM, QHHHIIHHIIIIIIQ, TimeUS,LR,NLon,NL,MaxT,Mem,Load,ErrL,InE,ErC,SPIC,I2CC,I2CI,Ex,R
FMT, 178, 29, SRTL, QBHHBfff, TimeUS,Active,NumPts,MaxPts,Action,N,E,D
FMT, 170, 48, OABR, QBBHHHBfLLiLLi, TimeUS,Type,Act,DYaw,Yaw,DP,RChg,Mar,DLt,DLg,DAlt,OLt,OLg,OAlt
FMT, 171, 31, OADJ, QBBBBLLLL, TimeUS,State,Err,CurrPoint,TotPoints,DLat,DLng,OALat,OALng
FMT, 172, 37, SA, QBffffffB, TimeUS,State,DVelX,DVelY,DVelZ,MVelX,MVelY,MVelZ,Back
FMT, 173, 21, OAVG, QBBLL, TimeUS,version,point_num,Lat,Lon
FMT, 77, 45, SIM, QccCfLLffff, TimeUS,Roll,Pitch,Yaw,Alt,Lat,Lng,Q1,Q2,Q3,Q4
FMT, 84, 38, TERR, QBLLHffHHf, TimeUS,Status,Lat,Lng,Spacing,TerrH,CHeight,Pending,Loaded,ROfs
FMT, 86, 40, ESC, QBffffcfcf, TimeUS,Instance,RPM,RawRPM,Volt,Curr,Temp,CTot,MotTemp,Err
FMT, 87, 15, EDT2, QBBBB, TimeUS,Instance,Stress,MaxStress,Status
FMT, 85, 46, CSRV, QBfffBfffffB, TimeUS,Id,Pos,Force,Speed,Pow,PosCmd,V,A,MotT,PCBT,Err
FMT, 105, 52, PIDR, QffffffffffB, TimeUS,Tar,Act,Err,P,I,D,FF,DFF,Dmod,SRate,Flags
FMT, 106, 52, PIDP, QffffffffffB, TimeUS,Tar,Act,Err,P,I,D,FF,DFF,Dmod,SRate,Flags
FMT, 107, 52, PIDY, QffffffffffB, TimeUS,Tar,Act,Err,P,I,D,FF,DFF,Dmod,SRate,Flags
FMT, 108, 52, PIDA, QffffffffffB, TimeUS,Tar,Act,Err,P,I,D,FF,DFF,Dmod,SRate,Flags
FMT, 109, 52, PIDS, QffffffffffB, TimeUS,Tar,Act,Err,P,I,D,FF,DFF,Dmod,SRate,Flags
FMT, 110, 52, PIDN, QffffffffffB, TimeUS,Tar,Act,Err,P,I,D,FF,DFF,Dmod,SRate,Flags
FMT, 111, 52, PIDE, QffffffffffB, TimeUS,Tar,Act,Err,P,I,D,FF,DFF,Dmod,SRate,Flags
FMT, 112, 56, DSTL, QBfLLeccfeffff, TimeUS,Stg,THdg,Lat,Lng,Alt,XT,Travel,L1I,Loiter,Des,P,I,D
FMT, 161, 32, ACC, QBQfff, TimeUS,I,SampleUS,AccX,AccY,AccZ
FMT, 162, 32, GYR, QBQfff, TimeUS,I,SampleUS,GyrX,GyrY,GyrZ
FMT, 163, 54, IMU, QBffffffIIfBBHH, TimeUS,I,GyrX,GyrY,GyrZ,AccX,AccY,AccZ,EG,EA,T,GH,AH,GHz,AHz
FMT, 166, 28, VIBE, QBfffI, TimeUS,IMU,VibeX,VibeY,VibeZ,Clip
FMT, 164, 31, ISBH, QHBBHHQf, TimeUS,N,type,instance,mul,smp_cnt,SampleUS,smp_rate
FMT, 165, 207, ISBD, QHHaaa, TimeUS,N,seqno,x,y,z
FMT, 129, 15, RFRH, QI, TimeUS,TF
FMT, 130, 5, RFRF, BB, FTypes,Slow
FMT, 138, 38, RFRN, IIIfIfffBBB, HLat,HLon,HAlt,E2T,AM,TX,TY,TZ,VC,EKT,Flags
FMT, 131, 4, REV2, B, Event
FMT, 132, 15, RSO2, III, Lat,Lon,Alt
FMT, 133, 11, RWA2, ff, Airspeed,uncertainty
FMT, 134, 4, REV3, B, Event
FMT, 135, 15, RSO3, III, Lat,Lon,Alt
FMT, 136, 11, RWA3, ff, Airspeed,Uncertainty
FMT, 137, 16, REY3, ffIB, yawangle,yawangleerr,timestamp_ms,type
FMT, 139, 13, RISH, HBBfBB, LR,PG,PA,LD,AC,GC
FMT, 140, 37, RISI, ffffffffBB, DVX,DVY,DVZ,DAX,DAY,DAZ,DVDT,DADT,Flags,I
FMT, 148, 5, RASH, BB, Primary,NumInst
FMT, 149, 14, RASI, fIBBB, pd,UpdateMS,H,Use,I
FMT, 141, 5, RBRH, BB, Primary,NumInst
FMT, 142, 13, RBRI, IfBB, LastUpdate,Alt,H,I
FMT, 143, 8, RRNH, hhB, GCl,MaxD,NumSensors
FMT, 144, 20, RRNI, fffHBBB, PX,PY,PZ,Dist,Orient,Status,I
FMT, 145, 5, RGPH, BB, NumInst,Primary
FMT, 146, 23, RGPI, ffffBBBB, OX,OY,OZ,Lg,Flags,Stat,NSats,I
FMT, 147, 58, RGPJ, IffffffIiiiffHB, TS,VX,VY,VZ,SA,Y,YA,YT,Lat,Lon,Alt,HA,VA,HD,I
FMT, 153, 14, RMGH, fBBBBBBB, Dec,Avail,NumInst,AutoDec,NumEna,LOE,C,FUsable
FMT, 154, 35, RMGI, IffffffBBBB, LU,OX,OY,OZ,FX,FY,FZ,UFY,H,HSF,I
FMT, 150, 33, RBCH, ffffiiiBB, PX,PY,PZ,AE,OLat,OLng,OAlt,Flags,NumInst
FMT, 151, 25, RBCI, IffffBB, LU,PX,PY,PZ,Dist,H,I
FMT, 152, 21, RVOH, fffIBB, OX,OY,OZ,Del,H,Ena
FMT, 155, 40, ROFH, ffffIffffB, FX,FY,GX,GY,Tms,PX,PY,PZ,HgtOvr,Qual
FMT, 156, 49, REPH, fffffffffIIH, PX,PY,PZ,Q1,Q2,Q3,Q4,PEr,AEr,TS,RT,D
FMT, 157, 19, RSLL, IIfI, Lat,Lng,PosAccSD,TS
FMT, 158, 25, REVH, ffffIH, VX,VY,VZ,Er,TS,D
FMT, 159, 31, RWOH, ffIffff, DA,DT,TS,PX,PY,PZ,R
FMT, 160, 53, RBOH, ffffffffIfffH, Q,DPX,DPY,DPZ,DAX,DAY,DAZ,DT,TS,OX,OY,OZ,D
FMT, 43, 37, XKF0, QBBccCCcccccccc, TimeUS,C,ID,rng,innov,SIV,TR,BPN,BPE,BPD,OFH,OFL,OFN,OFE,OFD
FMT, 44, 56, XKF1, QBccCfffffffccce, TimeUS,C,Roll,Pitch,Yaw,VN,VE,VD,dPD,PN,PE,PD,GX,GY,GZ,OH
FMT, 45, 46, XKF2, QBccccchhhhhhfff, TimeUS,C,AX,AY,AZ,VWN,VWE,MN,ME,MD,MX,MY,MZ,IDX,IDY,IS
FMT, 46, 42, XKF3, QBcccccchhhccff, TimeUS,C,IVN,IVE,IVD,IPN,IPE,IPD,IMX,IMY,IMZ,IYAW,IVT,RErr,ErSc
FMT, 47, 44, XKF4, QBcccccfffHBIHb, TimeUS,C,SV,SP,SH,SM,SVT,errRP,OFN,OFE,FS,TS,SS,GPS,PI
FMT, 48, 41, XKF5, QBBhhhcccCCfff, TimeUS,C,NI,FIX,FIY,AFI,HAGL,offset,RI,rng,Herr,eAng,eVel,ePos
FMT, 49, 36, XKFD, QBffffff, TimeUS,C,IX,IY,IZ,IVX,IVY,IVZ
FMT, 50, 29, XKFM, QBBffff, TimeUS,C,OGNM,GLR,ALR,GDR,ADR
FMT, 51, 20, XKFS, QBBBBBBBBB, TimeUS,C,MI,BI,GI,AI,SS,GPS_GTA,GPS_CHK_WAIT,MAG_FUSION
FMT, 52, 28, XKQ, QBffff, TimeUS,C,Q1,Q2,Q3,Q4
FMT, 53, 48, XKT, QBIffffffff, TimeUS,C,Cnt,IMUMin,IMUMax,EKFMin,EKFMax,AngMin,AngMax,VMin,VMax
FMT, 54, 20, XKTV, QBff, TimeUS,C,TVS,TVD
FMT, 55, 60, XKV1, QBffffffffffff, TimeUS,C,V00,V01,V02,V03,V04,V05,V06,V07,V08,V09,V10,V11
FMT, 56, 60, XKV2, QBffffffffffff, TimeUS,C,V12,V13,V14,V15,V16,V17,V18,V19,V20,V21,V22,V23
FMT, 57, 60, XKY0, QBffffffffffff, TimeUS,C,YC,YCS,Y0,Y1,Y2,Y3,Y4,W0,W1,W2,W3,W4
FMT, 58, 52, XKY1, QBffffffffff, TimeUS,C,IVN0,IVN1,IVN2,IVN3,IVN4,IVE0,IVE1,IVE2,IVE3,IVE4
FMT, 41, 60, NKY0, QBffffffffffff, TimeUS,C,YC,YCS,Y0,Y1,Y2,Y3,Y4,W0,W1,W2,W3,W4
FMT, 42, 52, NKY1, QBffffffffff, TimeUS,C,IVN0,IVN1,IVN2,IVN3,IVN4,IVE0,IVE1,IVE2,IVE3,IVE4
FMT, 70, 45, AHR2, QccCfLLffff, TimeUS,Roll,Pitch,Yaw,Alt,Lat,Lng,Q1,Q2,Q3,Q4
FMT, 71, 19, AOA, Qff, TimeUS,AOA,SSA
FMT, 72, 36, ATT, QffffffB, TimeUS,DesRoll,Roll,DesPitch,Pitch,DesYaw,Yaw,AEKF
FMT, 73, 24, ORGN, QBLLe, TimeUS,Type,Lat,Lng,Alt
FMT, 74, 31, POS, QLLfff, TimeUS,Lat,Lng,Alt,RelHomeAlt,RelOriginAlt
FMT, 76, 35, ATSC, Qffffff, TimeUS,AngPScX,AngPScY,AngPScZ,PDScX,PDScY,PDScZ
FMT, 204, 51, VSTB, Qffffffffff, TimeUS,GyrX,GyrY,GyrZ,AccX,AccY,AccZ,Q1,Q2,Q3,Q4
FMT, 90, 38, MON, QIbIHHHHHII, TimeUS,Dly,Tsk,IErr,IErrCnt,IErrLn,MM,MC,SmLn,SPICnt,I2CCnt
FMT, 91, 47, WDOG, QbIHHHHHHHIBIIn, TimeUS,Tsk,IE,IEC,IEL,MvMsg,MvCmd,SmLn,FL,FT,FA,FP,ICSR,LR,TN
FMT, 210, 20, UART, QBff, TimeUS,I,Tx,Rx
FMT, 115, 21, RPM, QBffB, TimeUS,I,RPM,Qual,H
FMT, 209, 27, FNCE, QBBBLLBf, TimeUS,Tot,Seq,Type,Lat,Lng,Count,Radius
FMT, 177, 33, DSF, QIHIIII, TimeUS,Dp,Blk,Bytes,FMn,FMx,FAv
FMT, 121, 24, RALY, QBBLLhB, TimeUS,Tot,Seq,Lat,Lng,Alt,Flags
FMT, 183, 23, MAV, QBHHHBHH, TimeUS,chan,txp,rxp,rxdp,flags,ss,tf
FMT, 167, 43, VISO, Qffffffff, TimeUS,dt,AngDX,AngDY,AngDZ,PosDX,PosDY,PosDZ,conf
FMT, 168, 58, VISP, QQIffffffffBBb, TimeUS,RTimeUS,CTimeMS,PX,PY,PZ,R,P,Y,PErr,AErr,Rst,Ign,Q
FMT, 169, 42, VISV, QQIffffBBb, TimeUS,RTimeUS,CTimeMS,VX,VY,VZ,VErr,Rst,Ign,Q
FMT, 180, 28, OF, QBffff, TimeUS,Qual,flowX,flowY,bodyX,bodyY
FMT, 182, 21, WENC, Qfbfb, TimeUS,Dist0,Qual0,Dist1,Qual1
FMT, 185, 35, ADSB, QIiiiHHhH, TimeUS,ICAO_address,Lat,Lng,Alt,Heading,Hor_vel,Ver_vel,Squark
FMT, 181, 12, EV, QB, TimeUS,Id
FMT, 186, 18, ARM, QBIBB, TimeUS,ArmState,ArmChecks,Forced,Method
FMT, 184, 13, ERR, QBB, TimeUS,Subsys,ECode
FMT, 187, 35, WINC, QBBBBBfffHfb, TimeUS,Heal,ThEnd,Mov,Clut,Mode,DLen,Len,DRate,Tens,Vcc,Temp
FMT, 188, 47, PSCN, Qfffffffff, TimeUS,DPN,TPN,PN,DVN,TVN,VN,DAN,TAN,AN
FMT, 189, 47, PSCE, Qfffffffff, TimeUS,DPE,TPE,PE,DVE,TVE,VE,DAE,TAE,AE
FMT, 190, 47, PSCD, Qfffffffff, TimeUS,DPD,TPD,PD,DVD,TVD,VD,DAD,TAD,AD
FMT, 191, 35, PSON, Qffffff, TimeUS,TPON,PON,TVON,VON,TAON,AON
FMT, 192, 35, PSOE, Qffffff, TimeUS,TPOE,POE,TVOE,VOE,TAOE,AOE
FMT, 193, 35, PSOD, Qffffff, TimeUS,TPOD,POD,TVOD,VOD,TAOD,AOD
FMT, 194, 35, PSOT, Qffffff, TimeUS,TPOT,POT,TVOT,VOT,TAOT,AOT
FMT, 75, 63, RATE, Qfffffffffffff, TimeUS,RDes,R,ROut,PDes,P,POut,YDes,Y,YOut,ADes,A,AOut,AOutSlew
FMT, 195, 39, ANG, Qfffffff, TimeUS,DesRoll,Roll,DesPitch,Pitch,DesYaw,Yaw,Dt
FMT, 201, 33, STAK, QBBHHN, TimeUS,Id,Pri,Total,Free,Name
FMT, 202, 88, FILE, NIBZ, FileName,Offset,Length,Data
FMT, 197, 78, AISR, QBBBZ, TimeUS,num,total,ID,payload
FMT, 198, 41, AIS1, QBBIBbHbLLHHBBbI, US,typ,rep,mmsi,nav,rot,sog,pos,lon,lat,cog,hed,sec,man,raim,rad
FMT, 199, 38, AIS4, QBIHBBBBBBLLBBI, US,rep,mmsi,year,mth,day,h,m,s,fix,lon,lat,epfd,raim,rad
FMT, 200, 175, AIS5, QBIBINZBHHBBBBZB, US,rep,mmsi,ver,imo,cal,nam,typ,bow,stn,prt,str,fix,dght,dst,dte
FMT, 203, 39, SCR, QNIii, TimeUS,Name,Runtime,Total_mem,Run_mem
FMT, 206, 90, VER, QBHBBBBIZHBB, TimeUS,BT,BST,Maj,Min,Pat,FWT,GH,FWS,APJ,BU,FV
FMT, 205, 32, MOTB, QfffffB, TimeUS,LiftMax,BatVolt,ThLimit,ThrAvMx,ThrOut,FailFlags
FMT, 6, 24, PTUN, QBfff, TimeUS,Param,TunVal,TunMin,TunMax
FMT, 0, 55, CTUN, Qffffffefffhh, TimeUS,ThI,ABst,ThO,ThH,DAlt,Alt,BAlt,DSAlt,SAlt,TAlt,DCRt,CRt
FMT, 1, 14, D16, QBh, TimeUS,Id,Value
FMT, 2, 14, DU16, QBH, TimeUS,Id,Value
FMT, 3, 16, D32, QBi, TimeUS,Id,Value
FMT, 4, 16, DU32, QBI, TimeUS,Id,Value
FMT, 5, 16, DFLT, QBf, TimeUS,Id,Value
FMT, 9, 47, SIDD, Qfffffffff, TimeUS,Time,Targ,F,Gx,Gy,Gz,Ax,Ay,Az
FMT, 10, 40, SIDS, QBfffffff, TimeUS,Ax,Mag,FSt,FSp,TFin,TC,TR,TFout
FMT, 8, 49, GUIP, QBfffbffffff, TimeUS,Type,pX,pY,pZ,Terrain,vX,vY,vZ,aX,aY,aZ
FMT, 11, 44, GUIA, QBffffffff, TimeUS,Type,Roll,Pitch,Yaw,RollRt,PitchRt,YawRt,Thrust,ClimbRt
IMU, 8992370, 0, -0.03671657, 0.00338434, -0.001319253, 0.2527139, 0.4381704, -9.631383, 0, 0, 41.42512, 1, 1, 2023, 2023
IMU, 8992370, 1, -0.03429991, 0.01337077, 0.0003000984, 0.2437107, 0.4983639, -9.72784, 0, 0, 42, 1, 1, 2007, 2029
FMT, 249, 25, SURF, QBBfff, TimeUS,I,St,D,FD,TO
SURF, 9001788, 0, 2, 0, 0, -0.1535782
SURF, 9001834, 1, 2, 0, 0, -0.1535782
IMU, 9031900, 0, -0.01124161, -0.006897165, -0.0002329879, 0.2668892, 0.4282568, -9.645352, 0, 0, 41.42512, 1, 1, 2023, 2023
IMU, 9031900, 1, -0.006717823, 0.002008713, 0.002212878, 0.249415, 0.4537068, -9.775602, 0, 0, 42, 1, 1, 2007, 2029
POWR, 9051838, 4.913443, 0, 1, 1, 6
MCU, 9051838, 36.6004, 3.347691, 3.339554, 3.356575
BAT, 9051864, 0, 15.91723, 16.27248, 0.5979627, 1.029198, 0.01649576, 0, 0.5941044, 99, 1, 0
MAG, 9051876, 0, 522, 231, 192, -382, 367, 647, 0, 0, 0, 1, 9051875
MAG, 9051876, 1, -30, 460, 176, 59, 22, -40, 0, 0, 0, 1, 9051874
SURF, 9051913, 0, 2, 0, 0, -0.1586823
SURF, 9051922, 1, 2, 0, 0, -0.1586823
BARO, 9051942, 0, 0.1381836, 0.1381836, 93547.87, 36.37, -0.3675652, 9051, 0, 35, 1
CTUN, 9051950, 0, 0, 0, 0.431117, 0, -0.2745231, 0.13, NaN, 0, NaN, 0, -42
ATT, 9051995, 0.0001667373, -3.398718, -0.0003035715, 0.8491231, 330.0725, 330.0725, 3
ANG, 9051472, 0.0001667373, -3.398718, -0.0003035715, 0.8491231, 330.0725, 330.0725, 0.0025
RATE, 9051486, 15.28261, 0.5060788, 0.03167554, -3.86235, -0.7023606, -0.006459741, 0.5604601, 0.002037311, 0.001642159, 0, -14.50319, 0, 0
PIDR, 9052078, 0.2670747, 0.008832742, 0.258242, 0.03486267, 0, -0.003187129, 0, 0, 1, 0.1721497, 9
PIDP, 9052083, -0.06792721, -0.01225851, -0.0556687, -0.007515275, 0, 0.001055535, 0, 0, 1, 0.08516065, 9
PIDY, 9052086, 0.009760512, 3.555778E-05, 0.009123106, 0.001642159, 0, 0, 0, 0, 1, 0.004371476, 9
PIDA, 9052090, 0, 0, 0, 0, 0, 0, 0, 0, 0, 0, 0
XKF4, 9051635, 0, 0, 0, 0, 0.04, 0, 0.1302269, 0, 0, 0, 50, 67751, 0, 0
XKF1, 9051635, 0, -3.39, 0.84, 330.07, 0.006243663, -0.1845995, 0.4206675, 0.3585741, 0, 0, 0.2745231, 0, 0, -0.1, 0
XKF2, 9051635, 0, 0, 0, 0, 0, 0, 934, 0, 372, 0, 0, 0, 0, 0, 0
XKF3, 9051635, 0, 0, 0, 0, 0, -0.09, 0.11, 0, 0, 0, -4.21, 0, 0, 0
XKF5, 9051635, 0, 0, 0, 0, 0, 0.05, 0.29, 0, 0, 0.5, 0.007150019, 0.001249535, 0.01677206
XKFS, 9051635, 0, 0, 0, 0, 0, 0, 0, 0, 1
XKQ, 9051635, 0, 0.9656947, -0.02673619, 0.01481247, -0.2578752
XKV1, 9051635, 0, 0.0002764836, 0.0020804, 0.002159711, 0.003564299, 1.123782, 1.090284, 0.2302732, 0.6075079, 0.5913256, 0.6468599, 2.933804E-07, 2.933556E-07
XKV2, 9051635, 0, 2.846346E-07, 6.191738E-06, 6.191733E-06, 6.112676E-06, 0, 0, 0, 0, 0, 0, 0, 0
XKF4, 9051635, 1, 0, 0, 0, 0.04, 0, 0.1262462, 0, 0, 0, 50, 67751, 0, 0
XKF1, 9051635, 1, -3.11, 1.66, 330.17, -0.07091694, -0.04226615, 0.1685683, 0.1553722, 0, 0, 0.1050308, 0, 0, -0.1, 0
XKF2, 9051635, 1, 0, 0, 0, 0, 0, 934, 0, 371, 0, 0, 0, 0, 0, 0
XKF3, 9051635, 1, 0, 0, 0, -0.03, -0.02, -0.02, 0, 0, 0, -4.26, 0, 0, 0
XKFS, 9051635, 1, 0, 0, 0, 0, 0, 0, 0, 1
XKQ, 9051635, 1, 0.9659513, -0.02253124, 0.021024, -0.256882
AHR2, 9052170, -3.08, 1.04, 328.07, -0.11, 0, 0, 0.9611222, -0.02338789, 0.0161799, -0.2746548
MOTB, 9052175, 1, 1, 1, 0.0431117, 0, 2
RCIN, 9052181, 1495, 1495, 982, 2006, 982, 2006, 1495, 1495, 982, 1495, 982, 982, 1495, 1495
RCI2, 9052188, 1495, 1495, 0, 1
RCOU, 9052194, 1000, 1000, 1000, 1000, 0, 0, 0, 0, 1495, 0, 0, 0, 0, 0
RCO2, 9052198, 0, 0, 0, 0
VIBE, 9052202, 0, 0.02537072, 0.02311368, 0.02279728, 0
VIBE, 9052202, 1, 0.06881528, 0.07103155, 0.08013293, 0
FMT, 247, 31, CTRL, Qfffff, TimeUS,RMSRollP,RMSRollD,RMSPitchP,RMSPitchD,RMSYaw
CTRL, 9052211, 0.0361344, 0.002024333, 0.009102441, 0.0007156259, 0.001765358
FMT, 252, 43, DCM, Qffffffff, TimeUS,Roll,Pitch,Yaw,ErrRP,ErrYaw,VWN,VWE,VWD
DCM, 9054105, -3.086386, 1.044806, 328.0765, 0.008150486, 0.08424346, 0, 0, 0
FMT, 251, 51, EAHR, QffffffLLfI, TimeUS,Roll,Pitch,Yaw,VN,VE,VD,Lat,Lon,Alt,Flg
EAHR, 9054143, 0, 0, 0, 0, 0, 0, 0, 0, 0, 0
MSG, 9065208, ArduCopter V4.6.2 (1ebd4d99)
MSG, 9065215, ChibiOS: 88b84600
VER, 9065220, 10, 5009, 4, 6, 2, 255, 515722649, ArduCopter V4.6.2 (1ebd4d99), 56, 2, 2
MSG, 9065233, Pixhawk6C 003D0048 3133510F 31343630
MSG, 9065241, Param space used: 951/5376
MSG, 9065248, RC Protocol: SBUS
MSG, 9065258, RCOut: PWM:1-16
MSG, 9065263, New mission
CMD, 9067049, 4, 0, 16, 0, 0, 0, 0, 0, 0, 0, 0
CMD, 9067058, 4, 1, 22, 1, 0, 0, 0, 0, 0, 10, 3
CMD, 9067065, 4, 2, 16, 10, 0, 0, 0, 15.367361, 75.1254623, 10, 3
CMD, 9067072, 4, 3, 20, 0, 0, 0, 0, 0, 0, 0, 0
MSG, 9067076, New rally
MSG, 9067081, New fence
FNCE, 9067088, 10, 0, 98, 15.3694775, 75.1243937, 10, 0
FNCE, 9067093, 10, 1, 98, 15.3694025, 75.1246646, 10, 0
FNCE, 9067099, 10, 2, 98, 15.3694775, 75.1248684, 10, 0
FNCE, 9067104, 10, 3, 98, 15.3696456, 75.1249086, 10, 0
FNCE, 9067109, 10, 4, 98, 15.3699042, 75.1248443, 10, 0
FNCE, 9067115, 10, 5, 98, 15.3702533, 75.1247826, 10, 0
FNCE, 9067135, 10, 6, 98, 15.3703154, 75.1244822, 10, 0
FNCE, 9067153, 10, 7, 98, 15.3700982, 75.124281, 10, 0
FNCE, 9067158, 10, 8, 98, 15.3698292, 75.1241469, 10, 0
FNCE, 9067163, 10, 9, 98, 15.3695111, 75.1241147, 10, 0
MSG, 9067172, Frame: QUAD/X
MODE, 9067198, Stabilize, 0, 1
IMU, 9071921, 0, 0.005840859, -0.01136702, -0.001518061, 0.2362905, 0.4624159, -9.649058, 0, 0, 41.42512, 1, 1, 2023, 2023
IMU, 9071921, 1, 0.00962782, -0.00249821, -0.001701682, 0.2236002, 0.5036211, -9.769979, 0, 0, 42, 1, 1, 2007, 2029
FILE, @SYS/uarts.txt, 0, 64, UARTV1\nSERIAL0 OTG1  TX =       0 RX =       0 TXBD=     0 RXBD=
FILE, @SYS/uarts.txt, 64, 64,      0 FE=0 OE=0 NE=0 FlowCtrl=0\nSERIAL1 UART7 TX*=     216 RX*=
SURF, 9101808, 0, 2, 0, 0, -0.1643388
SURF, 9101817, 1, 2, 0, 0, -0.1643388
IMU, 9112095, 0, 0.005627291, -0.01145326, -0.001773686, 0.257008, 0.3904366, -9.629324, 0, 0, 41.42512, 1, 1, 2023, 2023
IMU, 9112095, 1, 0.009616244, 0.0001425004, -0.0007323462, 0.2490217, 0.4231832, -9.717056, 0, 0, 42, 1, 1, 2007, 2029
FILE, @SYS/uarts.txt, 128, 64,        1 TXBD=   261 RXBD=     1 FE=0 OE=0 NE=0 FlowCtrl=0\nSERIA
STAK, 9117490, 19, 176, 1456, 984, I2C0
FILE, @SYS/uarts.txt, 192, 64, L2 UART5 TX*=     216 RX*=       0 TXBD=   261 RXBD=     0 FE=0 
FILE, @SYS/uarts.txt, 256, 64, OE=0 NE=0 FlowCtrl=0\nSERIAL3 UART1 TX =     648 RX*=    3007 TXB
FILE, @SYS/uarts.txt, 320, 64, D=   784 RXBD=  3639 FE=63 OE=0 NE=74 FlowCtrl=0\nSERIAL4 UART8 T
POWR, 9151809, 4.918579, 0, 1, 1, 6
MCU, 9151809, 36.56063, 3.348535, 3.341374, 3.353891
BAT, 9151822, 0, 15.92236, 16.31046, 0.653255, 1.047337, 0.01678459, 0, 0.5941044, 99, 1, 0
MAG, 9151833, 0, 649, 289, 219, -382, 367, 647, 0, 0, 0, 1, 9151832
MAG, 9151833, 1, -29, 458, 177, 59, 22, -40, 0, 0, 0, 1, 9151831
SURF, 9151854, 0, 2, 0, 0, -0.1705368
SURF, 9151863, 1, 2, 0, 0, -0.1705368
BARO, 9151949, 0, 0.03527832, 0.03527832, 93549.04, 36.37, -0.1966286, 9151, 0, 35, 1
CTUN, 9151960, 0, 0, 0, 0.431117, 0, -0.3068532, 0.03, NaN, 0, NaN, 0, -43
ATT, 9152011, 0.0001667372, -3.390353, -0.0003035713, 0.8035491, 330.3206, 330.3206, 3
ANG, 9151471, 0.0001667372, -3.390353, -0.0003035713, 0.8035491, 330.3206, 330.3206, 0.0025
RATE, 9151483, 15.24567, -0.7402111, 0.03884736, -3.657049, -0.3352131, -0.007979089, 0.5668064, 0.004932143, 0.001654485, 0, -13.56106, 0, 0
PIDR, 9152028, 0.2655236, -0.01291912, 0.2784428, 0.03758978, 0, 0.001257588, 0, 0, 1, 0.196818, 9
PIDP, 9152032, -0.06399577, -0.005850573, -0.0581452, -0.007849602, 0, -0.000129487, 0, 0, 1, 0.09011056, 9
PIDY, 9152035, 0.00989045, 8.608215E-05, 0.009191583, 0.001654485, 0, 0, 0, 0, 1, 0.003954985, 9
PIDA, 9152039, 0, 0, 0, 0, 0, 0, 0, 0, 0, 0, 0
XKF4, 9151576, 0, 0, 0, 0.01, 0.05, 0, 0.1346897, 0, 0, 0, 50, 67751, 0, 0
XKF1, 9151576, 0, -3.39, 0.8, 330.32, 0.006989135, -0.1989955, 0.4316899, 0.3584801, 0, 0, 0.3068532, 0, 0, -0.13, 0
XKF2, 9151576, 0, 0, 0, 0, 0, 0, 934, 0, 372, 0, 0, 0, 0, 0, 0
XKF3, 9151576, 0, 0, 0, 0, 0, -0.1, 0.4, 0, 0, 0, -4.95, 0, 0, 0
XKF5, 9151576, 0, 0, 0, 0, 0, 0.05, 0.32, 0, 0, 0.5, 0.008753315, 0.005062095, 0.009688376
XKFS, 9151576, 0, 0, 0, 0, 0, 0, 0, 0, 1
XKQ, 9151576, 0, 0.9662526, -0.02679957, 0.01435162, -0.2557963
XKF4, 9151576, 1, 0, 0, 0.01, 0.05, 0, 0.130917, 0, 0, 0, 50, 67751, 0, 0
XKF1, 9151576, 1, -3.08, 1.67, 330.41, -0.07955404, -0.04260213, 0.1710855, 0.1504822, 0, 0, 0.1181738, 0, 0, -0.14, 0
XKF2, 9151576, 1, 0, 0, 0, 0, 0, 934, 0, 371, 0, 0, 0, 0, 0, 0
XKF3, 9151576, 1, 0, 0, 0, -0.04, -0.02, 0.24, 0, 0, 0, -5, 0, 0, 0
XKFS, 9151576, 1, 0, 0, 0, 0, 0, 0, 0, 1
XKQ, 9151576, 1, 0.9665108, -0.02228861, 0.02098348, -0.2547938
AHR2, 9152117, -3.07, 1, 328.14, 0.13, 0, 0, 0.9612949, -0.02344318, 0.01576961, -0.274069
MOTB, 9152122, 1, 1, 1, 0.0431117, 0, 2
RCIN, 9152128, 1495, 1495, 982, 2006, 982, 2006, 1495, 1495, 982, 1495, 982, 982, 1495, 1495
RCI2, 9152132, 1495, 1495, 0, 1
RCOU, 9152141, 1000, 1000, 1000, 1000, 0, 0, 0, 0, 1495, 0, 0, 0, 0, 0
RCO2, 9152144, 0, 0, 0, 0
VIBE, 9152149, 0, 0.04514977, 0.04719464, 0.04167123, 0
VIBE, 9152149, 1, 0.08807587, 0.08982544, 0.09035296, 0
CTRL, 9152157, 0.03595567, 0.001836796, 0.008591556, 0.0006661467, 0.001731005
IMU, 9152167, 0, -0.01304792, -0.00581415, -0.002320727, 0.2382265, 0.4330875, -9.654356, 0, 0, 41.42512, 1, 1, 2023, 2023
IMU, 9152167, 1, -0.009791031, 0.00535337, -0.001017761, 0.2404855, 0.468244, -9.757496, 0, 0, 42, 1, 1, 2007, 2029
DCM, 9154086, -3.08155, 1.001122, 328.1479, 0.008150486, 0.09211135, 0, 0, 0
EAHR, 9154103, 0, 0, 0, 0, 0, 0, 0, 0, 0, 0
FILE, @SYS/uarts.txt, 384, 64, X*=       0 RX*=       0 TXBD=     0 RXBD=     0 FE=0 OE=0 NE=0 
FILE, @SYS/uarts.txt, 448, 64, FlowCtrl=0\nSERIAL5 UART2 TX =       0 RX =       0 TXBD=     0 R
FILE, @SYS/uarts.txt, 512, 64, XBD=     0 FE=0 OE=0 NE=0 FlowCtrl=0\nSERIAL6 UART3 TX =       0 
FMT, 253, 28, HEAT, Qfbfff, TimeUS,Temp,Targ,P,I,Out
HEAT, 9178978, 41.43721, 45, 178.1393, 4.434082, 100
IMU, 9192456, 0, 0.0001001828, -0.01112905, -0.002258662, 0.2483869, 0.4041806, -9.680462, 0, 0, 41.42512, 1, 1, 2023, 2023
IMU, 9192456, 1, 0.003266631, -0.002124302, -0.001935629, 0.2291666, 0.4414296, -9.789166, 0, 0, 42, 1, 1, 2007, 2029
FILE, @SYS/uarts.txt, 576, 64, RX =       0 TXBD=     0 RXBD=     0 FE=0 OE=0 NE=0 FlowCtrl=0\nS
SURF, 9201834, 0, 2, 0, 0, -0.1771932
SURF, 9201844, 1, 2, 0, 0, -0.1771932
FILE, @SYS/uarts.txt, 640, 64, ERIAL7 OTG2  TX =       0 RX =       0 TXBD=     0 RXBD=     0 F
STAK, 9218163, 20, 181, 1456, 816, SPI1
FILE, @SYS/uarts.txt, 704, 64, E=0 OE=0 NE=0 FlowCtrl=0\nIOMCU   UART6 TX*=   36974 RX*=   30224
FILE, @SYS/uarts.txt, 768, 51,  TXBD= 44751 RXBD= 36581 FE=0 OE=0 NE=0 FlowCtrl=0\n
IMU, 9231940, 0, -0.008500596, -0.006668024, -0.000598955, 0.2400891, 0.4181573, -9.596156, 0, 0, 41.42512, 1, 1, 2023, 2023
IMU, 9231940, 1, -0.004840985, 0.005201919, -0.001006021, 0.2485075, 0.4344513, -9.689674, 0, 0, 42, 1, 1, 2007, 2029
FILE, @SYS/memory.txt, 0, 64, MemInfoV1\nSTART=0x24000000 LEN=512k FREE=  4928 LRG=  2592 TYPE=
POWR, 9251826, 4.92301, 0, 1, 1, 6
MCU, 9251826, 36.54076, 3.348395, 3.339694, 3.353891
BAT, 9251843, 0, 15.93179, 16.32816, 0.6671696, 1.065875, 0.01707993, 0, 0.5941044, 99, 1, 0
MAG, 9251909, 0, 820, 418, 225, -382, 367, 647, 0, 0, 0, 1, 9251879
MAG, 9251909, 1, -25, 458, 180, 59, 22, -40, 0, 0, 0, 1, 9251865
SURF, 9251930, 0, 2, 0, 0, -0.1843149
SURF, 9251958, 1, 2, 0, 0, -0.1843149
BARO, 9251978, 0, -0.1265869, -0.1265869, 93550.88, 36.38, 0.3032875, 9251, 0, 35, 1
CTUN, 9251985, 0, 0, 0, 0.431117, 0, -0.3387357, -0.12, NaN, 0, NaN, 0, -44
ATT, 9252030, 0.0001667373, -3.436231, -0.0003035713, 0.7784777, 330.5999, 330.5999, 3
ANG, 9251470, 0.0001667373, -3.436231, -0.0003035713, 0.7784777, 330.5999, 330.5999, 0.002499
RATE, 9251482, 15.45233, -1.785024, 0.04437709, -3.544712, 0.05777821, -0.009527917, 0.5684932, 0.1233532, 0.001566712, 0, -10.48365, 0, 0
PIDR, 9252047, 0.2682488, -0.03115455, 0.2994033, 0.04041945, 0, 0.00395764, 0, 0, 1, 0.2184385, 9
PIDP, 9252051, -0.06173363, 0.00100842, -0.06274205, -0.008470178, 0, -0.00105774, 0, 0, 1, 0.09504624, 9
PIDY, 9252055, 0.009940063, 0.00215292, 0.008703955, 0.001566712, 0, 0, 0, 0, 1, 0.003633603, 9
PIDA, 9252058, 0, 0, 0, 0, 0, 0, 0, 0, 0, 0, 0
XKF4, 9251644, 0, 0, 0, 0.01, 0.05, 0, 0.139172, 0, 0, 0, 50, 67751, 0, 0
XKF1, 9251644, 0, -3.43, 0.77, 330.59, 0.0079239, -0.2155868, 0.4417102, 0.3366174, 0, 0, 0.3387357, 0, 0, -0.16, 0
XKF2, 9251644, 0, 0, 0, 0, 0, 0, 934, 0, 372, 0, 0, 0, 0, 0, 0
XKF3, 9251644, 0, 0, 0, 0, 0, -0.12, 0.32, 0, 0, 0, -4.59, 0, 0, 0
XKF5, 9251644, 0, 0, 0, 0, 0, 0.05, 0.34, 0, 0, 0.5, 0.009199697, 0.007073832, 0.006791214
XKFS, 9251644, 0, 0, 0, 0, 0, 0, 0, 0, 1
XKQ, 9251644, 0, 0.9668621, -0.0272771, 0.01417621, -0.2534415
XKF4, 9251644, 1, 0, 0, 0, 0.05, 0, 0.1356087, 0, 0, 0, 50, 67751, 0, 0
XKF1, 9251644, 1, -3.11, 1.69, 330.69, -0.08931024, -0.04530242, 0.1740682, 0.1304615, 0, 0, 0.1304121, 0, 0.01, -0.17, 0
XKF2, 9251644, 1, 0, 0, 0, 0, 0, 934, 0, 371, 0, 0, 0, 0, 0, 0
XKF3, 9251644, 1, 0, 0, 0, -0.05, -0.03, 0.15, 0, 0, 0, -4.65, 0, 0, 0
XKFS, 9251644, 1, 0, 0, 0, 0, 0, 0, 0, 1
XKQ, 9251644, 1, 0.9671263, -0.02250415, 0.0212007, -0.2524101
AHR2, 9252129, -3.12, 0.97, 328.21, 0.03, 0, 0, 0.9614526, -0.02391075, 0.01565593, -0.2734814
MOTB, 9252134, 1, 1, 1, 0.0431117, 0, 2
RCIN, 9252139, 1495, 1495, 982, 2006, 982, 2006, 1495, 1495, 982, 1495, 982, 982, 1495, 1495
RCI2, 9252143, 1495, 1495, 0, 1
RCOU, 9252149, 1000, 1000, 1000, 1000, 0, 0, 0, 0, 1495, 0, 0, 0, 0, 0
RCO2, 9252153, 0, 0, 0, 0
VIBE, 9252157, 0, 0.09536904, 0.08521162, 0.0883, 0
VIBE, 9252157, 1, 0.1320039, 0.1293878, 0.1200542, 0
CTRL, 9252168, 0.03632279, 0.001996886, 0.008252105, 0.0007240027, 0.001707589
DCM, 9254099, -3.131126, 0.9755805, 328.218, 0.008450625, 0.08829983, 0, 0, 0
EAHR, 9254116, 0, 0, 0, 0, 0, 0, 0, 0, 0, 0
FILE, @SYS/memory.txt, 64, 64, 4\nSTART=0x30000000 LEN=256k FREE=262136 LRG=262136 TYPE=8\nSTART=
IMU, 9271862, 0, -0.03618583, 0.00206038, -0.00144983, 0.244871, 0.4338184, -9.610896, 0, 0, 41.42512, 1, 1, 2023, 2023
IMU, 9271862, 1, -0.03321612, 0.01133046, -0.001292106, 0.2606979, 0.4678015, -9.694774, 0, 0, 42, 1, 1, 2007, 2029
FILE, @SYS/memory.txt, 128, 64, 0x20000000 LEN=128k FREE=112544 LRG=112544 TYPE=2\nSTART=0x000004
FILE, @SYS/memory.txt, 192, 64, 00 LEN= 63k FREE= 64504 LRG= 64504 TYPE=2\nSTART=0x30040000 LEN= 
FILE, @SYS/memory.txt, 256, 64, 32k FREE= 32760 LRG= 32760 TYPE=8\nSTART=0x38000000 LEN= 64k FREE
SURF, 9301790, 0, 2, 0, 0, -0.1918553
SURF, 9301799, 1, 2, 0, 0, -0.1918553
FILE, @SYS/memory.txt, 320, 26, = 56808 LRG= 56152 TYPE=1\n
IMU, 9312082, 0, -0.01983428, -0.004271311, -0.001070648, 0.2489506, 0.4418537, -9.671771, 0, 0, 41.42512, 1, 1, 2023, 2023
IMU, 9312082, 1, -0.01698231, 0.0006289151, -3.942876E-05, 0.2413466, 0.4758956, -9.763101, 0, 0, 42, 1, 1, 2007, 2029
STAK, 9318493, 255, 255, 1536, 1324, ISR
FILE, @SYS/threads.txt, 0, 64, ThreadsV2\nISR           PRI=255 sp=0x24000000 STACK=1324/1536\nAr
FMT, 254, 35, IOMC, QHHIIIII, TimeUS,RSErr,Mem,TS,NPkt,Nerr,Nerr2,NDel
IOMC, 9334673, 0, 12896, 9326, 2867, 0, 0, 0
FILE, @SYS/threads.txt, 64, 64, duCopter    PRI=182 sp=0x24000600 STACK=4000/7168\nidle          
FILE, @SYS/threads.txt, 128, 64, PRI=  1 sp=0x240214B0 STACK=288/496\nUART_RX       PRI= 60 sp=0x2
POWR, 9351828, 4.923615, 0, 1, 1, 6
MCU, 9351828, 36.56063, 3.348676, 3.340674, 3.354738
BAT, 9351841, 0, 15.93646, 16.33582, 0.6717468, 1.084536, 0.01737732, 0, 0.5945126, 99, 1, 0
MAG, 9351878, 0, 928, 533, 230, -382, 367, 647, 0, 0, 0, 1, 9351877
MAG, 9351878, 1, -24, 458, 181, 59, 22, -40, 0, 0, 0, 1, 9351850
SURF, 9351942, 0, 2, 0, 0, -0.1998185
SURF, 9351952, 1, 2, 0, 0, -0.1998185
BARO, 9351974, 0, 0.09405518, 0.09405518, 93548.39, 36.38, 0.2673722, 9351, 0, 35, 1
CTUN, 9351981, 0, 0, 0, 0.431117, 0, -0.371382, 0.09, NaN, 0, NaN, 0, -45
ATT, 9352030, 0.0001667372, -3.579958, -0.0003035713, 0.7770749, 330.8338, 330.8338, 3
ANG, 9351471, 0.0001667372, -3.579957, -0.0003035713, 0.7770749, 330.8338, 330.8338, 0.0025
RATE, 9351484, 16.09919, -1.386506, 0.04133598, -3.540305, -0.2565534, -0.007546139, 0.5644566, 0.1603112, 0.001382657, 0, -14.27937, 0, 0
PIDR, 9352046, 0.2801139, -0.02419909, 0.304313, 0.04108226, 0, 0.000253717, 0, 0, 1, 0.2409092, 9
PIDP, 9352050, -0.06195052, -0.004477702, -0.05747282, -0.007758831, 0, 0.0002126913, 0, 0, 1, 0.1014734, 9
PIDY, 9352054, 0.009851259, 0.002797959, 0.007681427, 0.001382657, 0, 0, 0, 0, 1, 0.003457384, 9
PIDA, 9352070, 0, 0, 0, 0, 0, 0, 0, 0, 0, 0, 0
XKF4, 9351613, 0, 0, 0, 0, 0.01, 0, 0.1436293, 0, 0, 0, 50, 67751, 0, 0
XKF1, 9351613, 0, -3.57, 0.77, 330.83, 0.0111572, -0.2316104, 0.4513853, 0.333381, 0, 0, 0.371382, 0, 0, -0.17, 0
XKF2, 9351613, 0, 0, 0, 0, 0, 0, 934, 0, 372, 0, 0, 0, 0, 0, 0
XKF3, 9351613, 0, 0, 0, 0, 0, -0.14, 0.19, 0, 0, 0, -1.51, 0, 0, 0
XKF5, 9351613, 0, 0, 0, 0, 0, 0.05, 0.38, 0, 0, 0.5, 0.005992127, 0.006030246, 0.008793366
XKFS, 9351613, 0, 0, 0, 0, 0, 0, 0, 0, 1
XKQ, 9351613, 0, 0.9673424, -0.02852237, 0.01442405, -0.2514499
XKF4, 9351613, 1, 0, 0, 0, 0.01, 0, 0.1402794, 0, 0, 0, 50, 67751, 0, 0
XKF1, 9351613, 1, -3.23, 1.74, 330.94, -0.09567828, -0.0470079, 0.1768504, 0.1330968, 0, 0, 0.1442725, 0, 0.01, -0.18, 0
XKF2, 9351613, 1, 0, 0, 0, 0, 0, 934, 0, 371, 0, 0, 0, 0, 0, 0
XKF3, 9351613, 1, 0, 0, 0, -0.06, -0.03, 0, 0, 0, 0, -1.53, 0, 0, 0
XKFS, 9351613, 1, 0, 0, 0, 0, 0, 0, 0, 1
XKQ, 9351613, 1, 0.9676334, -0.02350947, 0.02185636, -0.2503104
AHR2, 9352180, -3.27, 0.97, 328.26, -0.12, 0, 0, 0.9615253, -0.0251386, 0.0159768, -0.2730967
MOTB, 9352186, 1, 1, 1, 0.0431117, 0, 2
RCIN, 9352192, 1495, 1495, 982, 2006, 982, 2006, 1495, 1495, 982, 1495, 982, 982, 1495, 1495
RCI2, 9352196, 1495, 1495, 0, 1
RCOU, 9352202, 1000, 1000, 1000, 1000, 0, 0, 0, 0, 1495, 0, 0, 0, 0, 0
RCO2, 9352205, 0, 0, 0, 0
VIBE, 9352209, 0, 0.0757084, 0.07110797, 0.06969433, 0
VIBE, 9352209, 1, 0.111475, 0.1095249, 0.1042852, 0
CTRL, 9352218, 0.03790472, 0.001859751, 0.008222001, 0.000673274, 0.001636535
IMU, 9352228, 0, -0.02436324, -0.004424044, -0.0003387308, 0.2829213, 0.4341021, -9.64537, 0, 0, 41.90821, 1, 1, 2023, 2023
IMU, 9352228, 1, -0.01983334, 0.008454612, 0.0003314313, 0.2712081, 0.4845116, -9.757116, 0, 0, 42, 1, 1, 2007, 2029
DCM, 9354059, -3.273491, 0.9726243, 328.261, 0.008450625, 0.07547891, 0, 0, 0
EAHR, 9354081, 0, 0, 0, 0, 0, 0, 0, 0, 0, 0
FILE, @SYS/threads.txt, 192, 64, 407B0E8 STACK=880/1200\nOTG1          PRI= 60 sp=0x2407A1A0 STACK
FILE, @SYS/threads.txt, 256, 64, =480/752\nmonitor       PRI=183 sp=0x2401CE20 STACK=1096/1456\ntim
FILE, @SYS/threads.txt, 320, 64, er         PRI=181 sp=0x2401E3E0 STACK=1544/1968\nrcout         P
IMU, 9392341, 0, -0.01054674, -0.007887156, -0.001584694, 0.2646626, 0.4748724, -9.639896, 0, 0, 41.90821, 1, 1, 2023, 2023
IMU, 9392341, 1, -0.006701739, 0.002851883, -9.45476E-05, 0.2656737, 0.5280932, -9.746548, 0, 0, 42, 1, 1, 2007, 2029
FILE, @SYS/threads.txt, 384, 64, RI=181 sp=0x2401DA00 STACK=656/944\nrcin          PRI=177 sp=0x24
SURF, 9401822, 0, 2, 0, 0, -0.2081959
SURF, 9401832, 1, 2, 0, 0, -0.2081959
FILE, @SYS/threads.txt, 448, 64, 01D410 STACK=848/1456\nio            PRI= 58 sp=0x2401C430 STACK=
STAK, 9419456, 0, 182, 7168, 4000, ArduCopter
FILE, @SYS/threads.txt, 512, 64, 1576/2480\nstorage       PRI= 59 sp=0x2401DDF0 STACK=896/1456\nUAR
IMU, 9431898, 0, 0.01480569, -0.01691929, -0.0003087532, 0.262598, 0.4350894, -9.665351, 0, 0, 41.90821, 1, 1, 2023, 2023
IMU, 9431898, 1, 0.01801603, -0.007352015, 0.0005716442, 0.2484906, 0.4907196, -9.751997, 0, 0, 42, 1, 1, 2007, 2029
FILE, @SYS/threads.txt, 576, 64, T7         PRI= 60 sp=0x24078FF8 STACK=344/752\nUART5         PRI
FILE, @SYS/threads.txt, 640, 64, = 60 sp=0x240784B0 STACK=240/752\nUART1         PRI= 60 sp=0x2407
POWR, 9451816, 4.922909, 0, 1, 1, 6
MCU, 9451816, 36.58052, 3.348535, 3.341094, 3.354173
BAT, 9451829, 0, 15.93755, 16.30764, 0.6224964, 1.101827, 0.01765289, 0, 0.5945126, 99, 1, 0
MAG, 9451841, 0, 908, 471, 158, -382, 367, 647, 0, 0, 0, 1, 9451840
MAG, 9451841, 1, -24, 458, 181, 59, 22, -40, 0, 0, 0, 1, 9451838
SURF, 9451916, 0, 2, 0, 0, -0.2169894
SURF, 9451937, 1, 2, 0, 0, -0.2169894
BARO, 9451957, 0, 0.105835, 0.105835, 93548.25, 36.38, -0.06723403, 9451, 0, 35, 1
CTUN, 9451964, 0, 0, 0, 0.431117, 0, -0.4030265, 0.1, NaN, 0, NaN, 0, -45
ATT, 9452011, 0.0001667372, -3.56741, -0.0003035712, 0.7157094, 330.9356, 330.9356, 3
ANG, 9451471, 0.0001667372, -3.56741, -0.0003035712, 0.7157094, 330.9356, 330.9356, 0.002499
RATE, 9451483, 16.04354, 0.6456379, 0.03711774, -3.263788, -0.7866068, -0.006335264, 0.5731781, 0.1506005, 0.001404735, 0, -15.44123, 0, 0
PIDR, 9452028, 0.2803738, 0.01126851, 0.2691053, 0.03632922, 0, 0.00078852, 0, 0, 1, 0.2572158, 9
PIDP, 9452032, -0.05744413, -0.01372888, -0.04371525, -0.005901559, 0, -0.0004337047, 0, 0, 1, 0.1081824, 9
PIDY, 9452035, 0.009989931, 0.002628474, 0.007804085, 0.001404735, 0, 0, 0, 0, 1, 0.003297957, 9
PIDA, 9452039, 0, 0, 0, 0, 0, 0, 0, 0, 0, 0, 0
XKF4, 9451597, 0, 0, 0, 0.02, 0.01, 0, 0.1480197, 0, 0, 0, 50, 67751, 0, 0
XKF1, 9451597, 0, -3.56, 0.71, 330.93, 0.01473295, -0.2485564, 0.45933, 0.3238456, 0, 0, 0.4030265, -0.01, 0, -0.16, 0
XKF2, 9451597, 0, 0, 0, 0, 0, 0, 934, 0, 372, 0, 0, 0, 0, 0, 0
XKF3, 9451597, 0, 0, 0, 0, 0, -0.16, 0.44, 0, 0, 0, 1.32, 0, 0, 0
XKF5, 9451597, 0, 0, 0, 0, 0, 0.05, 0.4, 0, 0, 0.5, 0.0008187073, 0.009514197, 0.0020053
XKFS, 9451597, 0, 0, 0, 0, 0, 0, 0, 0, 1
XKQ, 9451597, 0, 0.9675677, -0.02856364, 0.01385318, -0.2506091
XKF4, 9451597, 1, 0, 0, 0.01, 0.01, 0, 0.1448907, 0, 0, 0, 50, 67751, 0, 0
XKF1, 9451597, 1, -3.2, 1.74, 331.05, -0.1020614, -0.04811482, 0.1791854, 0.1288515, 0, 0, 0.1565686, 0, 0.01, -0.17, 0
XKF2, 9451597, 1, 0, 0, 0, 0, 0, 934, 0, 371, 0, 0, 0, 0, 0, 0
XKF3, 9451597, 1, 0, 0, 0, -0.07, -0.03, 0.23, 0, 0, 0, 1.31, 0, 0, 0
XKFS, 9451597, 1, 0, 0, 0, 0, 0, 0, 0, 1
XKQ, 9451597, 1, 0.9678898, -0.02330482, 0.02170296, -0.2493495
AHR2, 9452159, -3.26, 0.91, 328.27, 0.09, 0, 0, 0.9615678, -0.0251806, 0.01545363, -0.2729734
MOTB, 9452165, 1, 1, 1, 0.0431117, 0, 2
RCIN, 9452171, 1495, 1495, 982, 2006, 982, 2006, 1495, 1495, 982, 1495, 982, 982, 1495, 1495
RCI2, 9452175, 1495, 1495, 0, 1
RCOU, 9452181, 1000, 1000, 1000, 1000, 0, 0, 0, 0, 1495, 0, 0, 0, 0, 0
RCO2, 9452184, 0, 0, 0, 0
VIBE, 9452189, 0, 0.07269601, 0.05523629, 0.06069077, 0
VIBE, 9452189, 1, 0.1072714, 0.0943222, 0.09287146, 0
CTRL, 9452197, 0.03797743, 0.001769091, 0.007700197, 0.0006815724, 0.001569257
DCM, 9454097, -3.259581, 0.9140263, 328.2776, 0.009171453, 0.07412818, 0, 0, 0
EAHR, 9454114, 0, 0, 0, 0, 0, 0, 0, 0, 0, 0
FILE, @SYS/threads.txt, 704, 64, 78E8 STACK=344/752\nUART8         PRI= 60 sp=0x24076D20 STACK=416
FILE, @SYS/threads.txt, 768, 64, /752\nOTG2          PRI= 60 sp=0x24075DD8 STACK=480/752\nUART6    
IMU, 9471908, 0, -0.007427953, -0.00710781, -0.001092931, 0.2353138, 0.4400022, -9.620826, 0, 0, 41.90821, 1, 1, 2023, 2023
IMU, 9471908, 1, -0.004026859, -0.0006337191, -0.001486393, 0.2362706, 0.4755089, -9.733806, 0, 0, 42, 1, 1, 2007, 2029
FILE, @SYS/threads.txt, 832, 64,      PRI=181 sp=0x24074F58 STACK=344/752\nIOMCU         PRI=183 s
FILE, @SYS/threads.txt, 896, 64, p=0x2406AB30 STACK=952/1456\nlog_io        PRI= 59 sp=0x2406B2C0 
SURF, 9501815, 0, 2, 0, 0, -0.2260736
SURF, 9501824, 1, 2, 0, 0, -0.2260736
FILE, @SYS/threads.txt, 960, 64, STACK=712/2016\nI2C1          PRI=176 sp=0x2406BBD0 STACK=984/145
IMU, 9512099, 0, -0.02215649, -0.004957126, -0.002005834, 0.2783521, 0.4451407, -9.627887, 0, 0, 41.90821, 1, 1, 2023, 2023
IMU, 9512099, 1, -0.01750846, 0.008879089, -0.001563805, 0.3048129, 0.4927877, -9.726531, 0, 0, 42, 1, 1, 2007, 2029
FILE, @SYS/threads.txt, 1024, 64, 6\nI2C0          PRI=176 sp=0x2406C4A0 STACK=984/1456\nSPI1       
STAK, 9519493, 1, 1, 496, 288, idle
FILE, @SYS/threads.txt, 1088, 40,    PRI=181 sp=0x24070FC0 STACK=816/1456\n
FILE, @SYS/timers.txt, 0, 64, TIMERV1\nTIM5  CLK= 200Mhz MODE=  PWM FREQ=       7 TGT=       8\n
POWR, 9551807, 4.919384, 0, 1, 1, 6
MCU, 9551807, 36.58052, 3.348535, 3.340114, 3.355727
BAT, 9551839, 0, 15.93499, 16.28276, 0.5849634, 1.118079, 0.01791187, 0, 0.5945126, 99, 1, 0
MAG, 9551851, 0, 719, 284, 73, -382, 367, 647, 0, 0, 0, 1, 9551849
MAG, 9551851, 1, -31, 455, 183, 59, 22, -40, 0, 0, 0, 1, 9551848
SURF, 9551869, 0, 2, 0, 0, -0.235462
SURF, 9551878, 1, 2, 0, 0, -0.235462
BARO, 9551897, 0, 0, 0, 93549.43, 36.38, 0.0872612, 9551, 0, 35, 1
CTUN, 9551907, 0, 0, 0, 0.431117, 0, -0.4320262, 0, NaN, 0, NaN, 0, -46
ATT, 9552024, 0.0001667372, -3.681813, -0.0003035711, 0.6968122, 330.9554, 330.9554, 3
ANG, 9551472, 0.0001667372, -3.681813, -0.0003035711, 0.6968122, 330.9554, 330.9554, 0.002501
RATE, 9551484, 16.55844, -1.665525, 0.04346676, -3.18018, -0.1468095, -0.007160556, 0.5731467, 0.1587151, 0.001450465, 0, -11.74564, 0, 0
PIDR, 9552041, 0.2878261, -0.0290689, 0.316895, 0.04278082, 0, 0.0006859348, 0, 0, 1, 0.2677061, 9
PIDP, 9552045, -0.05558906, -0.002562309, -0.05302675, -0.007158611, 0, -1.944323E-06, 0, 0, 1, 0.1136597, 9
PIDY, 9552048, 0.01000264, 0.002770101, 0.008058138, 0.001450465, 0, 0, 0, 0, 1, 0.003254743, 9
PIDA, 9552052, 0, 0, 0, 0, 0, 0, 0, 0, 0, 0, 0
XKF4, 9551571, 0, 0, 0, 0.02, 0.01, 0, 0.1523183, 0, 0, 0, 50, 67751, 0, 0
XKF1, 9551571, 0, -3.68, 0.69, 330.95, 0.01726628, -0.2663067, 0.4654689, 0.2894692, 0, 0, 0.4320262, -0.01, 0, -0.18, 0
XKF2, 9551571, 0, 0, 0, 0.01, 0, 0, 934, 0, 372, 0, 0, 0, 0, 0, 0
XKF3, 9551571, 0, 0, 0, 0, 0, -0.17, 0.48, 0, 0, 0, -1.3, 0, 0, 0
XKF5, 9551571, 0, 0, 0, 0, 0, 0.05, 0.42, 0, 0, 0.5, 0.0004215986, 0.01316046, 0.009528331
XKFS, 9551571, 0, 0, 0, 0, 0, 0, 0, 0, 1
XKQ, 9551571, 0, 0.9675817, -0.0295734, 0.01393872, -0.2504333
XKV1, 9551571, 0, 0.0002355504, 0.002866718, 0.002936007, 0.003063632, 2.215678, 2.160637, 0.2638176, 1.817777, 1.767812, 0.8224354, 2.906655E-07, 2.906303E-07
XKV2, 9551571, 0, 2.742181E-07, 6.192123E-06, 6.192068E-06, 5.959532E-06, 0, 0, 0, 0, 0, 0, 0, 0
XKF4, 9551571, 1, 0, 0, 0.01, 0.01, 0, 0.1494159, 0, 0, 0, 50, 67751, 0, 0
XKF1, 9551571, 1, -3.3, 1.77, 331.07, -0.1105326, -0.05139599, 0.1785582, 0.1008673, 0, 0, 0.1666361, 0, 0.01, -0.18, 0
XKF2, 9551571, 1, 0, 0, 0, 0, 0, 934, 0, 371, 0, 0, 0, 0, 0, 0
XKF3, 9551571, 1, 0, 0, 0, -0.07, -0.04, 0.25, 0, 0, 0, -1.27, 0, 0, 0
XKFS, 9551571, 1, 0, 0, 0, 0, 0, 0, 0, 1
XKQ, 9551571, 1, 0.9679123, -0.02405259, 0.02223175, -0.2491447
AHR2, 9552146, -3.37, 0.9, 328.31, 0.09999999, 0, 0, 0.9616328, -0.02617841, 0.01562022, -0.2726409
MOTB, 9552151, 1, 1, 1, 0.0431117, 0, 2
RCIN, 9552157, 1495, 1495, 982, 2006, 982, 2006, 1495, 1495, 982, 1495, 982, 982, 1495, 1495
RCI2, 9552161, 1495, 1495, 0, 1
RCOU, 9552167, 1000, 1000, 1000, 1000, 0, 0, 0, 0, 1495, 0, 0, 0, 0, 0
RCO2, 9552170, 0, 0, 0, 0
VIBE, 9552175, 0, 0.05074012, 0.04472551, 0.0433971, 0
VIBE, 9552175, 1, 0.08519118, 0.08917172, 0.08542749, 0
CTRL, 9552183, 0.03896612, 0.001842759, 0.007454275, 0.00063638, 0.001534523
IMU, 9552193, 0, -0.02931066, -0.002555282, -0.0003720349, 0.2185746, 0.4440539, -9.667897, 0, 0, 41.90821, 1, 1, 2023, 2023
IMU, 9552193, 1, -0.0253697, 0.008216159, 0.002097876, 0.2134793, 0.4827648, -9.77478, 0, 0, 42, 1, 1, 2007, 2029
DCM, 9554132, -3.378963, 0.9035127, 328.3159, 0.009171453, 0.0935007, 0, 0, 0
EAHR, 9554148, 0, 0, 0, 0, 0, 0, 0, 0, 0, 0
FILE, @SYS/timers.txt, 64, 64, TIM4  CLK= 200Mhz MODE=  PWM FREQ=       7 TGT=       8\nTIM1  CL
FILE, @SYS/timers.txt, 128, 48, K= 200Mhz MODE=  PWM FREQ=       7 TGT=       8\n
IMU, 9592345, 0, 0.001963278, -0.01773598, -0.00135311, 0.2944527, 0.4750378, -9.671399, 0, 0, 41.90821, 1, 1, 2023, 2023
IMU, 9592345, 1, 0.005490909, -0.005018011, -0.002297763, 0.2698621, 0.5185469, -9.797855, 0, 0, 42, 1, 1, 2007, 2029
FILE, @ROMFS/hwdef.dat, 0, 64, MCU STM32H7xx STM32H743xx\nOSCILLATOR_HZ 16000000\nSTM32_ST_USE_TI
SURF, 9601839, 0, 2, 0, 0, -0.2450603
SURF, 9601849, 1, 2, 0, 0, -0.2450603
FILE, @ROMFS/hwdef.dat, 64, 64, MER 2\nUSB_VENDOR 0x3162\nUSB_PRODUCT 0x0053\nUSB_STRING_MANUFACTUR
FILE, @ROMFS/hwdef.dat, 128, 64, ER "Holybro"\nAPJ_BOARD_ID 56\nFLASH_RESERVE_START_KB 128\nenv USE_
STAK, 9620419, 2, 60, 1200, 880, UART_RX
FILE, @ROMFS/hwdef.dat, 192, 64, ALT_RAM_MAP 1\nFLASH_SIZE_KB 2048\nenv OPTIMIZE -O2\nSERIAL_ORDER O
IMU, 9631962, 0, 0.02517127, -0.02227283, -0.001058614, 0.2755959, 0.4343321, -9.616903, 0, 0, 42.3913, 1, 1, 2023, 2023
IMU, 9631962, 1, 0.03024025, -0.01016704, 0.0003299087, 0.2811886, 0.4819806, -9.741469, 0, 0, 42, 1, 1, 2007, 2029
FILE, @ROMFS/hwdef.dat, 256, 64, TG1 UART7 UART5 USART1 UART8 USART2 USART3 OTG2\nPA11 OTG_FS_DM O
FILE, @ROMFS/hwdef.dat, 320, 64, TG1\nPA12 OTG_FS_DP OTG1\nPA9 VBUS INPUT OPENDRAIN\nPA13 JTMS-SWDIO
POWR, 9651827, 4.919284, 0, 1, 1, 6
MCU, 9651827, 36.56063, 3.348535, 3.341795, 3.353467
BAT, 9651841, 0, 15.93692, 16.28512, 0.5856755, 1.134349, 0.01817116, 0, 0.5945126, 99, 1, 0
MAG, 9651878, 0, 727, 258, 85, -382, 367, 647, 0, 0, 0, 1, 9651865
MAG, 9651878, 1, -34, 452, 190, 59, 22, -40, 0, 0, 0, 1, 9651850
SURF, 9651949, 0, 2, 0, 0, -0.2548821
SURF, 9651960, 1, 2, 0, 0, -0.2548821
BARO, 9651996, 0, -0.03527832, -0.03527832, 93549.84, 36.38, 0.2648544, 9651, 0, 35, 1
CTUN, 9652004, 0, 0, 0, 0.431117, 0, -0.4591748, -0.03, NaN, 0, NaN, 0, -47
ATT, 9652056, 0.0001667372, -3.609398, -0.0003035712, 0.6046804, 331.0905, 331.0905, 3
ANG, 9651471, 0.0001667372, -3.609397, -0.0003035712, 0.6046804, 331.0905, 331.0905, 0.002498
RATE, 9651485, 16.23392, 1.034549, 0.03620727, -2.764337, -1.096043, -0.0039787, 0.5874295, 0.2528807, 0.001334152, 0, -10.7439, 0, 0
PIDR, 9652073, 0.2843849, 0.01805629, 0.2663286, 0.03595437, 0, 0.0002529026, 0, 0, 1, 0.2859734, 9
PIDP, 9652077, -0.04908231, -0.01912956, -0.02995275, -0.004043621, 0, 6.492117E-05, 0, 0, 1, 0.1227968, 9
PIDY, 9652081, 0.01023169, 0.004413601, 0.007411956, 0.001334152, 0, 0, 0, 0, 1, 0.003175033, 9
PIDA, 9652084, 0, 0, 0, 0, 0, 0, 0, 0, 0, 0, 0
XKF4, 9651626, 0, 0, 0, 0.01, 0.08, 0, 0.1564667, 0, 0, 0, 50, 67751, 0, 0
XKF1, 9651626, 0, -3.6, 0.6, 331.09, 0.02220597, -0.283685, 0.4704778, 0.2611926, 0, 0, 0.4591748, -0.01, 0, -0.23, 0
XKF2, 9651626, 0, 0, 0, 0.01, 0, 0, 934, 0, 372, 0, 0, 0, 0, 0, 0
XKF3, 9651626, 0, 0, 0, 0, 0, -0.19, 0.39, 0, 0, 0, -7.19, 0, 0, 0
XKF5, 9651626, 0, 0, 0, 0, 0, 0.05, 0.44, 0, 0, 0.5, 0.006495414, 0.01521593, 0.01398048
XKFS, 9651626, 0, 0, 0, 0, 0, 0, 0, 0, 1
XKQ, 9651626, 0, 0.9678928, -0.02917889, 0.0129682, -0.2493271
XKF4, 9651626, 1, 0, 0, 0, 0.08, 0, 0.1537987, 0, 0, 0, 50, 67751, 0, 0
XKF1, 9651626, 1, -3.21, 1.74, 331.19, -0.1168505, -0.05370533, 0.1779495, 0.08325684, 0, 0, 0.1759088, 0, 0.01, -0.24, 0
XKF2, 9651626, 1, 0, 0, 0, 0, 0, 934, 0, 371, 0, 0, 0, 0, 0, 0
XKF3, 9651626, 1, 0, 0, 0, -0.08, -0.04, 0.15, 0, 0, 0, -7.11, 0, 0, 0
XKFS, 9651626, 1, 0, 0, 0, 0, 0, 0, 0, 1
XKQ, 9651626, 1, 0.9681892, -0.02342099, 0.02172707, -0.2481715
AHR2, 9652203, -3.3, 0.81, 328.41, 0, 0, 0, 0.9618933, -0.02581701, 0.01471289, -0.2718056
MOTB, 9652208, 1, 1, 1, 0.0431117, 0, 2
RCIN, 9652214, 1495, 1495, 982, 2006, 982, 2006, 1495, 1495, 982, 1495, 982, 982, 1495, 1495
RCI2, 9652218, 1495, 1495, 0, 1
RCOU, 9652224, 1000, 1000, 1000, 1000, 0, 0, 0, 0, 1495, 0, 0, 0, 0, 0
RCO2, 9652228, 0, 0, 0, 0
VIBE, 9652232, 0, 0.08961097, 0.07328733, 0.08517454, 0
VIBE, 9652232, 1, 0.1291931, 0.1130776, 0.1212067, 0
CTRL, 9652240, 0.0386312, 0.002144111, 0.006732958, 0.0008603791, 0.00149429
DCM, 9654114, -3.30369, 0.8156958, 328.4203, 0.009907899, 0.1155106, 0, 0, 0
EAHR, 9654131, 0, 0, 0, 0, 0, 0, 0, 0, 0, 0
FILE, @ROMFS/hwdef.dat, 384, 64,  SWD\nPA14 JTCK-SWCLK SWD\nPE8  UART7_TX UART7\nPE7  UART7_RX UART7
IMU, 9671870, 0, 0.002288988, -0.01176415, -0.0009318325, 0.2053583, 0.4180906, -9.604533, 0, 0, 42.3913, 1, 1, 2023, 2023
IMU, 9671870, 1, 0.00539632, 0.0003334104, 0.0004719702, 0.2063135, 0.451254, -9.697408, 0, 0, 42, 1, 1, 2007, 2029
FILE, @ROMFS/hwdef.dat, 448, 64, \nPE9  UART7_RTS UART7 LOW PULLDOWN\nPE10 UART7_CTS UART7\nPC12 UAR
FILE, @ROMFS/hwdef.dat, 512, 64, T5_TX UART5\nPD2 UART5_RX UART5\nPC8 UART5_RTS UART5 LOW PULLDOWN\n
FILE, @ROMFS/hwdef.dat, 576, 64, PC9 UART5_CTS UART5\nPB6  USART1_TX USART1\nPA10 USART1_RX USART1\n
SURF, 9701796, 0, 2, 0, 0, -0.2648577
SURF, 9701806, 1, 2, 0, 0, -0.2648577
FILE, @ROMFS/hwdef.dat, 640, 64, PE1 UART8_TX UART8\nPE0 UART8_RX UART8\nPD5 USART2_TX USART2\nPA3 U
IMU, 9712097, 0, -0.02206658, -0.002977702, -0.002076003, 0.2567124, 0.4413216, -9.658039, 0, 0, 41.90821, 1, 1, 2023, 2023
IMU, 9712097, 1, -0.01830408, 0.006357929, -0.0009207244, 0.2645854, 0.4772413, -9.743856, 0, 0, 42, 1, 1, 2007, 2029
STAK, 9720485, 3, 60, 752, 480, OTG1
FILE, @ROMFS/hwdef.dat, 704, 64, SART2_RX USART2\nPD8 USART3_TX USART3\nPD9 USART3_RX USART3\nPC6 US
FILE, @ROMFS/hwdef.dat, 768, 64, ART6_TX USART6\nPC7 USART6_RX USART6\nIOMCU_UART USART6\nPC5 BATT_V
FILE, @ROMFS/hwdef.dat, 832, 64, OLTAGE_SENS ADC1 SCALE(1)\nPC4 BATT_CURRENT_SENS ADC1 SCALE(1)\nPB
POWR, 9751835, 4.920291, 0, 1, 1, 6
MCU, 9751835, 36.52087, 3.348535, 3.340814, 3.355303
BAT, 9751848, 0, 15.93417, 16.30871, 0.6300029, 1.151852, 0.01845006, 0, 0.5945126, 99, 1, 0
MAG, 9751860, 0, 752, 298, 113, -382, 367, 647, 0, 0, 0, 1, 9751859
MAG, 9751860, 1, -31, 450, 196, 59, 22, -40, 0, 0, 0, 1, 9751857
SURF, 9751878, 0, 2, 0, 0, -0.2750195
SURF, 9751887, 1, 2, 0, 0, -0.2750195
BARO, 9751906, 0, 0.06463623, 0.06463623, 93548.7, 36.38, -0.02365113, 9751, 0, 35, 1
CTUN, 9751914, 0, 0, 0, 0.431117, 0, -0.4856, 0.06, NaN, 0, NaN, 0, -47
ATT, 9752032, 0.0001667372, -3.688442, -0.0003035711, 0.5960521, 331.4164, 331.4164, 3
ANG, 9751471, 0.0001667372, -3.688442, -0.0003035711, 0.5960521, 331.4164, 331.4164, 0.0025
RATE, 9751486, 16.58981, -1.350926, 0.04270138, -2.726542, -0.1504443, -0.005910637, 0.5872939, 0.274806, 0.001215689, 0, -11.88269, 0, 0
PIDR, 9752049, 0.2886169, -0.02357811, 0.312195, 0.04214633, 0, 0.0005550496, 0, 0, 1, 0.3075215, 9
PIDP, 9752053, -0.04752708, -0.002625749, -0.04490133, -0.00606168, 0, 0.0001510426, 0, 0, 1, 0.1320423, 9
PIDY, 9752057, 0.01025699, 0.00479627, 0.00675383, 0.001215689, 0, 0, 0, 0, 1, 0.003270267, 9
PIDA, 9752061, 0, 0, 0, 0, 0, 0, 0, 0, 0, 0, 0
XKF4, 9751573, 0, 0, 0, 0.01, 0.09, 0, 0.1604366, 0, 0, 0, 50, 67751, 0, 0
XKF1, 9751573, 0, -3.68, 0.59, 331.41, 0.02666613, -0.3002711, 0.4752541, 0.2512589, 0, 0, 0.4856, -0.01, 0, -0.3, 0
XKF2, 9751573, 0, 0, 0, 0.01, 0, 0, 934, 0, 372, 0, 0, 0, 0, 0, 0
XKF3, 9751573, 0, 0, 0, 0, 0, -0.21, 0.38, 0, 0, 0, -8.79, 0, 0, 0
XKF5, 9751573, 0, 0, 0, 0, 0, 0.05, 0.47, 0, 0, 0.5, 0.01260456, 0.01763368, 0.01832615
XKFS, 9751573, 0, 0, 0, 0, 0, 0, 0, 0, 1
XKQ, 9751573, 0, 0.9685773, -0.02990236, 0.01298232, -0.2465671
XKF4, 9751573, 1, 0, 0, 0, 0.09, 0, 0.1580124, 0, 0, 0, 50, 67751, 0, 0
XKF1, 9751573, 1, -3.28, 1.77, 331.5, -0.1239766, -0.05552826, 0.1783025, 0.08461565, 0, 0, 0.1854534, -0.01, 0.02, -0.31, 0
XKF2, 9751573, 1, 0, 0, 0, 0, 0, 934, 0, 371, 0, 0, 0, 0, 0, 0
XKF3, 9751573, 1, 0, 0, 0, -0.09, -0.04, 0.12, 0, 0, 0, -8.73, 0, 0, 0
XKFS, 9751573, 1, 0, 0, 0, 0, 0, 0, 0, 1
XKQ, 9751573, 1, 0.968841, -0.02392397, 0.02207737, -0.2455348
AHR2, 9752137, -3.39, 0.81, 328.53, -0.03, 0, 0, 0.9621485, -0.02658173, 0.01483127, -0.2708203
MOTB, 9752142, 1, 1, 1, 0.0431117, 0, 2
RCIN, 9752148, 1495, 1495, 982, 1890, 982, 2006, 1495, 1495, 982, 1495, 982, 982, 1495, 1495
RCI2, 9752151, 1495, 1495, 0, 1
RCOU, 9752158, 1000, 1000, 1000, 1000, 0, 0, 0, 0, 1495, 0, 0, 0, 0, 0
RCO2, 9752161, 0, 0, 0, 0
VIBE, 9752166, 0, 0.05604329, 0.04179313, 0.05143439, 0
VIBE, 9752166, 1, 0.09034222, 0.08144014, 0.09144542, 0
CTRL, 9752174, 0.03924586, 0.002112916, 0.006409054, 0.0008159785, 0.001427089
IMU, 9752184, 0, -0.02390893, -0.002553352, -0.0006094821, 0.2819664, 0.450844, -9.662267, 0, 0, 41.90821, 1, 1, 2023, 2023
IMU, 9752184, 1, -0.02073094, 0.008391429, -0.0005217621, 0.2791488, 0.4694529, -9.758129, 0, 0, 42, 1, 1, 2007, 2029
DCM, 9754108, -3.396619, 0.8097335, 328.5369, 0.009907899, 0.1251701, 0, 0, 0
EAHR, 9754125, 0, 0, 0, 0, 0, 0, 0, 0, 0, 0
FILE, @ROMFS/hwdef.dat, 896, 64, 1 BATT2_VOLTAGE_SENS ADC1 SCALE(1)\nPA2 BATT2_CURRENT_SENS ADC1 S
FILE, @ROMFS/hwdef.dat, 960, 64, CALE(1)\ndefine HAL_BATT_VOLT_PIN 8\ndefine HAL_BATT_CURR_PIN 4\nde
FILE, @ROMFS/hwdef.dat, 1024, 64, fine HAL_BATT_VOLT_SCALE 18.18\ndefine HAL_BATT_CURR_SCALE 36.36\n
FILE, @ROMFS/hwdef.dat, 1088, 64, PA4 VDD_5V_SENS  ADC1 SCALE(2)\nPA5 SPI1_SCK SPI1\nPA6 SPI1_MISO S
IMU, 9792358, 0, -0.0237392, -0.0037912, -0.001258423, 0.2549912, 0.4443028, -9.656815, 0, 0, 41.90821, 1, 1, 2023, 2023
IMU, 9792358, 1, -0.01924416, 0.007197455, 0.0005380466, 0.2788778, 0.4890854, -9.760182, 0, 0, 42, 1, 1, 2007, 2029
FILE, @ROMFS/hwdef.dat, 1152, 64, PI1\nPA7 SPI1_MOSI SPI1\nPC13 ICM42688_CS CS\nPC14 BMI055_G_CS CS\nP
SURF, 9801812, 0, 2, 0, 0, -0.2853022
SURF, 9801821, 1, 2, 0, 0, -0.2853022
FILE, @ROMFS/hwdef.dat, 1216, 64, C15 BMI055_A_CS CS\nPE4  BMI055_DRDY_A INPUT\nPE5  BMI055_DRDY_G I
STAK, 9820607, 4, 183, 1456, 1096, monitor
FILE, @ROMFS/hwdef.dat, 1280, 64, NPUT\nPE6  ICM42688_DRDY INPUT\nPD3 SPI2_SCK SPI2\nPC2 SPI2_MISO SP
IMU, 9831909, 0, -0.009794461, -0.01026176, -0.002222767, 0.2394962, 0.452702, -9.632096, 0, 0, 42.3913, 1, 1, 2023, 2023
IMU, 9831909, 1, -0.005743354, 0.002794789, -0.001164293, 0.2503036, 0.4959402, -9.736191, 0, 0, 42, 1, 1, 2007, 2029
FILE, @ROMFS/hwdef.dat, 1344, 64, I2\nPC3 SPI2_MOSI SPI2\nPD4 FRAM_CS CS\nPA8  TIM1_CH1 TIM1 PWM(1) G
FILE, @ROMFS/hwdef.dat, 1408, 64, PIO(50)\nPE11 TIM1_CH2 TIM1 PWM(2) GPIO(51)\nPE13 TIM1_CH3 TIM1 PW
POWR, 9851849, 4.922204, 0, 1, 1, 6
MCU, 9851849, 36.58052, 3.348535, 3.341094, 3.354173
BAT, 9851918, 0, 15.93536, 16.30185, 0.6164545, 1.168989, 0.01872314, 0, 0.5945126, 99, 1, 0
MAG, 9851941, 0, 952, 463, 167, -382, 367, 647, 0, 0, 0, 1, 9851940
MAG, 9851941, 1, -25, 450, 197, 59, 22, -40, 0, 0, 0, 1, 9851938
SURF, 9851960, 0, 2, 0, 0, -0.295724
SURF, 9851969, 1, 2, 0, 0, -0.295724
BARO, 9851988, 0, 0.0145874, 0.0145874, 93549.29, 36.38, -0.2131462, 9851, 0, 35, 1
CTUN, 9851995, 0, 0, 0, 0.431117, 0, -0.5097666, 0.01, NaN, 0, NaN, 0, -47
ATT, 9852040, 0.0001667372, -3.764948, -0.0003035711, 0.5812715, 331.8317, 331.8317, 3
ANG, 9851471, 0.0001667372, -3.764948, -0.0003035711, 0.5812715, 331.8317, 331.8317, 0.002499
RATE, 9851484, 16.93436, -0.4679227, 0.04078959, -2.660951, -0.5177459, -0.005196142, 0.5873764, 0.3287176, 0.001078057, 0, -11.99408, 0, 0
PIDR, 9852057, 0.2953384, -0.008166792, 0.3035052, 0.04097321, 0, -0.0001836163, 0, 0, 1, 0.3263638, 9
PIDP, 9852061, -0.04669409, -0.009036371, -0.03765772, -0.005083792, 0, -0.0001123501, 0, 0, 1, 0.139608, 9
PIDY, 9852065, 0.01024862, 0.005737205, 0.005989205, 0.001078057, 0, 0, 0, 0, 1, 0.003343141, 9
PIDA, 9852069, 0, 0, 0, 0, 0, 0, 0, 0, 0, 0, 0
XKF4, 9851643, 0, 0, 0, 0.02, 0.06, 0, 0.1641684, 0, 0, 0, 50, 67751, 0, 0
XKF1, 9851643, 0, -3.76, 0.58, 331.83, 0.03156982, -0.3153737, 0.478236, 0.2332293, 0, 0, 0.5097666, -0.02, 0, -0.36, 0
XKF2, 9851643, 0, 0, 0, 0.01, 0, 0, 934, 0, 372, 0, 0, 0, 0, 0, 0
XKF3, 9851643, 0, 0, 0, 0, 0, -0.23, 0.5, 0, 0, 0, -6.13, 0, 0, 0
XKF5, 9851643, 0, 0, 0, 0, 0, 0.05, 0.49, 0, 0, 0.5, 0.01297167, 0.02155353, 0.02646154
XKFS, 9851643, 0, 0, 0, 0, 0, 0, 0, 0, 1
XKQ, 9851643, 0, 0.969444, -0.03062786, 0.01291109, -0.2430505
XKF4, 9851643, 1, 0, 0, 0.01, 0.06, 0, 0.1619931, 0, 0, 0, 50, 67751, 0, 0
XKF1, 9851643, 1, -3.33, 1.81, 331.91, -0.1298689, -0.05597055, 0.1770877, 0.0761322, 0, 0, 0.1933923, -0.01, 0.02, -0.36, 0
XKF2, 9851643, 1, 0, 0, 0, 0, 0, 934, 0, 371, 0, 0, 0, 0, 0, 0
XKF3, 9851643, 1, 0, 0, 0, -0.1, -0.04, 0.23, 0, 0, 0, -6.1, 0, 0, 0
XKFS, 9851643, 1, 0, 0, 0, 0, 0, 0, 0, 1
XKQ, 9851643, 1, 0.9697034, -0.02442182, 0.02238943, -0.2420282
AHR2, 9852191, -3.48, 0.79, 328.62, 0.06, 0, 0, 0.9623455, -0.02738816, 0.0148667, -0.2700372
MOTB, 9852196, 1, 1, 1, 0.0431117, 0, 2
RCIN, 9852202, 1495, 1495, 982, 1645, 982, 2006, 1495, 1495, 982, 1495, 982, 982, 1495, 1495
RCI2, 9852205, 1495, 1495, 0, 1
RCOU, 9852212, 1000, 1000, 1000, 1000, 0, 0, 0, 0, 1495, 0, 0, 0, 0, 0
RCO2, 9852215, 0, 0, 0, 0
VIBE, 9852219, 0, 0.04317747, 0.04223398, 0.04138397, 0
VIBE, 9852219, 1, 0.07873997, 0.08035407, 0.08424345, 0
CTRL, 9852228, 0.04018391, 0.001898199, 0.006151492, 0.0007367074, 0.001336996
DCM, 9854100, -3.483986, 0.7912924, 328.6293, 0.01101862, 0.1175938, 0, 0, 0
EAHR, 9854117, 0, 0, 0, 0, 0, 0, 0, 0, 0, 0
FILE, @ROMFS/hwdef.dat, 1472, 64, M(3) GPIO(52)\nPE14 TIM1_CH4 TIM1 PWM(4) GPIO(53)\nPD14 TIM4_CH3 T
FILE, @ROMFS/hwdef.dat, 1536, 64, IM4 PWM(5) GPIO(54)\nPD15 TIM4_CH4 TIM4 PWM(6) GPIO(55)\nPA0  TIM5
IMU, 9871855, 0, -0.006677472, -0.01218676, -4.636106E-05, 0.2842818, 0.4766464, -9.64916, 0, 0, 42.3913, 1, 1, 2023, 2023
IMU, 9871855, 1, -0.002405001, -0.0004175554, 0.001051404, 0.2907227, 0.5071878, -9.762787, 0, 0, 42, 1, 1, 2007, 2029
FILE, @ROMFS/hwdef.dat, 1600, 64, _CH1 TIM5 PWM(7) GPIO(56)\nPA1  TIM5_CH2 TIM5 PWM(8) GPIO(57)\nPD0
FILE, @ROMFS/hwdef.dat, 1664, 64,   CAN1_RX CAN1\nPD1  CAN1_TX CAN1\nPB5  CAN2_RX CAN2\nPB13 CAN2_TX 
SURF, 9901801, 0, 2, 0, 0, -0.3061757
SURF, 9901837, 1, 2, 0, 0, -0.3061757
FILE, @ROMFS/hwdef.dat, 1728, 64, CAN2\nPB7 I2C1_SDA I2C1\nPB8 I2C1_SCL I2C1\nPB10 I2C2_SCL I2C2\nPB11
IMU, 9912096, 0, 0.01203871, -0.01732657, -0.002315602, 0.2546586, 0.4419194, -9.639359, 0, 0, 42.3913, 1, 1, 2023, 2023
IMU, 9912096, 1, 0.01373263, -0.005225688, -0.001358903, 0.2554384, 0.4817371, -9.734742, 0, 0, 42, 1, 1, 2007, 2029
FILE, @ROMFS/hwdef.dat, 1792, 64,  I2C2_SDA I2C2\nPD12 I2C4_SCL I2C4\nPD13 I2C4_SDA I2C4\nI2C_ORDER I
STAK, 9921912, 5, 181, 1968, 1544, timer
FILE, @ROMFS/hwdef.dat, 1856, 64, 2C4 I2C1 I2C2\ndefine HAL_I2C_INTERNAL_MASK 1\nPB9 HEATER_EN OUTPU
FILE, @ROMFS/hwdef.dat, 1920, 64, T LOW GPIO(80)\ndefine HAL_HEATER_GPIO_PIN 80\ndefine HAL_HAVE_IMU
FILE, @ROMFS/hwdef.dat, 1984, 64, _HEATER 1\ndefine HAL_IMU_TEMP_DEFAULT 45\ndefine HAL_IMUHEAT_P_DE
POWR, 9951783, 4.922204, 0, 1, 1, 6
MCU, 9951783, 36.6004, 3.348676, 3.340954, 3.355303
BAT, 9951796, 0, 15.9392, 16.31614, 0.6340308, 1.186581, 0.01900354, 0, 0.5945126, 99, 1, 0
MAG, 9951826, 0, 994, 470, 167, -382, 367, 647, 0, 0, 0, 1, 9951825
MAG, 9951826, 1, -21, 452, 196, 59, 22, -40, 0, 0, 0, 1, 9951823
SURF, 9951849, 0, 2, 0, 0, -0.3167047
SURF, 9951858, 1, 2, 0, 0, -0.3167047
BARO, 9951878, 0, 0.03234863, 0.03234863, 93549.08, 36.39, -0.03234863, 9951, 0, 35, 1
CTUN, 9951885, 0, 0, 0, 0.431117, 0, -0.5318291, 0.03, NaN, 0, NaN, 0, -48
DU32, 9951901, 7, 6349272
ATT, 9952028, 0.0001667372, -3.738424, -0.0003035711, 0.5246136, 332.1607, 332.1607, 3
ANG, 9951471, 0.0001667372, -3.738423, -0.0003035711, 0.5246136, 332.1607, 332.1607, 0.0025
RATE, 9951483, 16.82197, -0.1528032, 0.04063347, -2.361481, -0.7863566, -0.003418174, -0.07693844, 0.3086071, 0.0007677604, 0, -15.38935, 0, 0
PIDR, 9952045, 0.2934953, -0.002666919, 0.2961622, 0.0399819, 0, 0.000651571, 0, 0, 1, 0.3420894, 9
PIDP, 9952049, -0.04178753, -0.01372451, -0.02806302, -0.003788508, 0, 0.0003703339, 0, 0, 1, 0.1452135, 9
PIDY, 9952052, 0.001644541, 0.005386211, 0.004265335, 0.0007677604, 0, 0, 0, 0, 1, 0.003424862, 9
PIDA, 9952056, 0, 0, 0, 0, 0, 0, 0, 0, 0, 0, 0
XKF4, 9951569, 0, 0, 0, 0.02, 0.01, 0, 0.1676223, 0, 0, 0, 50, 67751, 0, 0
XKF1, 9951569, 0, -3.73, 0.52, 332.16, 0.036862, -0.3303087, 0.4804922, 0.2060967, 0, 0, 0.5318291, -0.02, 0, -0.37, 0
XKF2, 9951569, 0, 0, 0, 0.01, 0, 0, 934, 0, 372, 0, 0, 0, 0, 0, 0
XKF3, 9951569, 0, 0, 0, 0, 0, -0.25, 0.47, 0, 0, 0, -1.46, 0, 0, 0
XKF5, 9951569, 0, 0, 0, 0, 0, 0.05, 0.51, 0, 0, 0.5, 0.007563131, 0.02338484, 0.03118457
XKFS, 9951569, 0, 0, 0, 0, 0, 0, 0, 0, 1
XKQ, 9951569, 0, 0.9701433, -0.0305592, 0.01228786, -0.2402854
XKF4, 9951569, 1, 0, 0, 0, 0.01, 0, 0.1657044, 0, 0, 0, 50, 67751, 0, 0
XKF1, 9951569, 1, -3.3, 1.8, 332.25, -0.1353174, -0.05722313, 0.1755489, 0.06248842, 0, 0, 0.2002581, -0.01, 0.02, -0.37, 0
XKF2, 9951569, 1, 0, 0, 0, 0, 0, 934, 0, 371, 0, 0, 0, 0, 0, 0
XKF3, 9951569, 1, 0, 0, 0, -0.11, -0.04, 0.19, 0, 0, 0, -1.46, 0, 0, 0
XKFS, 9951569, 1, 0, 0, 0, 0, 0, 0, 0, 1
XKQ, 9951569, 1, 0.9704275, -0.02419151, 0.02214587, -0.2391545
AHR2, 9952129, -3.47, 0.73, 328.68, 0.01, 0, 0, 0.9624739, -0.02744366, 0.01432206, -0.2696029
MOTB, 9952134, 1, 1, 1, 0.0431117, 0, 2
RCIN, 9952140, 1495, 1495, 982, 1535, 982, 2006, 1495, 1495, 982, 1495, 982, 982, 1495, 1495
RCI2, 9952144, 1495, 1495, 0, 1
RCOU, 9952150, 1000, 1000, 1000, 1000, 0, 0, 0, 0, 1495, 0, 0, 0, 0, 0
RCO2, 9952153, 0, 0, 0, 0
VIBE, 9952158, 0, 0.03767071, 0.03579969, 0.03079873, 0
VIBE, 9952158, 1, 0.07316291, 0.06933191, 0.0798018, 0
CTRL, 9952166, 0.04003298, 0.001744414, 0.005580002, 0.0006888993, 0.001222263
IMU, 9952176, 0, -0.003153494, -0.01368922, -0.001152423, 0.2427547, 0.4330217, -9.624331, 0, 0, 42.3913, 1, 1, 2023, 2023
IMU, 9952176, 1, 0.001518285, -0.0003728565, 9.674481E-05, 0.2570902, 0.4667969, -9.719833, 0, 0, 42, 1, 1, 2007, 2029
UART, 9952219, 1, 21, 0
UART, 9952223, 2, 21, 0
UART, 9952226, 3, 0, 0
UART, 9952230, 100, 8368, 5080
DCM, 9954130, -3.473729, 0.7319233, 328.6818, 0.01101862, 0.1135878, 0, 0, 0
EAHR, 9954147, 0, 0, 0, 0, 0, 0, 0, 0, 0, 0
FILE, @ROMFS/hwdef.dat, 2048, 64, FAULT 50\ndefine HAL_IMUHEAT_I_DEFAULT 0.07\nPB2 VDD_3V3_SENSORS1_
DSF, 9967072, 0, 2050, 90941, 163119, 204726, 183947
FILE, @ROMFS/hwdef.dat, 2112, 64, EN OUTPUT HIGH\nPC10 nVDD_5V_HIPOWER_EN OUTPUT LOW\nPE2  nVDD_5V_P
FILE, @ROMFS/hwdef.dat, 2176, 64, ERIPH_EN  OUTPUT LOW\nPH2 SPEKTRUM_PWR OUTPUT HIGH GPIO(73)\ndefin
IMU, 9992419, 0, -0.04064431, 0.00322973, -0.001242283, 0.2299203, 0.4690152, -9.677704, 0, 0, 42.3913, 1, 1, 2023, 2023
IMU, 9992419, 1, -0.03632209, 0.01587039, 0.0004463491, 0.2299468, 0.534017, -9.773186, 0, 0, 42, 1, 1, 2007, 2029
FILE, @ROMFS/hwdef.dat, 2240, 64, e HAL_GPIO_SPEKTRUM_PWR 73\ndefine HAL_SPEKTRUM_PWR_ENABLED 1\nPE3
SURF, 10001808, 0, 2, 0, 0, -0.3272093
SURF, 10001818, 1, 2, 0, 0, -0.3272093
FILE, @ROMFS/hwdef.dat, 2304, 64,  VDD_5V_PERIPH_nOC INPUT PULLUP\nPC11 VDD_5V_HIPOWER_nOC INPUT PU
FILE, @ROMFS/hwdef.dat, 2368, 64, LLUP\nPA15 VDD_BRICK_nVALID INPUT PULLUP\nPB12 VDD_BRICK2_nVALID I
STAK, 10022466, 6, 181, 944, 656, rcout
FILE, @ROMFS/hwdef.dat, 2432, 64, NPUT PULLUP\nPD6  SDMMC2_CK SDMMC2\nPD7  SDMMC2_CMD SDMMC2\nPB14 SD
IMU, 10031939, 0, -0.01014258, -0.008994905, -0.002349104, 0.2926175, 0.47413, -9.642905, 0, 0, 42.3913, 1, 1, 2023, 2023
IMU, 10031939, 1, -0.007346655, 0.003109872, -0.001113657, 0.2959736, 0.5181485, -9.756606, 0, 0, 42, 1, 1, 2007, 2029
FILE, @ROMFS/hwdef.dat, 2496, 64, MMC2_D0 SDMMC2\nPB15 SDMMC2_D1 SDMMC2\nPB3  SDMMC2_D2 SDMMC2\nPB4  
POWR, 10051827, 4.922104, 0, 1, 1, 6
MCU, 10051827, 36.58052, 3.348676, 3.341374, 3.356858
BAT, 10051840, 0, 15.9381, 16.29719, 0.6040045, 1.203367, 0.01927109, 0, 0.5945126, 99, 1, 0
MAG, 10051877, 0, 827, 312, 175, -382, 367, 647, 0, 0, 0, 1, 10051850
MAG, 10051877, 1, -28, 450, 196, 59, 22, -40, 0, 0, 0, 1, 10051849
SURF, 10051919, 0, 2, 0, 0, -0.3377283
