FMT, 128, 89, FMT, BBnNZ, Type,Length,Name,Format,Columns
FMT, 119, 76, UNIT, QbZ, TimeUS,Id,Label
FMT, 118, 44, FMTU, QBNN, TimeUS,FmtType,UnitIds,MultIds
FMT, 120, 20, MULT, Qbd, TimeUS,Id,Mult
FMT, 32, 35, PARM, QNff, TimeUS,Name,Value,Default
FMT, 94, 51, GPS, QBBIHBcLLeffffB, TimeUS,I,Status,GMS,GWk,NSats,HDop,Lat,Lng,Alt,Spd,GCrs,VZ,Yaw,U
FMT, 95, 39, GPA, QBCCCCfBIHeHH, TimeUS,I,VDop,HAcc,VAcc,SAcc,YAcc,VV,SMS,Delta,AEl,RTCMFU,RTCMFD
FMT, 99, 22, UBX1, QBHBBHI, TimeUS,Instance,noisePerMS,jamInd,aPower,agcCnt,config
FMT, 100, 16, UBX2, QBbBbB, TimeUS,Instance,ofsI,magI,ofsQ,magQ
FMT, 96, 42, GRAW, QIHBBddfBbB, TimeUS,WkMS,Week,numSV,sv,cpMes,prMes,doMes,mesQI,cno,lli
FMT, 97, 24, GRXH, QdHbBB, TimeUS,rcvTime,week,leapS,numMeas,recStat
FMT, 98, 41, GRXS, QddfBBBHBBBBB, TimeUS,prMes,cpMes,doMes,gnss,sv,freq,lock,cno,prD,cpD,doD,trk
FMT, 101, 23, SBPH, QIII, TimeUS,CrcError,LastInject,IARhyp
FMT, 102, 67, SBRH, QQQQQQQQ, TimeUS,msg_flag,1,2,3,4,5,6
FMT, 103, 123, SBRM, QQQQQQQQQQQQQQQ, TimeUS,msg_flag,1,2,3,4,5,6,7,8,9,10,11,12,13
FMT, 104, 23, SBRE, QHIiBB, TimeUS,GWk,GMS,ns_residual,level,quality
FMT, 59, 75, MSG, QZ, TimeUS,Message
FMT, 60, 39, RCIN, QHHHHHHHHHHHHHH, TimeUS,C1,C2,C3,C4,C5,C6,C7,C8,C9,C10,C11,C12,C13,C14
FMT, 61, 18, RCI2, QHHHB, TimeUS,C15,C16,OMask,Flags
FMT, 62, 39, RCOU, QHHHHHHHHHHHHHH, TimeUS,C1,C2,C3,C4,C5,C6,C7,C8,C9,C10,C11,C12,C13,C14
FMT, 207, 19, RCO2, QHHHH, TimeUS,C15,C16,C17,C18
FMT, 208, 39, RCO3, QHHHHHHHHHHHHHH, TimeUS,C19,C20,C21,C22,C23,C24,C25,C26,C27,C28,C29,C30,C31,C32
FMT, 63, 19, RSSI, Qff, TimeUS,RXRSSI,RXLQ
FMT, 64, 43, BARO, QBfffcfIffB, TimeUS,I,Alt,AltAMSL,Press,Temp,CRt,SMS,Offset,GndTemp,Health
FMT, 65, 24, BARD, QBfff, TimeUS,I,DynPrX,DynPrY,DynPrZ
FMT, 66, 25, CANF, QBIBBBBBBBBB, TimeUS,Bus,Id,DLC,B0,B1,B2,B3,B4,B5,B6,B7
FMT, 67, 81, CAFD, QBIBQQQQQQQQ, TimeUS,Bus,Id,DLC,D0,D1,D2,D3,D4,D5,D6,D7
FMT, 196, 50, PL, QBBfffffffIIB, TimeUS,Heal,TAcq,pX,pY,vX,vY,mX,mY,mZ,LastMeasMS,EKFOutl,Est
FMT, 68, 24, POWR, QffHHB, TimeUS,Vcc,VServo,Flags,AccFlags,Safety
FMT, 69, 27, MCU, Qffff, TimeUS,MTemp,MVolt,MVmin,MVmax
FMT, 93, 46, CMD, QHHHffffLLfB, TimeUS,CTot,CNum,CId,Prm1,Prm2,Prm3,Prm4,Lat,Lng,Alt,Frame
FMT, 92, 46, MISE, QHHHffffLLfB, TimeUS,CTot,CNum,CId,Prm1,Prm2,Prm3,Prm4,Lat,Lng,Alt,Frame
FMT, 78, 48, MAVC, QBBBBBHffffiifBB, TimeUS,TS,TC,SS,SC,Fr,Cmd,P1,P2,P3,P4,X,Y,Z,Res,WL
FMT, 79, 20, RAD, QBBBBBHH, TimeUS,RSSI,RemRSSI,TxBuf,Noise,RemNoise,RxErrors,Fixed
FMT, 81, 46, CAM, QBHIHLLeeeccC, TimeUS,I,Img,GPSTime,GPSWeek,Lat,Lng,Alt,RelAlt,GPSAlt,R,P,Y
FMT, 82, 46, TRIG, QBHIHLLeeeccC, TimeUS,I,Img,GPSTime,GPSWeek,Lat,Lng,Alt,RelAlt,GPSAlt,R,P,Y
FMT, 83, 48, MNT, QBfffffffff, TimeUS,I,DRoll,Roll,DPitch,Pitch,DYawB,YawB,DYawE,YawE,Dist
FMT, 114, 41, ARSP, QBffcffBBffB, TimeUS,I,Airspeed,DiffPress,Temp,RawPress,Offset,U,H,Hp,TR,Pri
FMT, 88, 41, BAT, QBfffffcfBBB, TimeUS,Inst,Volt,VoltR,Curr,CurrTot,EnrgTot,Temp,Res,RemPct,H,SH
FMT, 89, 40, BCL, QBfHHHHHHHHHHHH, TimeUS,Instance,Volt,V1,V2,V3,V4,V5,V6,V7,V8,V9,V10,V11,V12
FMT, 113, 35, MAG, QBhhhhhhhhhBI, TimeUS,I,MagX,MagY,MagZ,OfsX,OfsY,OfsZ,MOX,MOY,MOZ,Health,S
FMT, 122, 14, MODE, QMBB, TimeUS,Mode,ModeNum,Rsn
FMT, 116, 17, RFND, QBCBBb, TimeUS,Instance,Dist,Stat,Orient,Quality
FMT, 117, 36, DMS, QIIIIBBBBBBBBB, TimeUS,N,Dp,RT,RS,Fa,Fmn,Fmx,Pa,Pmn,Pmx,Sa,Smn,Smx
FMT, 174, 41, BCN, QBBfffffff, TimeUS,Health,Cnt,D0,D1,D2,D3,PosX,PosY,PosZ
FMT, 175, 57, PRX, QBBfffffffffff, TimeUS,Layer,He,D0,D45,D90,D135,D180,D225,D270,D315,DUp,CAn,CDis
FMT, 176, 44, PRXR, QBffffffff, TimeUS,Layer,D0,D45,D90,D135,D180,D225,D270,D315
FMT, 179, 61, PM, QHHHIIHHIIIIIIQ, TimeUS,LR,NLon,NL,MaxT,Mem,Load,ErrL,InE,ErC,SPIC,I2CC,I2CI,Ex,R
FMT, 178, 29, SRTL, QBHHBfff, TimeUS,Active,NumPts,MaxPts,Action,N,E,D
FMT, 170, 48, OABR, QBBHHHBfLLiLLi, TimeUS,Type,Act,DYaw,Yaw,DP,RChg,Mar,DLt,DLg,DAlt,OLt,OLg,OAlt
FMT, 171, 31, OADJ, QBBBBLLLL, TimeUS,State,Err,CurrPoint,TotPoints,DLat,DLng,OALat,OALng
FMT, 172, 37, SA, QBffffffB, TimeUS,State,DVelX,DVelY,DVelZ,MVelX,MVelY,MVelZ,Back
FMT, 173, 21, OAVG, QBBLL, TimeUS,version,point_num,Lat,Lon
FMT, 77, 45, SIM, QccCfLLffff, TimeUS,Roll,Pitch,Yaw,Alt,Lat,Lng,Q1,Q2,Q3,Q4
FMT, 84, 38, TERR, QBLLHffHHf, TimeUS,Status,Lat,Lng,Spacing,TerrH,CHeight,Pending,Loaded,ROfs
FMT, 86, 40, ESC, QBffffcfcf, TimeUS,Instance,RPM,RawRPM,Volt,Curr,Temp,CTot,MotTemp,Err
FMT, 87, 15, EDT2, QBBBB, TimeUS,Instance,Stress,MaxStress,Status
FMT, 85, 46, CSRV, QBfffBfffffB, TimeUS,Id,Pos,Force,Speed,Pow,PosCmd,V,A,MotT,PCBT,Err
FMT, 105, 52, PIDR, QffffffffffB, TimeUS,Tar,Act,Err,P,I,D,FF,DFF,Dmod,SRate,Flags
FMT, 106, 52, PIDP, QffffffffffB, TimeUS,Tar,Act,Err,P,I,D,FF,DFF,Dmod,SRate,Flags
FMT, 107, 52, PIDY, QffffffffffB, TimeUS,Tar,Act,Err,P,I,D,FF,DFF,Dmod,SRate,Flags
FMT, 108, 52, PIDA, QffffffffffB, TimeUS,Tar,Act,Err,P,I,D,FF,DFF,Dmod,SRate,Flags
FMT, 109, 52, PIDS, QffffffffffB, TimeUS,Tar,Act,Err,P,I,D,FF,DFF,Dmod,SRate,Flags
FMT, 110, 52, PIDN, QffffffffffB, TimeUS,Tar,Act,Err,P,I,D,FF,DFF,Dmod,SRate,Flags
FMT, 111, 52, PIDE, QffffffffffB, TimeUS,Tar,Act,Err,P,I,D,FF,DFF,Dmod,SRate,Flags
FMT, 112, 56, DSTL, QBfLLeccfeffff, TimeUS,Stg,THdg,Lat,Lng,Alt,XT,Travel,L1I,Loiter,Des,P,I,D
FMT, 161, 32, ACC, QBQfff, TimeUS,I,SampleUS,AccX,AccY,AccZ
FMT, 162, 32, GYR, QBQfff, TimeUS,I,SampleUS,GyrX,GyrY,GyrZ
FMT, 163, 54, IMU, QBffffffIIfBBHH, TimeUS,I,GyrX,GyrY,GyrZ,AccX,AccY,AccZ,EG,EA,T,GH,AH,GHz,AHz
FMT, 166, 28, VIBE, QBfffI, TimeUS,IMU,VibeX,VibeY,VibeZ,Clip
FMT, 164, 31, ISBH, QHBBHHQf, TimeUS,N,type,instance,mul,smp_cnt,SampleUS,smp_rate
FMT, 165, 207, ISBD, QHHaaa, TimeUS,N,seqno,x,y,z
FMT, 129, 15, RFRH, QI, TimeUS,TF
FMT, 130, 5, RFRF, BB, FTypes,Slow
FMT, 138, 38, RFRN, IIIfIfffBBB, HLat,HLon,HAlt,E2T,AM,TX,TY,TZ,VC,EKT,Flags
FMT, 131, 4, REV2, B, Event
FMT, 132, 15, RSO2, III, Lat,Lon,Alt
FMT, 133, 11, RWA2, ff, Airspeed,uncertainty
FMT, 134, 4, REV3, B, Event
FMT, 135, 15, RSO3, III, Lat,Lon,Alt
FMT, 136, 11, RWA3, ff, Airspeed,Uncertainty
FMT, 137, 16, REY3, ffIB, yawangle,yawangleerr,timestamp_ms,type
FMT, 139, 13, RISH, HBBfBB, LR,PG,PA,LD,AC,GC
FMT, 140, 37, RISI, ffffffffBB, DVX,DVY,DVZ,DAX,DAY,DAZ,DVDT,DADT,Flags,I
FMT, 148, 5, RASH, BB, Primary,NumInst
FMT, 149, 14, RASI, fIBBB, pd,UpdateMS,H,Use,I
FMT, 141, 5, RBRH, BB, Primary,NumInst
FMT, 142, 13, RBRI, IfBB, LastUpdate,Alt,H,I
FMT, 143, 8, RRNH, hhB, GCl,MaxD,NumSensors
FMT, 144, 20, RRNI, fffHBBB, PX,PY,PZ,Dist,Orient,Status,I
FMT, 145, 5, RGPH, BB, NumInst,Primary
FMT, 146, 23, RGPI, ffffBBBB, OX,OY,OZ,Lg,Flags,Stat,NSats,I
FMT, 147, 58, RGPJ, IffffffIiiiffHB, TS,VX,VY,VZ,SA,Y,YA,YT,Lat,Lon,Alt,HA,VA,HD,I
FMT, 153, 14, RMGH, fBBBBBBB, Dec,Avail,NumInst,AutoDec,NumEna,LOE,C,FUsable
FMT, 154, 35, RMGI, IffffffBBBB, LU,OX,OY,OZ,FX,FY,FZ,UFY,H,HSF,I
FMT, 150, 33, RBCH, ffffiiiBB, PX,PY,PZ,AE,OLat,OLng,OAlt,Flags,NumInst
FMT, 151, 25, RBCI, IffffBB, LU,PX,PY,PZ,Dist,H,I
FMT, 152, 21, RVOH, fffIBB, OX,OY,OZ,Del,H,Ena
FMT, 155, 40, ROFH, ffffIffffB, FX,FY,GX,GY,Tms,PX,PY,PZ,HgtOvr,Qual
FMT, 156, 49, REPH, fffffffffIIH, PX,PY,PZ,Q1,Q2,Q3,Q4,PEr,AEr,TS,RT,D
FMT, 157, 19, RSLL, IIfI, Lat,Lng,PosAccSD,TS
FMT, 158, 25, REVH, ffffIH, VX,VY,VZ,Er,TS,D
FMT, 159, 31, RWOH, ffIffff, DA,DT,TS,PX,PY,PZ,R
FMT, 160, 53, RBOH, ffffffffIfffH, Q,DPX,DPY,DPZ,DAX,DAY,DAZ,DT,TS,OX,OY,OZ,D
FMT, 43, 37, XKF0, QBBccCCcccccccc, TimeUS,C,ID,rng,innov,SIV,TR,BPN,BPE,BPD,OFH,OFL,OFN,OFE,OFD
FMT, 44, 56, XKF1, QBccCfffffffccce, TimeUS,C,Roll,Pitch,Yaw,VN,VE,VD,dPD,PN,PE,PD,GX,GY,GZ,OH
FMT, 45, 46, XKF2, QBccccchhhhhhfff, TimeUS,C,AX,AY,AZ,VWN,VWE,MN,ME,MD,MX,MY,MZ,IDX,IDY,IS
FMT, 46, 42, XKF3, QBcccccchhhccff, TimeUS,C,IVN,IVE,IVD,IPN,IPE,IPD,IMX,IMY,IMZ,IYAW,IVT,RErr,ErSc
FMT, 47, 44, XKF4, QBcccccfffHBIHb, TimeUS,C,SV,SP,SH,SM,SVT,errRP,OFN,OFE,FS,TS,SS,GPS,PI
FMT, 48, 41, XKF5, QBBhhhcccCCfff, TimeUS,C,NI,FIX,FIY,AFI,HAGL,offset,RI,rng,Herr,eAng,eVel,ePos
FMT, 49, 36, XKFD, QBffffff, TimeUS,C,IX,IY,IZ,IVX,IVY,IVZ
FMT, 50, 29, XKFM, QBBffff, TimeUS,C,OGNM,GLR,ALR,GDR,ADR
FMT, 51, 20, XKFS, QBBBBBBBBB, TimeUS,C,MI,BI,GI,AI,SS,GPS_GTA,GPS_CHK_WAIT,MAG_FUSION
FMT, 52, 28, XKQ, QBffff, TimeUS,C,Q1,Q2,Q3,Q4
FMT, 53, 48, XKT, QBIffffffff, TimeUS,C,Cnt,IMUMin,IMUMax,EKFMin,EKFMax,AngMin,AngMax,VMin,VMax
FMT, 54, 20, XKTV, QBff, TimeUS,C,TVS,TVD
FMT, 55, 60, XKV1, QBffffffffffff, TimeUS,C,V00,V01,V02,V03,V04,V05,V06,V07,V08,V09,V10,V11
FMT, 56, 60, XKV2, QBffffffffffff, TimeUS,C,V12,V13,V14,V15,V16,V17,V18,V19,V20,V21,V22,V23
FMT, 57, 60, XKY0, QBffffffffffff, TimeUS,C,YC,YCS,Y0,Y1,Y2,Y3,Y4,W0,W1,W2,W3,W4
FMT, 58, 52, XKY1, QBffffffffff, TimeUS,C,IVN0,IVN1,IVN2,IVN3,IVN4,IVE0,IVE1,IVE2,IVE3,IVE4
FMT, 41, 60, NKY0, QBffffffffffff, TimeUS,C,YC,YCS,Y0,Y1,Y2,Y3,Y4,W0,W1,W2,W3,W4
FMT, 42, 52, NKY1, QBffffffffff, TimeUS,C,IVN0,IVN1,IVN2,IVN3,IVN4,IVE0,IVE1,IVE2,IVE3,IVE4
FMT, 70, 45, AHR2, QccCfLLffff, TimeUS,Roll,Pitch,Yaw,Alt,Lat,Lng,Q1,Q2,Q3,Q4
FMT, 71, 19, AOA, Qff, TimeUS,AOA,SSA
FMT, 72, 36, ATT, QffffffB, TimeUS,DesRoll,Roll,DesPitch,Pitch,DesYaw,Yaw,AEKF
FMT, 73, 24, ORGN, QBLLe, TimeUS,Type,Lat,Lng,Alt
FMT, 74, 31, POS, QLLfff, TimeUS,Lat,Lng,Alt,RelHomeAlt,RelOriginAlt
FMT, 76, 35, ATSC, Qffffff, TimeUS,AngPScX,AngPScY,AngPScZ,PDScX,PDScY,PDScZ
FMT, 204, 51, VSTB, Qffffffffff, TimeUS,GyrX,GyrY,GyrZ,AccX,AccY,AccZ,Q1,Q2,Q3,Q4
FMT, 90, 38, MON, QIbIHHHHHII, TimeUS,Dly,Tsk,IErr,IErrCnt,IErrLn,MM,MC,SmLn,SPICnt,I2CCnt
FMT, 91, 47, WDOG, QbIHHHHHHHIBIIn, TimeUS,Tsk,IE,IEC,IEL,MvMsg,MvCmd,SmLn,FL,FT,FA,FP,ICSR,LR,TN
FMT, 210, 20, UART, QBff, TimeUS,I,Tx,Rx
FMT, 115, 21, RPM, QBffB, TimeUS,I,RPM,Qual,H
FMT, 209, 27, FNCE, QBBBLLBf, TimeUS,Tot,Seq,Type,Lat,Lng,Count,Radius
FMT, 177, 33, DSF, QIHIIII, TimeUS,Dp,Blk,Bytes,FMn,FMx,FAv
FMT, 121, 24, RALY, QBBLLhB, TimeUS,Tot,Seq,Lat,Lng,Alt,Flags
FMT, 183, 23, MAV, QBHHHBHH, TimeUS,chan,txp,rxp,rxdp,flags,ss,tf
FMT, 167, 43, VISO, Qffffffff, TimeUS,dt,AngDX,AngDY,AngDZ,PosDX,PosDY,PosDZ,conf
FMT, 168, 58, VISP, QQIffffffffBBb, TimeUS,RTimeUS,CTimeMS,PX,PY,PZ,R,P,Y,PErr,AErr,Rst,Ign,Q
FMT, 169, 42, VISV, QQIffffBBb, TimeUS,RTimeUS,CTimeMS,VX,VY,VZ,VErr,Rst,Ign,Q
FMT, 180, 28, OF, QBffff, TimeUS,Qual,flowX,flowY,bodyX,bodyY
FMT, 182, 21, WENC, Qfbfb, TimeUS,Dist0,Qual0,Dist1,Qual1
FMT, 185, 35, ADSB, QIiiiHHhH, TimeUS,ICAO_address,Lat,Lng,Alt,Heading,Hor_vel,Ver_vel,Squark
FMT, 181, 12, EV, QB, TimeUS,Id
FMT, 186, 18, ARM, QBIBB, TimeUS,ArmState,ArmChecks,Forced,Method
FMT, 184, 13, ERR, QBB, TimeUS,Subsys,ECode
FMT, 187, 35, WINC, QBBBBBfffHfb, TimeUS,Heal,ThEnd,Mov,Clut,Mode,DLen,Len,DRate,Tens,Vcc,Temp
FMT, 188, 47, PSCN, Qfffffffff, TimeUS,DPN,TPN,PN,DVN,TVN,VN,DAN,TAN,AN
FMT, 189, 47, PSCE, Qfffffffff, TimeUS,DPE,TPE,PE,DVE,TVE,VE,DAE,TAE,AE
FMT, 190, 47, PSCD, Qfffffffff, TimeUS,DPD,TPD,PD,DVD,TVD,VD,DAD,TAD,AD
FMT, 191, 35, PSON, Qffffff, TimeUS,TPON,PON,TVON,VON,TAON,AON
FMT, 192, 35, PSOE, Qffffff, TimeUS,TPOE,POE,TVOE,VOE,TAOE,AOE
FMT, 193, 35, PSOD, Qffffff, TimeUS,TPOD,POD,TVOD,VOD,TAOD,AOD
FMT, 194, 35, PSOT, Qffffff, TimeUS,TPOT,POT,TVOT,VOT,TAOT,AOT
FMT, 75, 63, RATE, Qfffffffffffff, TimeUS,RDes,R,ROut,PDes,P,POut,YDes,Y,YOut,ADes,A,AOut,AOutSlew
FMT, 195, 39, ANG, Qfffffff, TimeUS,DesRoll,Roll,DesPitch,Pitch,DesYaw,Yaw,Dt
FMT, 201, 33, STAK, QBBHHN, TimeUS,Id,Pri,Total,Free,Name
FMT, 202, 88, FILE, NIBZ, FileName,Offset,Length,Data
FMT, 197, 78, AISR, QBBBZ, TimeUS,num,total,ID,payload
FMT, 198, 41, AIS1, QBBIBbHbLLHHBBbI, US,typ,rep,mmsi,nav,rot,sog,pos,lon,lat,cog,hed,sec,man,raim,rad
FMT, 199, 38, AIS4, QBIHBBBBBBLLBBI, US,rep,mmsi,year,mth,day,h,m,s,fix,lon,lat,epfd,raim,rad
FMT, 200, 175, AIS5, QBIBINZBHHBBBBZB, US,rep,mmsi,ver,imo,cal,nam,typ,bow,stn,prt,str,fix,dght,dst,dte
FMT, 203, 39, SCR, QNIii, TimeUS,Name,Runtime,Total_mem,Run_mem
FMT, 206, 90, VER, QBHBBBBIZHBB, TimeUS,BT,BST,Maj,Min,Pat,FWT,GH,FWS,APJ,BU,FV
FMT, 205, 32, MOTB, QfffffB, TimeUS,LiftMax,BatVolt,ThLimit,ThrAvMx,ThrOut,FailFlags
FMT, 6, 24, PTUN, QBfff, TimeUS,Param,TunVal,TunMin,TunMax
FMT, 0, 55, CTUN, Qffffffefffhh, TimeUS,ThI,ABst,ThO,ThH,DAlt,Alt,BAlt,DSAlt,SAlt,TAlt,DCRt,CRt
FMT, 1, 14, D16, QBh, TimeUS,Id,Value
FMT, 2, 14, DU16, QBH, TimeUS,Id,Value
FMT, 3, 16, D32, QBi, TimeUS,Id,Value
FMT, 4, 16, DU32, QBI, TimeUS,Id,Value
FMT, 5, 16, DFLT, QBf, TimeUS,Id,Value
FMT, 9, 47, SIDD, Qfffffffff, TimeUS,Time,Targ,F,Gx,Gy,Gz,Ax,Ay,Az
FMT, 10, 40, SIDS, QBfffffff, TimeUS,Ax,Mag,FSt,FSp,TFin,TC,TR,TFout
FMT, 8, 49, GUIP, QBfffbffffff, TimeUS,Type,pX,pY,pZ,Terrain,vX,vY,vZ,aX,aY,aZ
FMT, 11, 44, GUIA, QBffffffff, TimeUS,Type,Roll,Pitch,Yaw,RollRt,PitchRt,YawRt,Thrust,ClimbRt
MAVC, 68538519, 1, 1, 255, 190, 3, 32000, 2, 0, 0, 0, 0, 0, 0, 4, 1
GPS, 68546101, 0, 3, 394186200, 2380, 13, 0.74, 15.3695543, 75.1243764, 638.3, 0.027, 152.4353, -0.057, 0, 1
GPA, 68546101, 0, 1.39, 0.67, 1.71, 0.34, 0, 1, 68538, 200, 560.29, 0, 0
POWR, 68546122, 4.982831, 5.040659, 1, 1, 2
MCU, 68546122, 40.87475, 3.348817, 3.340394, 3.354456
BAT, 68546136, 0, 15.87752, 15.94073, 1.048683, 18.41494, 0.2926023, 0, 0.06027817, 99, 1, 0
MAG, 68546148, 0, -30, -405, 170, 31, 0, -44, 0, 0, 0, 1, 68546144
MAG, 68546148, 1, -70, -420, 164, 132, -200, 136, 0, 0, 0, 1, 68546146
FMT, 249, 25, SURF, QBBfff, TimeUS,I,St,D,FD,TO
SURF, 68546191, 0, 2, 0, 0, -0.3241365
SURF, 68546264, 1, 2, 0, 0, -0.3241365
BARO, 68546286, 0, -0.1584473, 630.7816, 93932.19, 41.67, 0.1523536, 68546, 0, 35, 1
CTUN, 68546299, 0, 0, 0, 0.4106495, 0, -0.2606799, -0.15, NaN, 0, 0.03979792, 0, -1
ATT, 68546357, -20.7046, 3.171092, 22.20737, -0.7292791, 93.7607, 93.80146, 3
ANG, 68545550, -20.7046, 3.171348, 22.20737, -0.7281506, 93.7607, 93.76069, 0.002489
RATE, 68545564, -109.1618, -0.02133866, -0.2571611, 99.3633, -0.00380719, 0.2341621, 15.47606, 0.01849185, 0.0485947, -0.6689072, -0.4886627, 0, 0
PIDR, 68546377, -1.905231, -0.0003724298, -1.904859, -0.257156, 0, -5.115216E-06, 0, 0, 1, 0.5132331, 9
PIDP, 68546381, 1.734232, -6.6448E-05, 1.734298, 0.2341302, 0, 3.18509E-05, 0, 0, 1, 0.5185502, 9
PIDY, 68546399, 0.2701674, 0.0003227438, 0.2699706, 0.0485947, 0, 0, 0, 0, 1, 0.03023964, 9
PIDA, 68546404, -0.6689072, -0.6689072, 0, 0, -410.6503, 0, 0, 0, 1, 0, 13
XKF4, 68545729, 0, 0.05, 0.01, 0.01, 0, 0, 0.006235134, 0.3435315, 0.2352159, 0, 48, 107327, 0, 0
XKY0, 68545729, 0, 179.9767, 15.03873, 216.0025, 288.0025, 0.002514906, 72.00251, 144.0025, 0.2, 0.2, 0.2, 0.2, 0.2
XKY1, 68545729, 0, 0, 0, 0, 0, 0, 0, 0, 0, 0, 0
XKF1, 68545729, 0, 3.17, -0.72, 93.8, -0.01792063, 0.0082372, 0.0130725, -0.1167215, -0.36938, 0.2103977, 0.2606799, -0.23, -0.9, -0.1, 630.94
XKF2, 68545729, 0, 0, 0, 0.01, 0, 0, 404, -5, 168, 0, 0, 0, 0, 0, 0
XKF3, 68545729, 0, -0.03, 0.05, 0.14, 0, 0.05, 0.13, 0, 0, 0, -0.59, 0, 0, 0.001925013
XKF5, 68545729, 0, 0, 0, 0, 0, 0.16, 0.41, 0, 0, 0.5, 0.0002141687, 0.004212116, 0.009743014
XKFS, 68545729, 0, 0, 0, 0, 0, 0, 1, 0, 1
XKQ, 68545729, 0, 0.683202, -0.009234586, -0.009769998, 0.7301056
XKF4, 68545729, 1, 0.05, 0, 0.01, 0, 0, 0.006220591, 0.3250557, 0.2618738, 0, 48, 107327, 0, 0
XKY0, 68545729, 1, 181.2307, 14.98935, 216.0041, 288.0041, 0.004052023, 72.00405, 144.0041, 0.2, 0.2, 0.2, 0.2, 0.2
XKY1, 68545729, 1, 0, 0, 0, 0, 0, 0, 0, 0, 0, 0
XKF1, 68545729, 1, 3.49, -0.2, 93.51, -0.001206086, -0.01314629, 0.01641688, -0.1146941, -0.3534628, 0.1913196, 0.4361395, -0.05, -0.05, -0.01, 630.77
XKF2, 68545729, 1, 0, 0, -0.01, 0, 0, 404, -5, 169, 0, 0, 0, 0, 0, 0
XKF3, 68545729, 1, -0.02, 0.03, 0.14, 0, 0.03, 0.14, 0, 0, 0, -0.6, 0, 0.001016993, 0.001835887
XKFS, 68545729, 1, 0, 0, 0, 0, 0, 1, 0, 1
XKQ, 68545729, 1, 0.684976, -0.01065855, -0.004527174, 0.7284735
AHR2, 68546507, 3.04, -3.25, 95.23, 630.51, 15.3695544, 75.1243763, 0.6728203, 0.03886031, 0.0005207685, 0.7387844
POS, 68546527, 15.3695543, 75.1243769, 630.67, 0.04932006, -0.2606799
MOTB, 68546546, 1, 1, 1, 0.04106495, 0, 2
RCIN, 68546553, 1102, 1927, 1102, 1927, 1255, 1000, 1000, 875, 1000, 1495, 1000, 1000, 875, 875
RCI2, 68546557, 875, 875, 0, 1
RCOU, 68546564, 1000, 1000, 1000, 1000, 0, 0, 0, 0, 1495, 0, 0, 0, 0, 0
RCO2, 68546568, 0, 0, 0, 0
VIBE, 68546592, 0, 0.007773298, 0.007200867, 0.008100405, 0
VIBE, 68546592, 1, 0.06229693, 0.06286703, 0.07339911, 0
FMT, 246, 31, CTRL, Qfffff, TimeUS,RMSRollP,RMSRollD,RMSPitchP,RMSPitchD,RMSYaw
CTRL, 68546603, 0.2572605, 0.0005226762, 0.2342145, 0.0005777206, 0.0485795
IMU, 68546633, 0, -0.004444792, -0.01590068, -0.001540975, 0.007324988, 0.2645614, -9.783232, 0, 0, 44.80676, 1, 1, 2022, 2022
IMU, 68546633, 1, 0.0005099452, -0.001263004, 0.0008692009, 0.08672842, 0.2066923, -9.821664, 0, 0, 45, 1, 1, 1998, 2046
FMT, 252, 43, DCM, Qffffffff, TimeUS,Roll,Pitch,Yaw,ErrRP,ErrYaw,VWN,VWE,VWD
DCM, 68548191, 3.047952, -3.25059, 95.23428, 0.04794713, 0.008850784, 0, 0, 0
FMT, 251, 51, EAHR, QffffffLLfI, TimeUS,Roll,Pitch,Yaw,VN,VE,VD,Lat,Lon,Alt,Flg
EAHR, 68548232, 0, 0, 0, 0, 0, 0, 0, 0, 0, 0
IMU, 68586377, 0, -0.00356311, -0.01555013, -0.001288662, 0.01184118, 0.2727533, -9.790769, 0, 0, 44.80676, 1, 1, 2022, 2022
IMU, 68586377, 1, -0.001478793, 0.000949729, -0.0006413903, 0.07748993, 0.1907353, -9.807453, 0, 0, 45, 1, 1, 1998, 2046
SURF, 68595914, 0, 2, 0, 0, -0.3210379
SURF, 68595924, 1, 2, 0, 0, -0.3210379
MSG, 68599435, ArduCopter V4.6.2 (1ebd4d99)
MSG, 68599443, ChibiOS: 88b84600
VER, 68599447, 10, 5009, 4, 6, 2, 255, 515722649, ArduCopter V4.6.2 (1ebd4d99), 56, 2, 2
MSG, 68599460, Pixhawk6C 003D0048 3133510F 31343630
MSG, 68599469, Param space used: 1099/5376
MSG, 68599475, RC Protocol: SBUS
MSG, 68599486, RCOut: PWM:1-16
MSG, 68599491, New mission
CMD, 68601009, 4, 0, 16, 0, 0, 0, 0, 15.3695543, 75.124377, 630.63, 0
CMD, 68601019, 4, 1, 22, 1, 0, 0, 0, 0, 0, 10, 3
CMD, 68601027, 4, 2, 16, 10, 0, 0, 0, 15.367361, 75.1254623, 10, 3
CMD, 68601034, 4, 3, 20, 0, 0, 0, 0, 0, 0, 0, 0
MSG, 68601039, New rally
MSG, 68601044, New fence
FNCE, 68601051, 13, 0, 98, 15.3678921, 75.1255175, 13, 0
FNCE, 68601057, 13, 1, 98, 15.3679102, 75.1257884, 13, 0
FNCE, 68601063, 13, 2, 98, 15.3677343, 75.1261049, 13, 0
FNCE, 68601069, 13, 3, 98, 15.3673256, 75.1262122, 13, 0
FNCE, 68601099, 13, 4, 98, 15.3670981, 75.1261585, 13, 0
FNCE, 68601135, 13, 5, 98, 15.3668498, 75.1260673, 13, 0
FNCE, 68601166, 13, 6, 98, 15.3668446, 75.1258903, 13, 0
FNCE, 68601172, 13, 7, 98, 15.3667722, 75.125563, 13, 0
FNCE, 68601178, 13, 8, 98, 15.3668213, 75.1253404, 13, 0
FNCE, 68601187, 13, 9, 98, 15.3669584, 75.1252198, 13, 0
FNCE, 68601193, 13, 10, 98, 15.3672843, 75.1251608, 13, 0
FNCE, 68601199, 13, 11, 98, 15.367636, 75.1252225, 13, 0
FNCE, 68601205, 13, 12, 98, 15.367861, 75.1253485, 13, 0
MSG, 68601214, Frame: QUAD/X
MODE, 68601219, Stabilize, 0, 1
ORGN, 68601223, 0, 15.3695576, 75.1243749, 630.94
ORGN, 68601227, 1, 15.3695543, 75.124377, 630.63
MSG, 68601236, GPS 1: probing for u-blox at 230400 baud
MSG, 68601245, u-blox 1 HW: 00190000 SW: EXT CORE 4.04 (7f89f7)
IMU, 68625984, 0, -0.004036125, -0.01656296, -0.001304909, 0.01311555, 0.2706867, -9.782779, 0, 0, 44.80676, 1, 1, 2022, 2022
IMU, 68625984, 1, -0.00246621, -0.0003925889, -0.0001497723, 0.08266138, 0.228951, -9.835724, 0, 0, 45, 1, 1, 1998, 2046
POWR, 68645909, 4.990887, 5.038241, 1, 1, 2
MCU, 68645909, 40.99404, 3.348254, 3.339554, 3.354173
BAT, 68645924, 0, 15.88327, 15.94713, 1.059525, 18.44431, 0.2930688, 0, 0.06027817, 99, 1, 0
MAG, 68645936, 0, -29, -405, 167, 31, 0, -44, 0, 0, 0, 1, 68645932
MAG, 68645936, 1, -62, -420, 174, 132, -200, 136, 0, 0, 0, 1, 68645934
SURF, 68645955, 0, 2, 0, 0, -0.3178182
SURF, 68645999, 1, 2, 0, 0, -0.3178182
BARO, 68646020, 0, 0.05328369, 630.9933, 93929.79, 41.67, 0.034918, 68646, 0, 35, 1
CTUN, 68646052, 0, 0, 0, 0.4106495, 0, -0.250095, 0.05, NaN, 0, 0.04979791, 0, 0
ATT, 68646114, -20.7046, 3.171615, 22.20737, -0.7305111, 93.76678, 93.80754, 3
ANG, 68645550, -20.7046, 3.171872, 22.20737, -0.7293822, 93.76678, 93.76676, 0.002499
RATE, 68645562, -109.1642, 0.008716522, -0.257196, 99.36893, -0.005360204, 0.2340728, 15.47847, 0.01685225, 0.04856368, -0.6689072, 0.03204346, 0, 0
PIDR, 68646133, -1.905277, 0.000152132, -1.905429, -0.257233, 0, 3.695941E-05, 0, 0, 1, 0.4643344, 9
PIDP, 68646137, 1.734311, -9.355322E-05, 1.734404, 0.2341446, 0, -7.178856E-05, 0, 0, 1, 0.4691449, 9
PIDY, 68646166, 0.2701595, 0.0002941273, 0.2697982, 0.04856368, 0, 0, 0, 0, 1, 0.02735854, 9
PIDA, 68646190, -0.6689072, -0.6689072, 0, 0, -410.6503, 0, 0, 0, 1, 0, 13
XKF4, 68645721, 0, 0.02, 0, 0, 0, 0, 0.006152411, 0.3435315, 0.2352159, 0, 48, 107327, 0, 0
XKY0, 68645721, 0, 125.0415, 13.08902, 214.1881, 287.4708, 1.488398, 73.45262, 143.4129, 0.1977717, 0.1642056, 0.177223, 0.2228539, 0.2379458
XKY1, 68645721, 0, -1.122068, 0.3513466, 1.390344, 0.5590662, -0.9936898, -0.7701274, -1.383853, -0.1722047, 1.190361, 0.8208243
XKF1, 68645721, 0, 3.17, -0.73, 93.8, -0.0177292, 0.007615422, 0.009341318, -0.1108526, -0.3694007, 0.2075915, 0.250095, -0.23, -0.9, -0.1, 630.94
XKF2, 68645721, 0, 0, 0, 0.01, 0, 0, 404, -5, 168, 0, 0, 0, 0, 0, 0
XKF3, 68645721, 0, 0, -0.01, 0.06, 0, 0.04, 0.08, 0, 0, 0, 0.23, 0, 0, 0.001925013
XKF5, 68645721, 0, 0, 0, 0, 0, 0.17, 0.41, 0, 0, 0.5, 7.321259E-05, 0.003908194, 0.007945523
XKFS, 68645721, 0, 0, 0, 0, 0, 0, 1, 0, 1
XKQ, 68645721, 0, 0.6831634, -0.009223097, -0.009774499, 0.7301419
XKF4, 68645721, 1, 0.02, 0, 0, 0, 0, 0.00613751, 0.3250557, 0.2618738, 0, 48, 107327, 0, 0
XKY0, 68645721, 1, 126.6466, 14.44043, 215.9618, 287.9916, 0.04085897, 72.04143, 143.9926, 0.2000042, 0.1996325, 0.1997684, 0.2002245, 0.2003704
XKY1, 68645721, 1, 0.02527626, 0.03975914, 0.05042899, 0.04254043, 0.02699519, -0.0697104, -0.07622357, -0.06446221, -0.05068013, -0.05392369
XKF1, 68645721, 1, 3.49, -0.2, 93.52, -0.00152569, -0.01414093, 0.01309874, -0.109442, -0.3539099, 0.1889072, 0.4255385, -0.05, -0.05, -0.01, 630.77
XKF2, 68645721, 1, 0, 0, -0.01, 0, 0, 404, -5, 169, 0, 0, 0, 0, 0, 0
XKF3, 68645721, 1, 0.01, -0.03, 0.07, 0.01, 0.03, 0.09, 0, 0, 0, 0.2, 0, 0.001016993, 0.001835887
XKFS, 68645721, 1, 0, 0, 0, 0, 0, 1, 0, 1
XKQ, 68645721, 1, 0.6849579, -0.01069187, -0.004537245, 0.7284901
AHR2, 68646325, 3.04, -3.25, 95.23, 630.47, 15.3695543, 75.1243764, 0.672837, 0.03886865, 0.0005268275, 0.7387688
POS, 68646331, 15.3695543, 75.1243769, 630.68, 0.05990501, -0.250095
MOTB, 68646337, 1, 1, 1, 0.04106495, 0, 2
RCIN, 68646344, 1102, 1927, 1102, 1927, 1255, 1000, 1000, 875, 1000, 1495, 1000, 1000, 875, 875
RCI2, 68646348, 875, 875, 0, 1
RCOU, 68646355, 1000, 1000, 1000, 1000, 0, 0, 0, 0, 1495, 0, 0, 0, 0, 0
RCO2, 68646359, 0, 0, 0, 0
VIBE, 68646365, 0, 0.008516879, 0.00722768, 0.008662571, 0
VIBE, 68646365, 1, 0.06010719, 0.06343438, 0.07498495, 0
CTRL, 68646375, 0.2572557, 0.0004288419, 0.2342125, 0.0004853691, 0.04857602
DCM, 68648202, 3.049121, -3.250871, 95.23154, 0.04794713, 0.009303018, 0, 0, 0
EAHR, 68648224, 0, 0, 0, 0, 0, 0, 0, 0, 0, 0
FILE, @SYS/uarts.txt, 0, 64, UARTV1\nSERIAL0 OTG1  TX =       0 RX =       0 TXBD=     0 RXBD=
IMU, 68666216, 0, -0.004330857, -0.01684841, -0.001830779, 0.01407982, 0.2736712, -9.783295, 0, 0, 44.80676, 1, 1, 2022, 2022
IMU, 68666216, 1, -0.002051283, -0.001076679, 0.001359285, 0.07744745, 0.2135587, -9.841818, 0, 0, 45, 1, 1, 1998, 2046
MAV, 68670960, 1, 1396, 796, 0, 6, 0, 2
STAK, 68690425, 5, 181, 1968, 1528, timer
FILE, @SYS/uarts.txt, 64, 64,      0 FE=0 OE=0 NE=0 FlowCtrl=0\nSERIAL1 UART7 TX*=   68895 RX*=
SURF, 68695916, 0, 2, 0, 0, -0.3145113
SURF, 68695926, 1, 2, 0, 0, -0.3145113
IMU, 68706023, 0, -0.004236082, -0.01592641, -0.001778499, 0.002728653, 0.2669047, -9.784692, 0, 0, 44.80676, 1, 1, 2022, 2022
IMU, 68706023, 1, 0.0002058916, -0.001206047, -0.0006822248, 0.08461689, 0.1949799, -9.825687, 0, 0, 45, 1, 1, 1998, 2046
FILE, @SYS/uarts.txt, 128, 64,    49186 TXBD= 10108 RXBD=  7216 FE=0 OE=0 NE=0 FlowCtrl=0\nSERIA
FILE, @SYS/uarts.txt, 192, 64, L2 UART5 TX*=    1996 RX*=       0 TXBD=   292 RXBD=     0 FE=0 
FILE, @SYS/uarts.txt, 256, 64, OE=0 NE=0 FlowCtrl=0\nSERIAL3 UART1 TX*=    1732 RX*=   43227 TXB
GPS, 68746143, 0, 3, 394186400, 2380, 13, 0.74, 15.3695543, 75.1243763, 638.3, 0.04, 152.4353, -0.031, 0, 1
GPA, 68746143, 0, 1.39, 0.67, 1.72, 0.28, 0, 1, 68738, 200, 560.29, 0, 0
POWR, 68746164, 4.990384, 5.038241, 1, 1, 2
MCU, 68746164, 40.95427, 3.348676, 3.340114, 3.357848
BAT, 68746178, 0, 15.88254, 15.94692, 1.06813, 18.47406, 0.2935413, 0, 0.06027817, 99, 1, 0
MAG, 68746190, 0, -29, -404, 166, 31, 0, -44, 0, 0, 0, 1, 68746187
MAG, 68746190, 1, -61, -419, 174, 132, -200, 136, 0, 0, 0, 1, 68746188
SURF, 68746225, 0, 2, 0, 0, -0.3111409
SURF, 68746235, 1, 2, 0, 0, -0.3111409
BARO, 68746255, 0, -0.04083252, 630.8992, 93930.87, 41.67, 0.08762103, 68746, 0, 35, 1
CTUN, 68746269, 0, 0, 0, 0.4106495, 0, -0.2404103, -0.04, NaN, 0, 0.05979791, 0, 0
ATT, 68746330, -20.7046, 3.171674, 22.20737, -0.733921, 93.76891, 93.80968, 3
ANG, 68745550, -20.7046, 3.171934, 22.20737, -0.7327919, 93.76891, 93.7689, 0.0025
RATE, 68745563, -109.1649, -0.007588046, -0.2572342, 99.38366, -0.04649416, 0.2343262, 15.48201, 0.04213044, 0.04856649, -0.6689072, 0.479126, 0, 0
PIDR, 68746349, -1.905288, -0.0001324364, -1.905155, -0.2571959, 0, -3.824788E-05, 0, 0, 1, 0.4200947, 9
PIDP, 68746354, 1.734555, -0.0008114763, 1.735367, 0.2342745, 0, 5.164313E-05, 0, 0, 1, 0.4244468, 9
PIDY, 68746358, 0.2702042, 0.0007353149, 0.2698138, 0.04856649, 0, 0, 0, 0, 1, 0.02475193, 9
PIDA, 68746362, -0.6689072, -0.6689072, 0, 0, -410.6503, 0, 0, 0, 1, 0, 13
XKF4, 68745704, 0, 0.02, 0, 0.02, 0, 0, 0.006231071, 0.3435315, 0.2352159, 0, 48, 107327, 0, 0
XKY0, 68745704, 0, 125.0445, 13.08905, 214.1911, 287.4738, 1.491401, 73.45562, 143.4159, 0.1977717, 0.1642056, 0.177223, 0.2228539, 0.2379458
XKY1, 68745704, 0, -1.122068, 0.3513466, 1.390344, 0.5590662, -0.9936898, -0.7701274, -1.383853, -0.1722047, 1.190361, 0.8208243
XKF1, 68745704, 0, 3.17, -0.73, 93.8, -0.01759024, 0.007241366, 0.006154774, -0.09933694, -0.370011, 0.2059273, 0.2404103, -0.23, -0.9, -0.1, 630.94
XKF2, 68745704, 0, 0, 0, 0.01, 0, 0, 404, -5, 168, 0, 0, 0, 0, 0, 0
XKF3, 68745704, 0, 0, -0.01, 0.06, 0, 0.04, 0.29, 0, 0, 0, 0.29, 0, 0, 0.001925013
XKF5, 68745704, 0, 0, 0, 0, 0, 0.18, 0.41, 0, 0, 0.5, 3.548079E-05, 0.003396838, 0.007738411
XKFS, 68745704, 0, 0, 0, 0, 0, 0, 1, 0, 1
XKQ, 68745704, 0, 0.6831501, -0.009200833, -0.009794618, 0.7301543
XKF4, 68745704, 1, 0.02, 0, 0.02, 0, 0, 0.006216708, 0.3250557, 0.2618738, 0, 48, 107327, 0, 0
XKY0, 68745704, 1, 126.6466, 14.44046, 215.9618, 287.9916, 0.04086836, 72.04144, 143.9926, 0.2000042, 0.1996325, 0.1997684, 0.2002245, 0.2003704
XKY1, 68745704, 1, 0.02527626, 0.03975914, 0.05042899, 0.04254043, 0.02699519, -0.0697104, -0.07622357, -0.06446221, -0.05068013, -0.05392369
XKF1, 68745704, 1, 3.49, -0.2, 93.52, -0.001756603, -0.01387282, 0.009708388, -0.09867422, -0.3543585, 0.1868079, 0.4158794, -0.05, -0.05, -0.01, 630.77
XKF2, 68745704, 1, 0, 0, -0.01, 0, 0, 404, -5, 169, 0, 0, 0, 0, 0, 0
XKF3, 68745704, 1, 0.01, -0.03, 0.07, 0.01, 0.03, 0.3, 0, 0, 0, 0.25, 0, 0.001016993, 0.001835887
XKFS, 68745704, 1, 0, 0, 0, 0, 0, 1, 0, 1
XKQ, 68745704, 1, 0.6849189, -0.01066818, -0.004563979, 0.7285269
AHR2, 68746517, 3.04, -3.25, 95.22, 630.68, 15.3695543, 75.1243764, 0.6728635, 0.03887398, 0.000520943, 0.7387444
POS, 68746524, 15.3695543, 75.1243769, 630.69, 0.06958967, -0.2404103
MOTB, 68746530, 1, 1, 1, 0.04106495, 0, 2
RCIN, 68746537, 1102, 1927, 1102, 1927, 1255, 1000, 1000, 875, 1000, 1495, 1000, 1000, 875, 875
RCI2, 68746542, 875, 875, 0, 1
RCOU, 68746550, 1000, 1000, 1000, 1000, 0, 0, 0, 0, 1495, 0, 0, 0, 0, 0
RCO2, 68746554, 0, 0, 0, 0
VIBE, 68746560, 0, 0.008629385, 0.00770656, 0.008620269, 0
VIBE, 68746560, 1, 0.06429303, 0.0630265, 0.07107266, 0
CTRL, 68746570, 0.2572427, 0.0003555703, 0.2342218, 0.0004027217, 0.0485771
IMU, 68746635, 0, -0.004202738, -0.01663742, -0.001125692, 0.004928328, 0.270318, -9.792254, 0, 0, 44.80676, 1, 1, 2022, 2022
IMU, 68746635, 1, -0.0009054602, 0.0008660245, 0.001789064, 0.09493612, 0.2111898, -9.816049, 0, 0, 45, 1, 1, 1998, 2046
DCM, 68748217, 3.049338, -3.251623, 95.2273, 0.04730562, 0.009691717, 0, 0, 0
EAHR, 68748236, 0, 0, 0, 0, 0, 0, 0, 0, 0, 0
FILE, @SYS/uarts.txt, 320, 64, D=   254 RXBD=  6342 FE=145 OE=0 NE=163 FlowCtrl=0\nSERIAL4 UART8
FILE, @SYS/uarts.txt, 384, 64,  TX*=       0 RX*=       0 TXBD=     0 RXBD=     0 FE=0 OE=0 NE=
FILE, @SYS/uarts.txt, 448, 64, 0 FlowCtrl=0\nSERIAL5 UART2 TX =       0 RX =       0 TXBD=     0
STAK, 68783041, 6, 181, 944, 680, rcout
IMU, 68786414, 0, -0.004087979, -0.0167162, -0.001888755, 0.006342749, 0.27125, -9.782206, 0, 0, 44.80676, 1, 1, 2022, 2022
IMU, 68786414, 1, -0.002139108, -0.002247433, 0.0009983492, 0.06959611, 0.195638, -9.832073, 0, 0, 45, 1, 1, 1998, 2046
FILE, @SYS/uarts.txt, 512, 64,  RXBD=     0 FE=0 OE=0 NE=0 FlowCtrl=0\nSERIAL6 UART3 TX =       
SURF, 68795878, 0, 2, 0, 0, -0.3076871
SURF, 68795915, 1, 2, 0, 0, -0.3076871
FILE, @SYS/uarts.txt, 576, 64, 0 RX =       0 TXBD=     0 RXBD=     0 FE=0 OE=0 NE=0 FlowCtrl=0
FILE, @SYS/uarts.txt, 640, 64, \nSERIAL7 OTG2  TX =       0 RX =       0 TXBD=     0 RXBD=     0
FILE, @SYS/uarts.txt, 704, 64,  FE=0 OE=0 NE=0 FlowCtrl=0\nIOMCU   UART6 TX*=  526716 RX*=  3319
FMT, 253, 28, HEAT, Qfbfff, TimeUS,Temp,Targ,P,I,Out
HEAT, 68823057, 44.80676, 45, 9.661865, 5.339705, 15.00157
IMU, 68825988, 0, -0.003883718, -0.01703342, -0.001544882, 0.007408083, 0.2699782, -9.789032, 0, 0, 44.80676, 1, 1, 2022, 2022
IMU, 68825988, 1, -0.001558955, -3.873309E-05, 0.000414651, 0.08867928, 0.2217253, -9.807729, 0, 0, 45, 1, 1, 1998, 2046
FILE, @SYS/uarts.txt, 768, 53, 20 TXBD= 14264 RXBD= 48699 FE=0 OE=0 NE=0 FlowCtrl=0\n
POWR, 68845963, 5.002167, 5.038241, 1, 1, 2
MCU, 68845963, 40.95427, 3.348817, 3.341655, 3.357282
BAT, 68845977, 0, 15.89471, 15.95981, 1.080031, 18.504, 0.2940172, 0, 0.06027817, 99, 1, 0
MAG, 68845989, 0, -30, -404, 165, 31, 0, -44, 0, 0, 0, 1, 68845986
MAG, 68845989, 1, -62, -419, 174, 132, -200, 136, 0, 0, 0, 1, 68845987
SURF, 68846008, 0, 2, 0, 0, -0.3041495
SURF, 68846017, 1, 2, 0, 0, -0.3041495
BARO, 68846038, 0, -0.03497314, 630.905, 93930.79, 41.68, 0.3129072, 68846, 0, 35, 1
CTUN, 68846076, 0, 0, 0, 0.4106495, 0, -0.2301333, -0.03, NaN, 0, 0.06961481, 0, 0
ATT, 68846178, -20.70459, 3.169114, 22.20737, -0.7338899, 93.7698, 93.81055, 3
ANG, 68845561, -20.70459, 3.169373, 22.20737, -0.7327628, 93.7698, 93.7698, 0.002511
RATE, 68845579, -109.154, -0.02810244, -0.2569634, 99.38309, -0.04217023, 0.2342008, 15.48876, 0.04811156, 0.04855789, -0.6689072, -0.03890991, 0, 0
PIDR, 68846197, -1.905141, -0.0004904801, -1.904651, -0.2571279, 0, 0.0001645086, 0, 0, 1, 0.3800657, 9
PIDP, 68846201, 1.734558, -0.0007360093, 1.735294, 0.2342647, 0, -6.38994E-05, 0, 0, 1, 0.384003, 9
PIDY, 68846206, 0.2702344, 0.0008397052, 0.2697661, 0.04855789, 0, 0, 0, 0, 1, 0.02239342, 9
PIDA, 68846213, -0.6689072, -0.6689072, 0, 0, -410.6503, 0, 0, 0, 1, 0, 13
XKF4, 68845726, 0, 0.02, 0.01, 0.01, 0, 0, 0.00613996, 0.3435315, 0.2352159, 0, 48, 107327, 0, 0
XKY0, 68845726, 0, 57.45002, 13.29994, 215.0882, 287.9791, 0.891507, 72.59166, 143.4685, 0.1835832, 0.191335, 0.2112243, 0.2155778, 0.1982797
XKY1, 68845726, 0, -1.962946, 0.466933, 2.193615, 0.7755496, -1.701419, -1.078825, -2.149806, -0.1025252, 2.09367, 1.484561
XKF1, 68845726, 0, 3.16, -0.73, 93.81, -0.01625254, 0.005505276, 0.003159432, -0.1017557, -0.3688849, 0.2016783, 0.2301333, -0.23, -0.9, -0.1, 630.94
XKF2, 68845726, 0, 0, 0, 0.01, 0, 0, 404, -5, 168, 0, 0, 0, 0, 0, 0
XKF3, 68845726, 0, -0.04, 0.03, 0.03, 0, 0.05, 0.18, 0, 0, 0, 0.3, 0, 0, 0.001925013
XKF5, 68845726, 0, 0, 0, 0, 0, 0.19, 0.41, 0, 0, 0.5, 0.0001857462, 0.002856955, 0.007043123
XKFS, 68845726, 0, 0, 0, 0, 0, 0, 1, 0, 1
XKQ, 68845726, 0, 0.6831444, -0.00921622, -0.009810818, 0.7301593
XKF4, 68845726, 1, 0.01, 0, 0.01, 0, 0, 0.006125226, 0.3250557, 0.2618738, 0, 48, 107327, 0, 0
XKY0, 68845726, 1, 56.02735, 14.41836, 216.0025, 288.0242, 0.02502616, 72.00385, 143.9899, 0.1998405, 0.1998955, 0.2000949, 0.2001632, 0.2000059
XKY1, 68845726, 1, -0.04628891, -0.02371637, -0.006815528, -0.01895758, -0.04333236, 0.008738667, -0.001706768, 0.01654909, 0.03824615, 0.03341629
XKF1, 68845726, 1, 3.48, -0.2, 93.53, -0.001161801, -0.01583792, 0.006039131, -0.102058, -0.3537688, 0.1830528, 0.4055308, -0.05, -0.05, -0.01, 630.77
XKF2, 68845726, 1, 0, 0, -0.01, 0, 0, 404, -5, 169, 0, 0, 0, 0, 0, 0
XKF3, 68845726, 1, -0.03, 0.01, 0.03, 0.01, 0.03, 0.19, 0, 0, 0, 0.26, 0, 0.001016993, 0.001835887
XKFS, 68845726, 1, 0, 0, 0, 0, 0, 1, 0, 1
XKQ, 68845726, 1, 0.684909, -0.01070935, -0.004594896, 0.7285354
AHR2, 68846312, 3.04, -3.25, 95.22, 630.58, 15.3695543, 75.1243763, 0.672887, 0.03887799, 0.0005154411, 0.7387229
POS, 68846319, 15.3695543, 75.1243768, 630.7, 0.07986667, -0.2301333
MOTB, 68846324, 1, 1, 1, 0.04106495, 0, 2
RCIN, 68846331, 1102, 1927, 1102, 1829, 1255, 1000, 1000, 875, 1000, 1495, 1000, 1000, 875, 875
RCI2, 68846336, 875, 875, 0, 1
RCOU, 68846343, 1000, 1000, 1000, 1000, 0, 0, 0, 0, 1495, 0, 0, 0, 0, 0
RCO2, 68846347, 0, 0, 0, 0
VIBE, 68846352, 0, 0.009195897, 0.008336948, 0.008299286, 0
VIBE, 68846352, 1, 0.06041942, 0.06234864, 0.07561858, 0
CTRL, 68846362, 0.2572356, 0.0002936008, 0.2342314, 0.0003370102, 0.04857263
DCM, 68848208, 3.04946, -3.252479, 95.22349, 0.04730562, 0.009703977, 0, 0, 0
EAHR, 68848228, 0, 0, 0, 0, 0, 0, 0, 0, 0, 0
FILE, @SYS/memory.txt, 0, 64, MemInfoV1\nSTART=0x24000000 LEN=512k FREE=  2352 LRG=  1152 TYPE=
IMU, 68866225, 0, -0.003921314, -0.01599428, -0.001791111, 0.007992884, 0.2703349, -9.784772, 0, 0, 44.80676, 1, 1, 2022, 2022
IMU, 68866225, 1, -0.0001014142, -0.002572466, -0.000382361, 0.07702796, 0.2158056, -9.82776, 0, 0, 45, 1, 1, 1998, 2046
FILE, @SYS/memory.txt, 64, 64, 4\nSTART=0x30000000 LEN=256k FREE=262136 LRG=262136 TYPE=8\nSTART=
FILE, @SYS/memory.txt, 128, 64, 0x20000000 LEN=128k FREE=112544 LRG=112544 TYPE=2\nSTART=0x000004
STAK, 68883521, 7, 177, 1456, 952, rcin
FILE, @SYS/memory.txt, 192, 64, 00 LEN= 63k FREE= 64504 LRG= 64504 TYPE=2\nSTART=0x30040000 LEN= 
SURF, 68895917, 0, 2, 0, 0, -0.3005353
SURF, 68895927, 1, 2, 0, 0, -0.3005353
FILE, @SYS/memory.txt, 256, 64, 32k FREE= 32760 LRG= 32760 TYPE=8\nSTART=0x38000000 LEN= 64k FREE
IMU, 68906007, 0, -0.004186658, -0.01670898, -0.001615191, 0.01225969, 0.2697433, -9.782202, 0, 0, 44.80676, 1, 1, 2022, 2022
IMU, 68906007, 1, -0.00173595, -0.001931655, 0.0006512464, 0.08294689, 0.2139713, -9.819098, 0, 0, 45, 1, 1, 1998, 2046
FILE, @SYS/memory.txt, 320, 26, = 56808 LRG= 56152 TYPE=1\n
FILE, @SYS/threads.txt, 0, 64, ThreadsV2\nISR           PRI=255 sp=0x24000000 STACK=1300/1536\nAr
FILE, @SYS/threads.txt, 64, 64, duCopter    PRI=182 sp=0x24000600 STACK=4176/7168\nidle          
GPS, 68946097, 0, 3, 394186600, 2380, 13, 0.74, 15.3695543, 75.1243763, 638.32, 0.009000001, 152.4353, -0.049, 0, 1
GPA, 68946097, 0, 1.39, 0.67, 1.73, 0.37, 0, 1, 68938, 200, 560.31, 0, 0
POWR, 68946113, 4.994915, 5.038241, 1, 1, 2
MCU, 68946113, 40.93439, 3.348676, 3.340534, 3.355021
BAT, 68946127, 0, 15.89407, 15.95897, 1.076735, 18.53396, 0.2944933, 0, 0.06027817, 99, 1, 0
MAG, 68946139, 0, -30, -404, 167, 31, 0, -44, 0, 0, 0, 1, 68946135
MAG, 68946139, 1, -63, -420, 168, 132, -200, 136, 0, 0, 0, 1, 68946137
SURF, 68946158, 0, 2, 0, 0, -0.2968756
SURF, 68946224, 1, 2, 0, 0, -0.2968756
BARO, 68946256, 0, -0.07025146, 630.8698, 93931.19, 41.68, 0.2827618, 68946, 0, 35, 1
CTUN, 68946272, 0, 0, 0, 0.4106495, 0, -0.221007, -0.07, NaN, 0, 0.07961481, 0, 0
ATT, 68946332, -20.70459, 3.167279, 22.20738, -0.7317021, 93.76921, 93.80993, 3
ANG, 68945559, -20.70459, 3.167536, 22.20738, -0.7305763, 93.76921, 93.7692, 0.002509
RATE, 68945572, -109.1458, 0.006750975, -0.2571796, 99.37311, -0.0215041, 0.2342837, 15.48881, 0.03676359, 0.04857519, -0.6689072, -0.02889633, 0, 0
PIDR, 68946351, -1.904975, 0.0001178267, -1.905093, -0.2571875, 0, 7.923355E-06, 0, 0, 1, 0.3438554, 9
PIDP, 68946356, 1.734371, -0.0003753174, 1.734747, 0.2341908, 0, 9.288895E-05, 0, 0, 1, 0.3474177, 9
PIDY, 68946360, 0.2702813, 0.0006416456, 0.2698622, 0.04857519, 0, 0, 0, 0, 1, 0.02025992, 9
PIDA, 68946364, -0.6689072, -0.6689072, 0, 0, -410.6503, 0, 0, 0, 1, 0, 13
XKF4, 68945746, 0, 0.02, 0.01, 0.01, 0, 0, 0.00621875, 0.3435315, 0.2352159, 0, 48, 107327, 0, 0
XKY0, 68945746, 0, 57.45206, 13.29997, 215.0903, 287.9811, 0.8935471, 72.5937, 143.4705, 0.1835832, 0.191335, 0.2112243, 0.2155778, 0.1982797
XKY1, 68945746, 0, -1.962946, 0.466933, 2.193615, 0.7755496, -1.701419, -1.078825, -2.149806, -0.1025252, 2.09367, 1.484561
XKF1, 68945746, 0, 3.16, -0.73, 93.8, -0.01547992, 0.004798597, 0.0008276098, -0.09393045, -0.368497, 0.1988129, 0.221007, -0.23, -0.9, -0.1, 630.94
XKF2, 68945746, 0, 0, 0, 0.01, 0, 0, 404, -5, 168, 0, 0, 0, 0, 0, 0
XKF3, 68945746, 0, -0.04, 0.03, 0.03, 0, 0.05, 0.18, 0, 0, 0, 0.21, 0, 0, 0.001925013
XKF5, 68945746, 0, 0, 0, 0, 0, 0.2, 0.41, 0, 0, 0.5, 0.0001220309, 0.0009236339, 0.002968581
XKFS, 68945746, 0, 0, 0, 0, 0, 0, 1, 0, 1
XKQ, 68945746, 0, 0.683148, -0.009241157, -0.009809421, 0.7301556
XKV1, 68945746, 0, 0.0002351701, 4.793452E-06, 4.796659E-06, 0.0002037272, 0.01289093, 0.01289161, 0.01131841, 0.04654004, 0.04654051, 0.1252393, 3.879537E-11, 3.895471E-11
XKV2, 68945746, 0, 2.937744E-10, 6.186366E-06, 6.186366E-06, 6.190262E-08, 0, 0, 0, 0, 0, 0, 0, 0
XKF4, 68945746, 1, 0.01, 0, 0.01, 0, 0, 0.006204471, 0.3250557, 0.2618738, 0, 48, 107327, 0, 0
XKY0, 68945746, 1, 56.03152, 14.41838, 216.0067, 288.0284, 0.02921301, 72.00803, 143.9941, 0.1998405, 0.1998955, 0.2000949, 0.2001632, 0.2000059
XKY1, 68945746, 1, -0.04628891, -0.02371637, -0.006815528, -0.01895758, -0.04333236, 0.008738667, -0.001706768, 0.01654909, 0.03824615, 0.03341629
XKF1, 68945746, 1, 3.48, -0.2, 93.53, -0.0006432775, -0.01710979, 0.003170169, -0.0939144, -0.3533276, 0.1798079, 0.3963509, -0.05, -0.05, -0.01, 630.77
XKF2, 68945746, 1, 0, 0, -0.01, 0, 0, 404, -5, 169, 0, 0, 0, 0, 0, 0
XKF3, 68945746, 1, -0.03, 0.01, 0.03, 0.01, 0.03, 0.19, 0, 0, 0, 0.17, 0, 0.001016993, 0.001835887
XKFS, 68945746, 1, 0, 0, 0, 0, 0, 1, 0, 1
XKQ, 68945746, 1, 0.684897, -0.0106886, -0.004612908, 0.7285469
AHR2, 68946472, 3.04, -3.25, 95.21, 630.59, 15.3695543, 75.1243763, 0.6729125, 0.03886801, 0.0005272213, 0.7387
POS, 68946478, 15.3695543, 75.1243768, 630.71, 0.08899301, -0.221007
MOTB, 68946484, 1, 1, 1, 0.04106495, 0, 2
RCIN, 68946491, 1102, 1927, 1102, 1778, 1255, 1000, 1000, 875, 1000, 1495, 1000, 1000, 875, 875
RCI2, 68946495, 875, 875, 0, 1
RCOU, 68946502, 1000, 1000, 1000, 1000, 0, 0, 0, 0, 1495, 0, 0, 0, 0, 0
RCO2, 68946506, 0, 0, 0, 0
VIBE, 68946528, 0, 0.008110818, 0.007385746, 0.008755146, 0
VIBE, 68946528, 1, 0.05848124, 0.06125874, 0.07449059, 0
CTRL, 68946552, 0.2572201, 0.0002421332, 0.2342123, 0.0002856089, 0.04857625
IMU, 68946587, 0, -0.003948011, -0.01621332, -0.0012187, 0.008052921, 0.2713691, -9.786778, 0, 0, 44.80676, 1, 1, 2022, 2022
IMU, 68946587, 1, -0.0006525926, -0.001569252, 0.0008383419, 0.08901612, 0.2069071, -9.818342, 0, 0, 45, 1, 1, 1998, 2046
DCM, 68948192, 3.049576, -3.250312, 95.21953, 0.04680228, 0.009822197, 0, 0, 0
EAHR, 68948212, 0, 0, 0, 0, 0, 0, 0, 0, 0, 0
FILE, @SYS/threads.txt, 128, 64, PRI=  1 sp=0x240214B0 STACK=288/496\nUART_RX       PRI= 60 sp=0x2
FILE, @SYS/threads.txt, 192, 64, 407B0E8 STACK=880/1200\nOTG1          PRI= 60 sp=0x2407A1A0 STACK
STAK, 68983480, 8, 58, 2480, 1576, io
FILE, @SYS/threads.txt, 256, 64, =480/752\nmonitor       PRI=183 sp=0x2401CE20 STACK=1096/1456\ntim
IMU, 68986453, 0, -0.004489408, -0.01673103, -0.001677662, 0.01446456, 0.2700988, -9.787812, 0, 0, 44.80676, 1, 1, 2022, 2022
IMU, 68986453, 1, -0.000789004, -0.002628807, -0.001350555, 0.0872441, 0.1878335, -9.818671, 0, 0, 45, 1, 1, 1998, 2046
SURF, 68995923, 0, 2, 0, 0, -0.2931709
SURF, 68995933, 1, 2, 0, 0, -0.2931709
FILE, @SYS/threads.txt, 320, 64, er         PRI=181 sp=0x2401E3E0 STACK=1528/1968\nrcout         P
FILE, @SYS/threads.txt, 384, 64, RI=181 sp=0x2401DA00 STACK=680/944\nrcin          PRI=177 sp=0x24
FILE, @SYS/threads.txt, 448, 64, 01D410 STACK=952/1456\nio            PRI= 58 sp=0x2401C430 STACK=
IMU, 69025963, 0, -0.003758278, -0.0153349, -0.002079692, 0.005277446, 0.2719571, -9.784838, 0, 0, 44.80676, 1, 1, 2022, 2022
IMU, 69025963, 1, -0.0009556867, 3.317225E-05, 0.0003270446, 0.09198866, 0.2106389, -9.812921, 0, 0, 45, 1, 1, 1998, 2046
FILE, @SYS/threads.txt, 512, 64, 1576/2480\nstorage       PRI= 59 sp=0x2401DDF0 STACK=904/1456\nUAR
FILE, @SYS/threads.txt, 576, 64, T7         PRI= 60 sp=0x24078FF8 STACK=280/752\nUART5         PRI
POWR, 69045917, 5.000153, 5.033406, 1, 1, 2
MCU, 69045917, 40.97416, 3.349098, 3.341514, 3.355303
BAT, 69045950, 0, 15.89618, 15.96082, 1.072342, 18.56369, 0.2949659, 0, 0.06027817, 99, 1, 0
MAG, 69045962, 0, -30, -405, 164, 31, 0, -44, 0, 0, 0, 1, 69045959
MAG, 69045962, 1, -62, -419, 169, 132, -200, 136, 0, 0, 0, 1, 69045960
SURF, 69045981, 0, 2, 0, 0, -0.2894051
SURF, 69045991, 1, 2, 0, 0, -0.2894051
BARO, 69046011, 0, -0.09375, 630.8463, 93931.45, 41.68, -0.02030645, 69046, 0, 35, 1
CTUN, 69046025, 0, 0, 0, 0.4106495, 0, -0.2112944, -0.09, NaN, 0, 0.08961481, 0, 0
ATT, 69046151, -20.70459, 3.165997, 22.20738, -0.7291159, 93.76743, 93.80813, 3
ANG, 69045550, -20.70459, 3.166252, 22.20738, -0.727991, 93.76743, 93.76742, 0.002499
RATE, 69045563, -109.14, 0.0191286, -0.257219, 99.3614, -0.02093858, 0.2343127, 15.48175, -0.01826626, 0.048633, -0.6689072, -0.3211021, 0, 0
PIDR, 69046175, -1.904833, 0.000333857, -1.905167, -0.2571975, 0, -2.152801E-05, 0, 0, 1, 0.311097, 9
PIDP, 69046179, 1.734207, -0.0003654473, 1.734573, 0.2341673, 0, 0.0001454179, 0, 0, 1, 0.31432, 9
PIDY, 69046184, 0.2702273, -0.0003188064, 0.2701833, 0.048633, 0, 0, 0, 0, 1, 0.0183298, 9
PIDA, 69046191, -0.6689072, -0.6689072, 0, 0, -410.6503, 0, 0, 0, 1, 0, 13
XKF4, 69045704, 0, 0.01, 0, 0.01, 0, 0, 0.006148956, 0.3435315, 0.2352159, 0, 48, 107327, 0, 0
XKF1, 69045704, 0, 3.16, -0.72, 93.8, -0.0149925, 0.003773875, -0.001793823, -0.09456505, -0.3683737, 0.195095, 0.2112944, -0.23, -0.9, -0.1, 630.94
XKF2, 69045704, 0, 0, 0, 0.01, 0, 0, 404, -5, 168, 0, 0, 0, 0, 0, 0
XKF3, 69045704, 0, 0, 0, 0.04, 0, 0.04, 0.14, 0, 0, 0, 0.26, 0, 0, 0.001925013
XKF5, 69045704, 0, 0, 0, 0, 0, 0.21, 0.41, 0, 0, 0.5, 0.0001041166, 0.001463575, 0.003353074
XKFS, 69045704, 0, 0, 0, 0, 0, 0, 1, 0, 1
XKQ, 69045704, 0, 0.6831591, -0.009265432, -0.009802026, 0.730145
XKF4, 69045704, 1, 0.01, 0, 0.01, 0, 0, 0.006134689, 0.3250557, 0.2618738, 0, 48, 107327, 0, 0
XKY0, 69045704, 1, 126.9676, 14.43414, 215.9782, 288.0049, 0.04925827, 72.05003, 144.0061, 0.2000057, 0.1996697, 0.19979, 0.2002006, 0.200334
XKY1, 69045704, 1, -0.006129076, 0.02369868, 0.04569583, 0.02947726, -0.002546858, -0.02449848, -0.03794685, -0.01373651, 0.01466084, 0.008020542
XKF1, 69045704, 1, 3.48, -0.2, 93.52, 0.0002633167, -0.01737303, 0.0005721835, -0.09533614, -0.3536579, 0.1764526, 0.3865107, -0.05, -0.05, -0.01, 630.77
XKF2, 69045704, 1, 0, 0, -0.01, 0, 0, 404, -5, 169, 0, 0, 0, 0, 0, 0
XKF3, 69045704, 1, 0, -0.01, 0.05, 0.01, 0.03, 0.14, 0, 0, 0, 0.22, 0, 0.001016993, 0.001835887
XKFS, 69045704, 1, 0, 0, 0, 0, 0, 1, 0, 1
XKQ, 69045704, 1, 0.6849129, -0.01071657, -0.004600034, 0.7285317
AHR2, 69046281, 3.05, -3.24, 95.21, 630.55, 15.3695543, 75.1243763, 0.6729642, 0.03882796, 0.000568445, 0.738655
POS, 69046287, 15.3695543, 75.1243768, 630.72, 0.09870563, -0.2112944
MOTB, 69046293, 1, 1, 1, 0.04106495, 0, 2
RCIN, 69046300, 1102, 1927, 1102, 1761, 1255, 1000, 1000, 875, 1000, 1495, 1000, 1000, 875, 875
RCI2, 69046304, 875, 875, 0, 1
RCOU, 69046311, 1000, 1000, 1000, 1000, 0, 0, 0, 0, 1495, 0, 0, 0, 0, 0
RCO2, 69046315, 0, 0, 0, 0
VIBE, 69046321, 0, 0.008070091, 0.006940833, 0.00762186, 0
VIBE, 69046321, 1, 0.06325986, 0.06003889, 0.06626833, 0
CTRL, 69046330, 0.2571975, 0.0002016894, 0.2341896, 0.0002445015, 0.04858346
DCM, 69048217, 3.050159, -3.243603, 95.21213, 0.04680228, 0.009813371, 0, 0, 0
EAHR, 69048236, 0, 0, 0, 0, 0, 0, 0, 0, 0, 0
FILE, @SYS/threads.txt, 640, 64, = 60 sp=0x240784B0 STACK=264/752\nUART1         PRI= 60 sp=0x2407
FILE, @SYS/threads.txt, 704, 64, 78E8 STACK=344/752\nUART8         PRI= 60 sp=0x24076D20 STACK=408
IMU, 69066204, 0, -0.003622526, -0.01562667, -0.0008742883, 0.008330781, 0.2720944, -9.786888, 0, 0, 44.32367, 1, 1, 2022, 2022
IMU, 69066204, 1, -0.001210583, 0.002074642, -0.001355725, 0.0826223, 0.1959146, -9.822813, 0, 0, 45, 1, 1, 1998, 2046
FILE, @SYS/threads.txt, 768, 64, /752\nOTG2          PRI= 60 sp=0x24075DD8 STACK=480/752\nUART6    
STAK, 69084075, 9, 59, 1456, 904, storage
FILE, @SYS/threads.txt, 832, 64,      PRI=181 sp=0x24074F58 STACK=336/752\nIOMCU         PRI=183 s
RAD, 69086456, 62, 0, 100, 95, 0, 0, 0
SURF, 69095919, 0, 2, 0, 0, -0.285591
SURF, 69095929, 1, 2, 0, 0, -0.285591
FILE, @SYS/threads.txt, 896, 64, p=0x2406AB30 STACK=920/1456\nlog_io        PRI= 59 sp=0x2406B2C0 
IMU, 69105977, 0, -0.004531005, -0.01696018, -0.001431598, 0.01058925, 0.2742589, -9.788222, 0, 0, 44.80676, 1, 1, 2022, 2022
IMU, 69105977, 1, -0.001588368, -0.002380587, 0.0002205994, 0.09671223, 0.2015809, -9.807969, 0, 0, 45, 1, 1, 1998, 2046
FILE, @SYS/threads.txt, 960, 64, STACK=728/2016\nI2C1          PRI=176 sp=0x2406BBD0 STACK=984/145
FILE, @SYS/threads.txt, 1024, 64, 6\nI2C0          PRI=176 sp=0x2406C4A0 STACK=984/1456\nSPI1       
FILE, @SYS/threads.txt, 1088, 64,    PRI=181 sp=0x24070FC0 STACK=832/1456\nFTP           PRI= 58 sp
FILE, @SYS/threads.txt, 1152, 28, =0x24032968 STACK=1368/2992\n
FMT, 254, 35, IOMC, QHHIIIII, TimeUS,RSErr,Mem,TS,NPkt,Nerr,Nerr2,NDel
IOMC, 69143775, 0, 12896, 69145, 31648, 0, 0, 0
GPS, 69146124, 0, 3, 394186800, 2380, 13, 0.74, 15.3695543, 75.1243763, 638.33, 0.075, 152.4353, -0.014, 0, 1
GPA, 69146124, 0, 1.39, 0.67, 1.73, 0.21, 0, 1, 69138, 200, 560.32, 0, 0
POWR, 69146154, 5.000153, 5.040659, 1, 1, 2
MCU, 69146154, 40.93439, 3.348958, 3.340954, 3.356717
BAT, 69146168, 0, 15.89773, 15.96216, 1.068863, 18.59345, 0.2954391, 0, 0.06027817, 99, 1, 0
MAG, 69146182, 0, -29, -405, 166, 31, 0, -44, 0, 0, 0, 1, 69146176
MAG, 69146182, 1, -65, -417, 177, 132, -200, 136, 0, 0, 0, 1, 69146180
SURF, 69146201, 0, 2, 0, 0, -0.2817599
SURF, 69146217, 1, 2, 0, 0, -0.2817599
BARO, 69146238, 0, -0.04669189, 630.8933, 93930.91, 41.68, -0.1948357, 69146, 0, 35, 1
CTUN, 69146252, 0, 0, 0, 0.4106495, 0, -0.2031617, -0.04, NaN, 0, 0.0994317, 0, 0
ATT, 69146309, -20.70459, 3.164458, 22.20738, -0.7321254, 93.76845, 93.80914, 3
ANG, 69145556, -20.70459, 3.164716, 22.20738, -0.7310016, 93.76845, 93.76845, 0.002505
RATE, 69145571, -109.1338, -0.0218033, -0.2570565, 99.37417, -0.04636535, 0.2342338, 15.48992, 0.02247476, 0.04860964, -0.6689072, -0.02832413, 0, 0
PIDR, 69146328, -1.904749, -0.0003805393, -1.904369, -0.2570898, 0, 3.327861E-05, 0, 0, 1, 0.2814553, 9
PIDP, 69146333, 1.734386, -0.000809228, 1.735196, 0.2342514, 0, -1.757884E-05, 0, 0, 1, 0.2843712, 9
PIDY, 69146337, 0.270303, 0.0003922585, 0.2700536, 0.04860964, 0, 0, 0, 0, 1, 0.01658332, 9
PIDA, 69146341, -0.6689072, -0.6689072, 0, 0, -410.6503, 0, 0, 0, 1, 0, 13
XKF4, 69145725, 0, 0.01, 0, 0.01, 0, 0, 0.00622822, 0.3435315, 0.2352159, 0, 48, 107327, 0, 0
XKF1, 69145725, 0, 3.16, -0.73, 93.8, -0.0150207, 0.003342563, -0.003947363, -0.08397658, -0.3687932, 0.1926206, 0.2031618, -0.23, -0.9, -0.1, 630.94
XKF2, 69145725, 0, 0, 0, 0.01, 0, 0, 404, -5, 168, 0, 0, 0, 0, 0, 0
XKF3, 69145725, 0, 0, 0, 0.04, 0, 0.04, 0.11, 0, 0, 0, 0.21, 0, 0, 0.001925013
XKF5, 69145725, 0, 0, 0, 0, 0, 0.21, 0.41, 0, 0, 0.5, 6.306914E-05, 0.001903884, 0.003070978
XKFS, 69145725, 0, 0, 0, 0, 0, 0, 1, 0, 1
XKQ, 69145725, 0, 0.6831529, -0.009255344, -0.009829854, 0.7301506
XKF4, 69145725, 1, 0.01, 0, 0.01, 0, 0, 0.006213923, 0.3250557, 0.2618738, 0, 48, 107327, 0, 0
XKY0, 69145725, 1, 126.966, 14.43416, 215.9767, 288.0034, 0.04770297, 72.04847, 144.0046, 0.2000057, 0.1996697, 0.19979, 0.2002006, 0.200334
XKY1, 69145725, 1, -0.006129076, 0.02369868, 0.04569583, 0.02947726, -0.002546858, -0.02449848, -0.03794685, -0.01373651, 0.01466084, 0.008020542
XKF1, 69145725, 1, 3.48, -0.19, 93.52, 0.0009273993, -0.01764218, -0.001543533, -0.08363657, -0.3538197, 0.1735917, 0.3783102, -0.05, -0.05, -0.01, 630.77
XKF2, 69145725, 1, 0, 0, -0.01, 0, 0, 404, -5, 169, 0, 0, 0, 0, 0, 0
XKF3, 69145725, 1, 0, -0.01, 0.05, 0.01, 0.03, 0.12, 0, 0, 0, 0.17, 0, 0.001016993, 0.001835887
XKFS, 69145725, 1, 0, 0, 0, 0, 0, 1, 0, 1
XKQ, 69145725, 1, 0.6849291, -0.01075551, -0.004594443, 0.7285158
AHR2, 69146465, 3.04, -3.24, 95.2, 630.53, 15.3695543, 75.1243763, 0.6729965, 0.03880753, 0.0005769246, 0.7386267
POS, 69146471, 15.3695543, 75.1243767, 630.73, 0.1068382, -0.2031618
MOTB, 69146502, 1, 1, 1, 0.04106495, 0, 2
RCIN, 69146509, 1102, 1927, 1102, 1764, 1255, 1000, 1000, 875, 1000, 1495, 1000, 1000, 875, 875
RCI2, 69146514, 875, 875, 0, 1
RCOU, 69146527, 1000, 1000, 1000, 1000, 0, 0, 0, 0, 1495, 0, 0, 0, 0, 0
RCO2, 69146530, 0, 0, 0, 0
VIBE, 69146536, 0, 0.00788183, 0.008422188, 0.007992489, 0
VIBE, 69146536, 1, 0.06293084, 0.06444726, 0.06907342, 0
CTRL, 69146546, 0.257175, 0.0001744877, 0.2342047, 0.0002070266, 0.04859139
IMU, 69146558, 0, -0.004443874, -0.01664277, -0.001465886, 0.01002616, 0.2696353, -9.786473, 0, 0, 44.80676, 1, 1, 2022, 2022
IMU, 69146558, 1, -0.002030226, -0.003565738, -0.0007708428, 0.09198467, 0.2126419, -9.822093, 0, 0, 45, 1, 1, 1998, 2046
DCM, 69148175, 3.049461, -3.240645, 95.207, 0.04639473, 0.01027217, 0, 0, 0
EAHR, 69148243, 0, 0, 0, 0, 0, 0, 0, 0, 0, 0
FILE, @SYS/timers.txt, 0, 64, TIMERV1\nTIM5  CLK= 200Mhz MODE=  PWM FREQ=       7 TGT=       8\n
FILE, @SYS/timers.txt, 64, 64, TIM4  CLK= 200Mhz MODE=  PWM FREQ=       7 TGT=       8\nTIM1  CL
STAK, 69184052, 10, 60, 752, 280, UART7
IMU, 69186428, 0, -0.00408306, -0.0160456, -0.00144323, 0.007761193, 0.2702986, -9.785642, 0, 0, 44.80676, 1, 1, 2022, 2022
IMU, 69186428, 1, -0.001557829, 0.0003212973, -0.0004989426, 0.09043685, 0.1949013, -9.833136, 0, 0, 45, 1, 1, 1998, 2046
FILE, @SYS/timers.txt, 128, 48, K= 200Mhz MODE=  PWM FREQ=       7 TGT=       8\n
SURF, 69195942, 0, 2, 0, 0, -0.2779219
SURF, 69195953, 1, 2, 0, 0, -0.2779219
FILE, @ROMFS/hwdef.dat, 0, 64, MCU STM32H7xx STM32H743xx\nOSCILLATOR_HZ 16000000\nSTM32_ST_USE_TI
IMU, 69226006, 0, -0.004205202, -0.01715794, -0.001900396, 0.0116773, 0.2712395, -9.788443, 0, 0, 44.80676, 1, 1, 2022, 2022
IMU, 69226006, 1, -0.001844593, -0.002411595, 0.0001553792, 0.1008179, 0.2099372, -9.809234, 0, 0, 45, 1, 1, 1998, 2046
FILE, @ROMFS/hwdef.dat, 64, 64, MER 2\nUSB_VENDOR 0x3162\nUSB_PRODUCT 0x0053\nUSB_STRING_MANUFACTUR
FILE, @ROMFS/hwdef.dat, 128, 64, ER "Holybro"\nAPJ_BOARD_ID 56\nFLASH_RESERVE_START_KB 128\nenv USE_
POWR, 69245957, 5.000958, 5.038241, 1, 1, 2
MCU, 69245957, 40.93439, 3.349098, 3.342215, 3.355162
BAT, 69245972, 0, 15.88959, 15.95365, 1.062821, 18.62292, 0.2959073, 0, 0.06027817, 99, 1, 0
MAG, 69245983, 0, -30, -405, 165, 31, 0, -44, 0, 0, 0, 1, 69245980
MAG, 69245983, 1, -67, -420, 175, 132, -200, 136, 0, 0, 0, 1, 69245981
SURF, 69246003, 0, 2, 0, 0, -0.274088
SURF, 69246012, 1, 2, 0, 0, -0.274088
BARO, 69246097, 0, -0.01434326, 630.9257, 93930.55, 41.69, -0.1202965, 69246, 0, 35, 1
CTUN, 69246111, 0, 0, 0, 0.4106495, 0, -0.1955956, -0.01, NaN, 0, 0.1094317, 0, 0
ATT, 69246173, -20.7046, 3.161323, 22.20737, -0.736968, 93.768, 93.80865, 3
ANG, 69245571, -20.7046, 3.161584, 22.20737, -0.7358463, 93.768, 93.768, 0.00252
RATE, 69245584, -109.1211, 0.008334992, -0.2572025, 99.39452, -0.004916669, 0.2339944, 15.49742, 0.001433899, 0.04862593, -0.6689072, -0.342083, 0, 0
PIDR, 69246193, -1.904536, 0.0001454731, -1.904682, -0.257132, 0, -7.050052E-05, 0, 0, 1, 0.2546356, 9
PIDP, 69246197, 1.734715, -8.581206E-05, 1.734801, 0.2341981, 0, -0.0002037278, 0, 0, 1, 0.2572736, 9
PIDY, 69246202, 0.270368, 2.502627E-05, 0.270144, 0.04862593, 0, 0, 0, 0, 1, 0.0150031, 9
PIDA, 69246206, -0.6689072, -0.6689072, 0, 0, -410.6503, 0, 0, 0, 1, 0, 13
XKF4, 69245714, 0, 0.02, 0, 0.01, 0, 0, 0.006147974, 0.3435315, 0.2352159, 0, 48, 107327, 0, 0
XKY0, 69245714, 0, 179.891, 15.03525, 215.9998, 287.9998, 359.9998, 71.99977, 143.9998, 0.2, 0.2, 0.2, 0.2, 0.2
XKY1, 69245714, 0, 0, 0, 0, 0, 0, 0, 0, 0, 0, 0
XKF1, 69245714, 0, 3.16, -0.73, 93.8, -0.01345598, 0.00476518, -0.005731497, -0.07332011, -0.3672929, 0.1921001, 0.1955956, -0.23, -0.9, -0.1, 630.94
XKF2, 69245714, 0, 0, 0, 0.01, 0, 0, 404, -5, 168, 0, 0, 0, 0, 0, 0
XKF3, 69245714, 0, -0.05, -0.05, 0.01, 0, 0.05, 0.15, 0, 0, 0, 0.35, 0, 0, 0.001925013
XKF5, 69245714, 0, 0, 0, 0, 0, 0.22, 0.41, 0, 0, 0.5, 0.0001736332, 0.004841979, 0.006412457
XKFS, 69245714, 0, 0, 0, 0, 0, 0, 1, 0, 1
XKQ, 69245714, 0, 0.6831561, -0.00924322, -0.009878659, 0.730147
XKF4, 69245714, 1, 0.03, 0, 0.01, 0, 0, 0.006133866, 0.3250557, 0.2618738, 0, 48, 107327, 0, 0
XKY0, 69245714, 1, 82.29832, 14.27753, 215.8573, 288.1116, 0.2340576, 72.05547, 143.8227, 0.1986534, 0.1982466, 0.200259, 0.2019196, 0.2009214
XKY1, 69245714, 1, -0.0643728, -0.02830343, -0.0002003187, -0.01892396, -0.05855415, -0.09156555, -0.1094078, -0.08059375, -0.0449881, -0.05177402
XKF1, 69245714, 1, 3.47, -0.19, 93.52, 0.002961166, -0.01613921, -0.003507273, -0.07355306, -0.3526448, 0.1735034, 0.3706428, -0.05, -0.05, -0.01, 630.77
XKF2, 69245714, 1, 0, 0, -0.01, 0, 0, 404, -5, 169, 0, 0, 0, 0, 0, 0
XKF3, 69245714, 1, -0.04, -0.08, 0.01, 0.01, 0.03, 0.16, 0, 0, 0, 0.31, 0, 0.001016993, 0.001835887
XKFS, 69245714, 1, 0, 0, 0, 0, 0, 1, 0, 1
XKQ, 69245714, 1, 0.6849481, -0.01081597, -0.0046093, 0.728497
AHR2, 69246323, 3.05, -3.23, 95.19, 630.58, 15.3695543, 75.1243764, 0.6730448, 0.03878433, 0.0006052758, 0.7385839
POS, 69246342, 15.3695543, 75.1243767, 630.74, 0.1144044, -0.1955956
MOTB, 69246348, 1, 1, 1, 0.04106495, 0, 2
RCIN, 69246355, 1102, 1927, 1102, 1927, 1255, 1000, 1000, 875, 1000, 1495, 1000, 1000, 875, 875
RCI2, 69246359, 875, 875, 0, 1
RCOU, 69246366, 1000, 1000, 1000, 1000, 0, 0, 0, 0, 1495, 0, 0, 0, 0, 0
RCO2, 69246388, 0, 0, 0, 0
VIBE, 69246394, 0, 0.007035524, 0.008271487, 0.007551147, 0
VIBE, 69246394, 1, 0.06245093, 0.06484834, 0.06665405, 0
CTRL, 69246404, 0.2571601, 0.0001475511, 0.2342155, 0.0001824553, 0.04859526
DCM, 69248199, 3.050382, -3.236576, 95.19978, 0.04639473, 0.00996867, 0, 0, 0
EAHR, 69248218, 0, 0, 0, 0, 0, 0, 0, 0, 0, 0
FILE, @ROMFS/hwdef.dat, 192, 64, ALT_RAM_MAP 1\nFLASH_SIZE_KB 2048\nenv OPTIMIZE -O2\nSERIAL_ORDER O
IMU, 69266271, 0, -0.003635455, -0.01586744, -0.001475046, 0.01253643, 0.2720957, -9.790815, 0, 0, 44.80676, 1, 1, 2022, 2022
IMU, 69266271, 1, 8.03805E-05, -0.0008448481, 0.0001938115, 0.09616552, 0.2206551, -9.840932, 0, 0, 45, 1, 1, 1998, 2046
FILE, @ROMFS/hwdef.dat, 256, 64, TG1 UART7 UART5 USART1 UART8 USART2 USART3 OTG2\nPA11 OTG_FS_DM O
FILE, @ROMFS/hwdef.dat, 320, 64, TG1\nPA12 OTG_FS_DP OTG1\nPA9 VBUS INPUT OPENDRAIN\nPA13 JTMS-SWDIO
STAK, 69285033, 11, 60, 752, 264, UART5
FILE, @ROMFS/hwdef.dat, 384, 64,  SWD\nPA14 JTCK-SWCLK SWD\nPE8  UART7_TX UART7\nPE7  UART7_RX UART7
SURF, 69295935, 0, 2, 0, 0, -0.2702552
SURF, 69295945, 1, 2, 0, 0, -0.2702552
IMU, 69306006, 0, -0.004084242, -0.01582681, -0.001555006, 0.008317706, 0.2724664, -9.789865, 0, 0, 44.80676, 1, 1, 2022, 2022
IMU, 69306006, 1, -0.0010247, -0.003477184, -0.0004685749, 0.08748914, 0.1997095, -9.820766, 0, 0, 45, 1, 1, 1998, 2046
FILE, @ROMFS/hwdef.dat, 448, 64, \nPE9  UART7_RTS UART7 LOW PULLDOWN\nPE10 UART7_CTS UART7\nPC12 UAR
FILE, @ROMFS/hwdef.dat, 512, 64, T5_TX UART5\nPD2 UART5_RX UART5\nPC8 UART5_RTS UART5 LOW PULLDOWN\n
FILE, @ROMFS/hwdef.dat, 576, 64, PC9 UART5_CTS UART5\nPB6  USART1_TX USART1\nPA10 USART1_RX USART1\n
FILE, @ROMFS/hwdef.dat, 640, 64, PE1 UART8_TX UART8\nPE0 UART8_RX UART8\nPD5 USART2_TX USART2\nPA3 U
POWR, 69345950, 5.000656, 5.038241, 1, 1, 2
MCU, 69345950, 40.93439, 3.349098, 3.342355, 3.356292
BAT, 69345966, 0, 15.89032, 15.95512, 1.075088, 18.65278, 0.2963819, 0, 0.06027817, 99, 1, 0
MAG, 69345978, 0, -29, -404, 167, 31, 0, -44, 0, 0, 0, 1, 69345974
MAG, 69345978, 1, -65, -419, 175, 132, -200, 136, 0, 0, 0, 1, 69345976
SURF, 69345997, 0, 2, 0, 0, -0.2664397
SURF, 69346006, 1, 2, 0, 0, -0.2664397
BARO, 69346030, 0, -0.1113892, 630.8286, 93931.65, 41.69, 0.04055023, 69346, 0, 35, 1
CTUN, 69346045, 0, 0, 0, 0.4106495, 0, -0.1884142, -0.11, NaN, 0, 0.1194317, 0, 0
DU32, 69346114, 7, 4252120
TERR, 69346149, 2, 15.3695543, 75.1243767, 100, 630.6306, 0.1194317, 0, 336, -16.28414
ATT, 69346199, -20.7046, 3.158818, 22.20738, -0.7380807, 93.76793, 93.80855, 3
ANG, 69345551, -20.7046, 3.15908, 22.20738, -0.7369608, 93.76793, 93.76793, 0.002497
RATE, 69345565, -109.1106, 0.01742784, -0.2571599, 99.39831, 0.02787656, 0.234119, 15.49757, 0.0370178, 0.0486259, -0.6689072, 0.3740311, 0, 0
PIDR, 69346218, -1.90435, 0.0003041732, -1.904654, -0.2571283, 0, -3.153632E-05, 0, 0, 1, 0.2303796, 9
PIDP, 69346222, 1.734846, 0.0004865378, 1.734359, 0.2341385, 0, -1.94933E-05, 0, 0, 1, 0.2327664, 9
PIDY, 69346228, 0.2704745, 0.0006460826, 0.2701439, 0.0486259, 0, 0, 0, 0, 1, 0.01357394, 9
PIDA, 69346232, -0.6689072, -0.6689072, 0, 0, -410.6503, 0, 0, 0, 1, 0, 13
XKF4, 69345708, 0, 0.02, 0, 0.01, 0, 0, 0.006226729, 0.3435315, 0.2352159, 0, 48, 107327, 0, 0
XKY0, 69345708, 0, 179.8827, 15.03488, 216.001, 288.001, 0.00103103, 72.00103, 144.001, 0.2, 0.2, 0.2, 0.2, 0.2
XKY1, 69345708, 0, 0, 0, 0, 0, 0, 0, 0, 0, 0, 0
XKF1, 69345708, 0, 3.15, -0.73, 93.8, -0.01261795, 0.006230736, -0.007714717, -0.06888115, -0.3665375, 0.1922858, 0.1884142, -0.23, -0.9, -0.1, 630.94
XKF2, 69345708, 0, 0, 0, 0.01, 0, 0, 404, -5, 168, 0, 0, 0, 0, 0, 0
XKF3, 69345708, 0, -0.05, -0.05, 0.01, 0, 0.05, 0.18, 0, 0, 0, 0.16, 0, 0, 0.001925013
XKF5, 69345708, 0, 0, 0, 0, 0, 0.22, 0.41, 0, 0, 0.5, 0.0001039179, 0.004423182, 0.007372458
XKFS, 69345708, 0, 0, 0, 0, 0, 0, 1, 0, 1
XKQ, 69345708, 0, 0.6831567, -0.009251069, -0.009901242, 0.7301461
XKF4, 69345708, 1, 0.03, 0, 0.01, 0, 0, 0.00621317, 0.3250557, 0.2618738, 0, 48, 107327, 0, 0
XKY0, 69345708, 1, 82.29693, 14.27755, 215.8559, 288.1102, 0.232678, 72.05408, 143.8214, 0.1986534, 0.1982466, 0.200259, 0.2019196, 0.2009214
XKY1, 69345708, 1, -0.0643728, -0.02830343, -0.0002003187, -0.01892396, -0.05855415, -0.09156555, -0.1094078, -0.08059375, -0.0449881, -0.05177402
XKF1, 69345708, 1, 3.47, -0.19, 93.52, 0.004167201, -0.01587611, -0.005715147, -0.06949903, -0.3515508, 0.1732687, 0.3633862, -0.05, -0.05, -0.01, 630.77
XKF2, 69345708, 1, 0, 0, -0.01, 0, 0, 404, -5, 169, 0, 0, 0, 0, 0, 0
XKF3, 69345708, 1, -0.04, -0.08, 0.01, 0.01, 0.03, 0.18, 0, 0, 0, 0.12, 0, 0.001016993, 0.001835887
XKFS, 69345708, 1, 0, 0, 0, 0, 0, 1, 0, 1
XKQ, 69345708, 1, 0.6849405, -0.01081851, -0.004646725, 0.7285039
AHR2, 69346335, 3.05, -3.22, 95.19, 630.61, 15.3695544, 75.1243764, 0.6730804, 0.03873633, 0.0006570812, 0.7385538
POS, 69346341, 15.3695543, 75.1243767, 630.75, 0.1215858, -0.1884142
MOTB, 69346347, 1, 1, 1, 0.04106495, 0, 2
RCIN, 69346354, 1102, 1927, 1102, 1927, 1255, 1000, 1000, 875, 1000, 1495, 1000, 1000, 875, 875
RCI2, 69346358, 875, 875, 0, 1
RCOU, 69346366, 1000, 1000, 1000, 1000, 0, 0, 0, 0, 1495, 0, 0, 0, 0, 0
RCO2, 69346369, 0, 0, 0, 0
VIBE, 69346375, 0, 0.007114235, 0.007222211, 0.008657298, 0
VIBE, 69346375, 1, 0.05978673, 0.06542758, 0.06945884, 0
CTRL, 69346385, 0.2571445, 0.0001259943, 0.2342059, 0.0001657164, 0.04860621
IMU, 69346412, 0, -0.003753416, -0.01534691, -0.0012105, 0.007757266, 0.2718027, -9.79021, 0, 0, 44.80676, 1, 1, 2022, 2022
IMU, 69346412, 1, -0.002342941, -0.001264233, 0.000261271, 0.09229288, 0.20838, -9.828146, 0, 0, 45, 1, 1, 1998, 2046
UART, 69346545, 1, 1881, 244
