FMT, 128, 89, FMT, BBnNZ, Type,Length,Name,Format,Columns
FMT, 119, 76, UNIT, QbZ, TimeUS,Id,Label
FMT, 118, 44, FMTU, QBNN, TimeUS,FmtType,UnitIds,MultIds
FMT, 120, 20, MULT, Qbd, TimeUS,Id,Mult
FMT, 32, 35, PARM, QNff, TimeUS,Name,Value,Default
FMT, 94, 51, GPS, QBBIHBcLLeffffB, TimeUS,I,Status,GMS,GWk,NSats,HDop,Lat,Lng,Alt,Spd,GCrs,VZ,Yaw,U
FMT, 95, 39, GPA, QBCCCCfBIHeHH, TimeUS,I,VDop,HAcc,VAcc,SAcc,YAcc,VV,SMS,Delta,AEl,RTCMFU,RTCMFD
FMT, 99, 22, UBX1, QBHBBHI, TimeUS,Instance,noisePerMS,jamInd,aPower,agcCnt,config
FMT, 100, 16, UBX2, QBbBbB, TimeUS,Instance,ofsI,magI,ofsQ,magQ
FMT, 96, 42, GRAW, QIHBBddfBbB, TimeUS,WkMS,Week,numSV,sv,cpMes,prMes,doMes,mesQI,cno,lli
FMT, 97, 24, GRXH, QdHbBB, TimeUS,rcvTime,week,leapS,numMeas,recStat
FMT, 98, 41, GRXS, QddfBBBHBBBBB, TimeUS,prMes,cpMes,doMes,gnss,sv,freq,lock,cno,prD,cpD,doD,trk
FMT, 101, 23, SBPH, QIII, TimeUS,CrcError,LastInject,IARhyp
FMT, 102, 67, SBRH, QQQQQQQQ, TimeUS,msg_flag,1,2,3,4,5,6
FMT, 103, 123, SBRM, QQQQQQQQQQQQQQQ, TimeUS,msg_flag,1,2,3,4,5,6,7,8,9,10,11,12,13
FMT, 104, 23, SBRE, QHIiBB, TimeUS,GWk,GMS,ns_residual,level,quality
FMT, 59, 75, MSG, QZ, TimeUS,Message
FMT, 60, 39, RCIN, QHHHHHHHHHHHHHH, TimeUS,C1,C2,C3,C4,C5,C6,C7,C8,C9,C10,C11,C12,C13,C14
FMT, 61, 18, RCI2, QHHHB, TimeUS,C15,C16,OMask,Flags
FMT, 62, 39, RCOU, QHHHHHHHHHHHHHH, TimeUS,C1,C2,C3,C4,C5,C6,C7,C8,C9,C10,C11,C12,C13,C14
FMT, 207, 19, RCO2, QHHHH, TimeUS,C15,C16,C17,C18
FMT, 208, 39, RCO3, QHHHHHHHHHHHHHH, TimeUS,C19,C20,C21,C22,C23,C24,C25,C26,C27,C28,C29,C30,C31,C32
FMT, 63, 19, RSSI, Qff, TimeUS,RXRSSI,RXLQ
FMT, 64, 43, BARO, QBfffcfIffB, TimeUS,I,Alt,AltAMSL,Press,Temp,CRt,SMS,Offset,GndTemp,Health
FMT, 65, 24, BARD, QBfff, TimeUS,I,DynPrX,DynPrY,DynPrZ
FMT, 66, 25, CANF, QBIBBBBBBBBB, TimeUS,Bus,Id,DLC,B0,B1,B2,B3,B4,B5,B6,B7
FMT, 67, 81, CAFD, QBIBQQQQQQQQ, TimeUS,Bus,Id,DLC,D0,D1,D2,D3,D4,D5,D6,D7
FMT, 196, 50, PL, QBBfffffffIIB, TimeUS,Heal,TAcq,pX,pY,vX,vY,mX,mY,mZ,LastMeasMS,EKFOutl,Est
FMT, 68, 24, POWR, QffHHB, TimeUS,Vcc,VServo,Flags,AccFlags,Safety
FMT, 69, 27, MCU, Qffff, TimeUS,MTemp,MVolt,MVmin,MVmax
FMT, 93, 46, CMD, QHHHffffLLfB, TimeUS,CTot,CNum,CId,Prm1,Prm2,Prm3,Prm4,Lat,Lng,Alt,Frame
FMT, 92, 46, MISE, QHHHffffLLfB, TimeUS,CTot,CNum,CId,Prm1,Prm2,Prm3,Prm4,Lat,Lng,Alt,Frame
FMT, 78, 48, MAVC, QBBBBBHffffiifBB, TimeUS,TS,TC,SS,SC,Fr,Cmd,P1,P2,P3,P4,X,Y,Z,Res,WL
FMT, 79, 20, RAD, QBBBBBHH, TimeUS,RSSI,RemRSSI,TxBuf,Noise,RemNoise,RxErrors,Fixed
FMT, 81, 46, CAM, QBHIHLLeeeccC, TimeUS,I,Img,GPSTime,GPSWeek,Lat,Lng,Alt,RelAlt,GPSAlt,R,P,Y
FMT, 82, 46, TRIG, QBHIHLLeeeccC, TimeUS,I,Img,GPSTime,GPSWeek,Lat,Lng,Alt,RelAlt,GPSAlt,R,P,Y
FMT, 83, 48, MNT, QBfffffffff, TimeUS,I,DRoll,Roll,DPitch,Pitch,DYawB,YawB,DYawE,YawE,Dist
FMT, 114, 41, ARSP, QBffcffBBffB, TimeUS,I,Airspeed,DiffPress,Temp,RawPress,Offset,U,H,Hp,TR,Pri
FMT, 88, 41, BAT, QBfffffcfBBB, TimeUS,Inst,Volt,VoltR,Curr,CurrTot,EnrgTot,Temp,Res,RemPct,H,SH
FMT, 89, 40, BCL, QBfHHHHHHHHHHHH, TimeUS,Instance,Volt,V1,V2,V3,V4,V5,V6,V7,V8,V9,V10,V11,V12
FMT, 113, 35, MAG, QBhhhhhhhhhBI, TimeUS,I,MagX,MagY,MagZ,OfsX,OfsY,OfsZ,MOX,MOY,MOZ,Health,S
FMT, 122, 14, MODE, QMBB, TimeUS,Mode,ModeNum,Rsn
FMT, 116, 17, RFND, QBCBBb, TimeUS,Instance,Dist,Stat,Orient,Quality
FMT, 117, 36, DMS, QIIIIBBBBBBBBB, TimeUS,N,Dp,RT,RS,Fa,Fmn,Fmx,Pa,Pmn,Pmx,Sa,Smn,Smx
FMT, 174, 41, BCN, QBBfffffff, TimeUS,Health,Cnt,D0,D1,D2,D3,PosX,PosY,PosZ
FMT, 175, 57, PRX, QBBfffffffffff, TimeUS,Layer,He,D0,D45,D90,D135,D180,D225,D270,D315,DUp,CAn,CDis
FMT, 176, 44, PRXR, QBffffffff, TimeUS,Layer,D0,D45,D90,D135,D180,D225,D270,D315
FMT, 179, 61, PM, QHHHIIHHIIIIIIQ, TimeUS,LR,NLon,NL,MaxT,Mem,Load,ErrL,InE,ErC,SPIC,I2CC,I2CI,Ex,R
FMT, 178, 29, SRTL, QBHHBfff, TimeUS,Active,NumPts,MaxPts,Action,N,E,D
FMT, 170, 48, OABR, QBBHHHBfLLiLLi, TimeUS,Type,Act,DYaw,Yaw,DP,RChg,Mar,DLt,DLg,DAlt,OLt,OLg,OAlt
FMT, 171, 31, OADJ, QBBBBLLLL, TimeUS,State,Err,CurrPoint,TotPoints,DLat,DLng,OALat,OALng
FMT, 172, 37, SA, QBffffffB, TimeUS,State,DVelX,DVelY,DVelZ,MVelX,MVelY,MVelZ,Back
FMT, 173, 21, OAVG, QBBLL, TimeUS,version,point_num,Lat,Lon
FMT, 77, 45, SIM, QccCfLLffff, TimeUS,Roll,Pitch,Yaw,Alt,Lat,Lng,Q1,Q2,Q3,Q4
FMT, 84, 38, TERR, QBLLHffHHf, TimeUS,Status,Lat,Lng,Spacing,TerrH,CHeight,Pending,Loaded,ROfs
FMT, 86, 40, ESC, QBffffcfcf, TimeUS,Instance,RPM,RawRPM,Volt,Curr,Temp,CTot,MotTemp,Err
FMT, 87, 15, EDT2, QBBBB, TimeUS,Instance,Stress,MaxStress,Status
FMT, 85, 46, CSRV, QBfffBfffffB, TimeUS,Id,Pos,Force,Speed,Pow,PosCmd,V,A,MotT,PCBT,Err
FMT, 105, 52, PIDR, QffffffffffB, TimeUS,Tar,Act,Err,P,I,D,FF,DFF,Dmod,SRate,Flags
FMT, 106, 52, PIDP, QffffffffffB, TimeUS,Tar,Act,Err,P,I,D,FF,DFF,Dmod,SRate,Flags
FMT, 107, 52, PIDY, QffffffffffB, TimeUS,Tar,Act,Err,P,I,D,FF,DFF,Dmod,SRate,Flags
FMT, 108, 52, PIDA, QffffffffffB, TimeUS,Tar,Act,Err,P,I,D,FF,DFF,Dmod,SRate,Flags
FMT, 109, 52, PIDS, QffffffffffB, TimeUS,Tar,Act,Err,P,I,D,FF,DFF,Dmod,SRate,Flags
FMT, 110, 52, PIDN, QffffffffffB, TimeUS,Tar,Act,Err,P,I,D,FF,DFF,Dmod,SRate,Flags
FMT, 111, 52, PIDE, QffffffffffB, TimeUS,Tar,Act,Err,P,I,D,FF,DFF,Dmod,SRate,Flags
FMT, 112, 56, DSTL, QBfLLeccfeffff, TimeUS,Stg,THdg,Lat,Lng,Alt,XT,Travel,L1I,Loiter,Des,P,I,D
FMT, 161, 32, ACC, QBQfff, TimeUS,I,SampleUS,AccX,AccY,AccZ
FMT, 162, 32, GYR, QBQfff, TimeUS,I,SampleUS,GyrX,GyrY,GyrZ
FMT, 163, 54, IMU, QBffffffIIfBBHH, TimeUS,I,GyrX,GyrY,GyrZ,AccX,AccY,AccZ,EG,EA,T,GH,AH,GHz,AHz
FMT, 166, 28, VIBE, QBfffI, TimeUS,IMU,VibeX,VibeY,VibeZ,Clip
FMT, 164, 31, ISBH, QHBBHHQf, TimeUS,N,type,instance,mul,smp_cnt,SampleUS,smp_rate
FMT, 165, 207, ISBD, QHHaaa, TimeUS,N,seqno,x,y,z
FMT, 129, 15, RFRH, QI, TimeUS,TF
FMT, 130, 5, RFRF, BB, FTypes,Slow
FMT, 138, 38, RFRN, IIIfIfffBBB, HLat,HLon,HAlt,E2T,AM,TX,TY,TZ,VC,EKT,Flags
FMT, 131, 4, REV2, B, Event
FMT, 132, 15, RSO2, III, Lat,Lon,Alt
FMT, 133, 11, RWA2, ff, Airspeed,uncertainty
FMT, 134, 4, REV3, B, Event
FMT, 135, 15, RSO3, III, Lat,Lon,Alt
FMT, 136, 11, RWA3, ff, Airspeed,Uncertainty
FMT, 137, 16, REY3, ffIB, yawangle,yawangleerr,timestamp_ms,type
FMT, 139, 13, RISH, HBBfBB, LR,PG,PA,LD,AC,GC
FMT, 140, 37, RISI, ffffffffBB, DVX,DVY,DVZ,DAX,DAY,DAZ,DVDT,DADT,Flags,I
FMT, 148, 5, RASH, BB, Primary,NumInst
FMT, 149, 14, RASI, fIBBB, pd,UpdateMS,H,Use,I
FMT, 141, 5, RBRH, BB, Primary,NumInst
FMT, 142, 13, RBRI, IfBB, LastUpdate,Alt,H,I
FMT, 143, 8, RRNH, hhB, GCl,MaxD,NumSensors
FMT, 144, 20, RRNI, fffHBBB, PX,PY,PZ,Dist,Orient,Status,I
FMT, 145, 5, RGPH, BB, NumInst,Primary
FMT, 146, 23, RGPI, ffffBBBB, OX,OY,OZ,Lg,Flags,Stat,NSats,I
FMT, 147, 58, RGPJ, IffffffIiiiffHB, TS,VX,VY,VZ,SA,Y,YA,YT,Lat,Lon,Alt,HA,VA,HD,I
FMT, 153, 14, RMGH, fBBBBBBB, Dec,Avail,NumInst,AutoDec,NumEna,LOE,C,FUsable
FMT, 154, 35, RMGI, IffffffBBBB, LU,OX,OY,OZ,FX,FY,FZ,UFY,H,HSF,I
FMT, 150, 33, RBCH, ffffiiiBB, PX,PY,PZ,AE,OLat,OLng,OAlt,Flags,NumInst
FMT, 151, 25, RBCI, IffffBB, LU,PX,PY,PZ,Dist,H,I
FMT, 152, 21, RVOH, fffIBB, OX,OY,OZ,Del,H,Ena
FMT, 155, 40, ROFH, ffffIffffB, FX,FY,GX,GY,Tms,PX,PY,PZ,HgtOvr,Qual
FMT, 156, 49, REPH, fffffffffIIH, PX,PY,PZ,Q1,Q2,Q3,Q4,PEr,AEr,TS,RT,D
FMT, 157, 19, RSLL, IIfI, Lat,Lng,PosAccSD,TS
FMT, 158, 25, REVH, ffffIH, VX,VY,VZ,Er,TS,D
FMT, 159, 31, RWOH, ffIffff, DA,DT,TS,PX,PY,PZ,R
FMT, 160, 53, RBOH, ffffffffIfffH, Q,DPX,DPY,DPZ,DAX,DAY,DAZ,DT,TS,OX,OY,OZ,D
FMT, 43, 37, XKF0, QBBccCCcccccccc, TimeUS,C,ID,rng,innov,SIV,TR,BPN,BPE,BPD,OFH,OFL,OFN,OFE,OFD
FMT, 44, 56, XKF1, QBccCfffffffccce, TimeUS,C,Roll,Pitch,Yaw,VN,VE,VD,dPD,PN,PE,PD,GX,GY,GZ,OH
FMT, 45, 46, XKF2, QBccccchhhhhhfff, TimeUS,C,AX,AY,AZ,VWN,VWE,MN,ME,MD,MX,MY,MZ,IDX,IDY,IS
FMT, 46, 42, XKF3, QBcccccchhhccff, TimeUS,C,IVN,IVE,IVD,IPN,IPE,IPD,IMX,IMY,IMZ,IYAW,IVT,RErr,ErSc
FMT, 47, 44, XKF4, QBcccccfffHBIHb, TimeUS,C,SV,SP,SH,SM,SVT,errRP,OFN,OFE,FS,TS,SS,GPS,PI
FMT, 48, 41, XKF5, QBBhhhcccCCfff, TimeUS,C,NI,FIX,FIY,AFI,HAGL,offset,RI,rng,Herr,eAng,eVel,ePos
FMT, 49, 36, XKFD, QBffffff, TimeUS,C,IX,IY,IZ,IVX,IVY,IVZ
FMT, 50, 29, XKFM, QBBffff, TimeUS,C,OGNM,GLR,ALR,GDR,ADR
FMT, 51, 20, XKFS, QBBBBBBBBB, TimeUS,C,MI,BI,GI,AI,SS,GPS_GTA,GPS_CHK_WAIT,MAG_FUSION
FMT, 52, 28, XKQ, QBffff, TimeUS,C,Q1,Q2,Q3,Q4
FMT, 53, 48, XKT, QBIffffffff, TimeUS,C,Cnt,IMUMin,IMUMax,EKFMin,EKFMax,AngMin,AngMax,VMin,VMax
FMT, 54, 20, XKTV, QBff, TimeUS,C,TVS,TVD
FMT, 55, 60, XKV1, QBffffffffffff, TimeUS,C,V00,V01,V02,V03,V04,V05,V06,V07,V08,V09,V10,V11
FMT, 56, 60, XKV2, QBffffffffffff, TimeUS,C,V12,V13,V14,V15,V16,V17,V18,V19,V20,V21,V22,V23
FMT, 57, 60, XKY0, QBffffffffffff, TimeUS,C,YC,YCS,Y0,Y1,Y2,Y3,Y4,W0,W1,W2,W3,W4
FMT, 58, 52, XKY1, QBffffffffff, TimeUS,C,IVN0,IVN1,IVN2,IVN3,IVN4,IVE0,IVE1,IVE2,IVE3,IVE4
FMT, 41, 60, NKY0, QBffffffffffff, TimeUS,C,YC,YCS,Y0,Y1,Y2,Y3,Y4,W0,W1,W2,W3,W4
FMT, 42, 52, NKY1, QBffffffffff, TimeUS,C,IVN0,IVN1,IVN2,IVN3,IVN4,IVE0,IVE1,IVE2,IVE3,IVE4
FMT, 70, 45, AHR2, QccCfLLffff, TimeUS,Roll,Pitch,Yaw,Alt,Lat,Lng,Q1,Q2,Q3,Q4
FMT, 71, 19, AOA, Qff, TimeUS,AOA,SSA
FMT, 72, 36, ATT, QffffffB, TimeUS,DesRoll,Roll,DesPitch,Pitch,DesYaw,Yaw,AEKF
FMT, 73, 24, ORGN, QBLLe, TimeUS,Type,Lat,Lng,Alt
FMT, 74, 31, POS, QLLfff, TimeUS,Lat,Lng,Alt,RelHomeAlt,RelOriginAlt
FMT, 76, 35, ATSC, Qffffff, TimeUS,AngPScX,AngPScY,AngPScZ,PDScX,PDScY,PDScZ
FMT, 204, 51, VSTB, Qffffffffff, TimeUS,GyrX,GyrY,GyrZ,AccX,AccY,AccZ,Q1,Q2,Q3,Q4
FMT, 90, 38, MON, QIbIHHHHHII, TimeUS,Dly,Tsk,IErr,IErrCnt,IErrLn,MM,MC,SmLn,SPICnt,I2CCnt
FMT, 91, 47, WDOG, QbIHHHHHHHIBIIn, TimeUS,Tsk,IE,IEC,IEL,MvMsg,MvCmd,SmLn,FL,FT,FA,FP,ICSR,LR,TN
FMT, 210, 20, UART, QBff, TimeUS,I,Tx,Rx
FMT, 115, 21, RPM, QBffB, TimeUS,I,RPM,Qual,H
FMT, 209, 27, FNCE, QBBBLLBf, TimeUS,Tot,Seq,Type,Lat,Lng,Count,Radius
FMT, 177, 33, DSF, QIHIIII, TimeUS,Dp,Blk,Bytes,FMn,FMx,FAv
FMT, 121, 24, RALY, QBBLLhB, TimeUS,Tot,Seq,Lat,Lng,Alt,Flags
FMT, 183, 23, MAV, QBHHHBHH, TimeUS,chan,txp,rxp,rxdp,flags,ss,tf
FMT, 167, 43, VISO, Qffffffff, TimeUS,dt,AngDX,AngDY,AngDZ,PosDX,PosDY,PosDZ,conf
FMT, 168, 58, VISP, QQIffffffffBBb, TimeUS,RTimeUS,CTimeMS,PX,PY,PZ,R,P,Y,PErr,AErr,Rst,Ign,Q
FMT, 169, 42, VISV, QQIffffBBb, TimeUS,RTimeUS,CTimeMS,VX,VY,VZ,VErr,Rst,Ign,Q
FMT, 180, 28, OF, QBffff, TimeUS,Qual,flowX,flowY,bodyX,bodyY
FMT, 182, 21, WENC, Qfbfb, TimeUS,Dist0,Qual0,Dist1,Qual1
FMT, 185, 35, ADSB, QIiiiHHhH, TimeUS,ICAO_address,Lat,Lng,Alt,Heading,Hor_vel,Ver_vel,Squark
FMT, 181, 12, EV, QB, TimeUS,Id
FMT, 186, 18, ARM, QBIBB, TimeUS,ArmState,ArmChecks,Forced,Method
FMT, 184, 13, ERR, QBB, TimeUS,Subsys,ECode
FMT, 187, 35, WINC, QBBBBBfffHfb, TimeUS,Heal,ThEnd,Mov,Clut,Mode,DLen,Len,DRate,Tens,Vcc,Temp
FMT, 188, 47, PSCN, Qfffffffff, TimeUS,DPN,TPN,PN,DVN,TVN,VN,DAN,TAN,AN
FMT, 189, 47, PSCE, Qfffffffff, TimeUS,DPE,TPE,PE,DVE,TVE,VE,DAE,TAE,AE
FMT, 190, 47, PSCD, Qfffffffff, TimeUS,DPD,TPD,PD,DVD,TVD,VD,DAD,TAD,AD
FMT, 191, 35, PSON, Qffffff, TimeUS,TPON,PON,TVON,VON,TAON,AON
FMT, 192, 35, PSOE, Qffffff, TimeUS,TPOE,POE,TVOE,VOE,TAOE,AOE
FMT, 193, 35, PSOD, Qffffff, TimeUS,TPOD,POD,TVOD,VOD,TAOD,AOD
FMT, 194, 35, PSOT, Qffffff, TimeUS,TPOT,POT,TVOT,VOT,TAOT,AOT
FMT, 75, 63, RATE, Qfffffffffffff, TimeUS,RDes,R,ROut,PDes,P,POut,YDes,Y,YOut,ADes,A,AOut,AOutSlew
FMT, 195, 39, ANG, Qfffffff, TimeUS,DesRoll,Roll,DesPitch,Pitch,DesYaw,Yaw,Dt
FMT, 201, 33, STAK, QBBHHN, TimeUS,Id,Pri,Total,Free,Name
FMT, 202, 88, FILE, NIBZ, FileName,Offset,Length,Data
FMT, 197, 78, AISR, QBBBZ, TimeUS,num,total,ID,payload
FMT, 198, 41, AIS1, QBBIBbHbLLHHBBbI, US,typ,rep,mmsi,nav,rot,sog,pos,lon,lat,cog,hed,sec,man,raim,rad
FMT, 199, 38, AIS4, QBIHBBBBBBLLBBI, US,rep,mmsi,year,mth,day,h,m,s,fix,lon,lat,epfd,raim,rad
FMT, 200, 175, AIS5, QBIBINZBHHBBBBZB, US,rep,mmsi,ver,imo,cal,nam,typ,bow,stn,prt,str,fix,dght,dst,dte
FMT, 203, 39, SCR, QNIii, TimeUS,Name,Runtime,Total_mem,Run_mem
FMT, 206, 90, VER, QBHBBBBIZHBB, TimeUS,BT,BST,Maj,Min,Pat,FWT,GH,FWS,APJ,BU,FV
FMT, 205, 32, MOTB, QfffffB, TimeUS,LiftMax,BatVolt,ThLimit,ThrAvMx,ThrOut,FailFlags
FMT, 6, 24, PTUN, QBfff, TimeUS,Param,TunVal,TunMin,TunMax
FMT, 0, 55, CTUN, Qffffffefffhh, TimeUS,ThI,ABst,ThO,ThH,DAlt,Alt,BAlt,DSAlt,SAlt,TAlt,DCRt,CRt
FMT, 1, 14, D16, QBh, TimeUS,Id,Value
FMT, 2, 14, DU16, QBH, TimeUS,Id,Value
FMT, 3, 16, D32, QBi, TimeUS,Id,Value
FMT, 4, 16, DU32, QBI, TimeUS,Id,Value
FMT, 5, 16, DFLT, QBf, TimeUS,Id,Value
FMT, 9, 47, SIDD, Qfffffffff, TimeUS,Time,Targ,F,Gx,Gy,Gz,Ax,Ay,Az
FMT, 10, 40, SIDS, QBfffffff, TimeUS,Ax,Mag,FSt,FSp,TFin,TC,TR,TFout
FMT, 8, 49, GUIP, QBfffbffffff, TimeUS,Type,pX,pY,pZ,Terrain,vX,vY,vZ,aX,aY,aZ
FMT, 11, 44, GUIA, QBffffffff, TimeUS,Type,Roll,Pitch,Yaw,RollRt,PitchRt,YawRt,Thrust,ClimbRt
POWR, 246572933, 4.954129, 5.026154, 1, 1, 6
MCU, 246572933, 45.08946, 3.348395, 3.341374, 3.353609
BAT, 246572946, 0, 15.78678, 15.9297, 1.027851, 74.34866, 1.182423, 0, 0.1390498, 97, 1, 0
MAG, 246572958, 0, -176, -382, 158, 31, 0, -44, 0, 0, 0, 1, 246572955
MAG, 246572958, 1, -316, -714, 569, 132, -200, 136, 0, 0, 0, 1, 246572956
FMT, 249, 25, SURF, QBBfff, TimeUS,I,St,D,FD,TO
SURF, 246572976, 0, 2, 0, 0, -0.1120631
SURF, 246573075, 1, 2, 0, 0, -0.1120631
BARO, 246573096, 0, -0.0925293, 627.6675, 93946.18, 46.16, -0.3305514, 246573, 0, 35, 1
CTUN, 246573108, -7.748604E-07, -1.194906E-09, 0, 0.4106495, -0.1349899, -0.1349899, -0.09, NaN, 0, -0.01099547, -2, -2
ATT, 246573167, -0.0001267576, 3.162293, -0.0003179344, -0.3354291, 135.1185, 113.4234, 3
ANG, 246572480, -0.0001267576, 3.162269, -0.0003179344, -0.3343069, 135.1185, 113.3828, 0.002502
RATE, 246572496, -13.59657, -0.02092245, -0.03200614, 7.498564, -0.05065398, 0.01824179, 175.6161, -0.07875866, 0.4425513, -0.2360344, -0.2360344, 0, 0
PIDR, 246573184, -0.2375816, -0.0003651656, -0.2372164, -0.03202422, 0, 1.807382E-05, 0, 0, 1, 0.01847458, 9
PIDP, 246573188, 0.12813, -0.0008840787, 0.1290141, 0.01741691, 0, 0.0008248832, 0, 0, 1, 0.03149311, 9
PIDY, 246573192, 2.980358, -0.001374598, 2.458618, 0.4425513, 0, 0, 0, 0, 1, 0.3249985, 9
PIDA, 246573196, -0.2360344, -0.2360344, 0, 0, -410.6503, 0, 0, 0, 1, 0, 13
PIDN, 246573200, 0, 0, 0, 0, 0, 0, 0, 0, 0, 0, 0
PIDE, 246573204, 0, 0, 0, 0, 0, 0, 0, 0, 0, 0, 0
XKF4, 246572656, 0, 0.03, 0, 0, 0, 0, 0.006126029, 0.4757288, 0.105337, 0, 48, 113471, 0, 0
XKY0, 246572656, 0, 157.8211, 14.37807, 215.978, 287.9802, 0.009971878, 72.02612, 144.0063, 0.2001215, 0.1998513, 0.1997866, 0.2000168, 0.2002238
XKY1, 246572656, 0, 0.05700793, 0.06539707, 0.07185551, 0.0674579, 0.05828159, -0.04074083, -0.04480584, -0.03808345, -0.02986377, -0.03150613
XKF1, 246572656, 0, 3.16, -0.33, 113.42, -0.004490874, 0.04898905, 0.02515518, 0.03410392, 0.692174, 0.009782073, 0.1349899, 0.08, -0.07, -0.01, 627.76
XKF2, 246572656, 0, 0, 0, -0.02, 0, 0, 417, -5, 152, 0, 0, 0, 0, 0, 0
XKF3, 246572656, 0, 0.02, 0, -0.09, -0.06, -0.01, -0.04, 0, 0, 0, -0.85, 0, 0, 0.0006660388
XKF5, 246572656, 0, 0, 0, 0, 0, 0.35, 0.49, 0, 0, 0.5, 0.0001236326, 0.004968976, 0.01044383
XKFS, 246572656, 0, 0, 0, 0, 0, 0, 1, 0, 1
XKQ, 246572656, 0, 0.5487587, -0.01034961, -0.009378561, 0.8358641
XKV1, 246572656, 0, 0.0001708176, 4.657154E-06, 4.679191E-06, 7.384765E-05, 0.01684751, 0.01685106, 0.01137792, 0.06515148, 0.06515156, 0.132761, 3.861564E-11, 3.86331E-11
XKV2, 246572656, 0, 1.084707E-10, 5.969152E-06, 5.969221E-06, 6.054527E-08, 0, 0, 0, 0, 0, 0, 0, 0
XKF4, 246572656, 1, 0.04, 0, 0, 0, 0, 0.006108226, 0.4440304, 0.1163822, 0, 48, 113471, 0, 0
XKY0, 246572656, 1, 82.65753, 14.33688, 215.9952, 287.9976, 359.9988, 71.99709, 143.9949, 0.1999873, 0.1999833, 0.2000024, 0.2000182, 0.2000089
XKY1, 246572656, 1, 0.06414714, 0.06463604, 0.06424596, 0.06351597, 0.0634549, -0.03762097, -0.03705196, -0.03641114, -0.03658411, -0.03733183
XKF1, 246572656, 1, 4.12, 0.19, 113.17, 0.008566529, 0.003261264, 0.02423889, 0.03390475, 0.7040417, -0.02602306, 0.1315013, 0.01, 0, 0, 627.76
XKF2, 246572656, 1, 0, 0, -0.01, 0, 0, 419, -5, 147, 0, 0, 0, 0, 0, 0
XKF3, 246572656, 1, 0.04, -0.04, -0.09, -0.05, -0.04, -0.04, 0, 0, 0, -0.76, 0, 0.005759193, 0.0008646316
XKFS, 246572656, 1, 0, 0, 0, 0, 0, 1, 0, 1
XKQ, 246572656, 1, 0.5506041, -0.009594526, 0.0002382856, 0.8347113
AHR2, 246573350, 4.13, -0.1, 113.17, 627.45, 15.3676843, 75.1253369, 0.5500708, 0.02066127, 0.02961651, 0.8343369
POS, 246573356, 15.3676837, 75.1253367, 627.62, -0.004989935, -0.1349899
MOTB, 246573361, 1, 1, 1, 0.04106495, 0, 2
RCIN, 246573368, 1102, 1927, 1102, 1927, 1102, 1000, 1000, 875, 2000, 1495, 1000, 1000, 875, 875
RCI2, 246573371, 875, 875, 0, 1
RCOU, 246573378, 1000, 1000, 1000, 1000, 0, 0, 0, 0, 1495, 0, 0, 0, 0, 0
RCO2, 246573381, 0, 0, 0, 0
PSCN, 246573388, 0.692174, 0.692174, 0.692174, -0.004490874, -0.004490874, -0.004490874, 0, 0, -1.682782E-06
PSCE, 246573393, 0.009782073, 0.009782073, 0.009782073, 0.04898905, 0.04898905, 0.04898905, 0, 0, 5.855845E-05
PSCD, 246573397, 0.1349899, 0.1349899, 0.1349899, 0.02515518, 0.02515518, 0.02515518, 0.002360344, 0.002360344, 0.002360344
VIBE, 246573401, 0, 0.01071067, 0.0101834, 0.01120599, 0
VIBE, 246573401, 1, 0.06234926, 0.06144099, 0.07647004, 0
FMT, 247, 31, CTRL, Qfffff, TimeUS,RMSRollP,RMSRollD,RMSPitchP,RMSPitchD,RMSYaw
CTRL, 246573410, 0.03285356, 0.000123066, 0.01157495, 0.0008370916, 0.246032
IMU, 246573439, 0, 0.001120705, -0.002189665, -0.001607226, 0.09341948, 0.2607506, -9.827216, 0, 0, 45.77295, 1, 1, 2022, 2022
IMU, 246573439, 1, 0.0008606411, 0.001069241, -0.002448499, 0.1592305, 0.1013549, -9.821251, 0, 0, 46, 1, 1, 1998, 2046
FMT, 252, 43, DCM, Qffffffff, TimeUS,Roll,Pitch,Yaw,ErrRP,ErrYaw,VWN,VWE,VWD
DCM, 246575133, 4.137745, -0.1086194, 113.1732, 0.01193916, 0.007843238, 0, 0, 0
FMT, 251, 51, EAHR, QffffffLLfI, TimeUS,Roll,Pitch,Yaw,VN,VE,VD,Lat,Lon,Alt,Flg
EAHR, 246575171, 0, 0, 0, 0, 0, 0, 0, 0, 0, 0
IMU, 246613396, 0, 0.001372879, -0.002132414, 0.0008036597, 0.09609237, 0.2552391, -9.82364, 0, 0, 45.77295, 1, 1, 2022, 2022
IMU, 246613396, 1, 0.0007847906, -0.001113977, 0.001815189, 0.1563185, 0.0976347, -9.810542, 0, 0, 46, 1, 1, 1998, 2046
SURF, 246622878, 0, 2, 0, 0, -0.1131826
SURF, 246622888, 1, 2, 0, 0, -0.1131826
MSG, 246643722, ArduCopter V4.6.2 (1ebd4d99)
MSG, 246643729, ChibiOS: 88b84600
VER, 246643736, 10, 5009, 4, 6, 2, 255, 515722649, ArduCopter V4.6.2 (1ebd4d99), 56, 2, 2
MSG, 246643749, Pixhawk6C 003D0048 3133510F 31343630
MSG, 246643757, Param space used: 1099/5376
MSG, 246643764, RC Protocol: SBUS
MSG, 246643777, RCOut: PWM:1-16
MSG, 246643782, New mission
CMD, 246645421, 4, 0, 16, 0, 0, 0, 0, 15.3676835, 75.1253366, 627.63, 0
CMD, 246645430, 4, 1, 22, 1, 0, 0, 0, 0, 0, 10, 3
CMD, 246645437, 4, 2, 16, 10, 0, 0, 0, 15.367361, 75.1254623, 10, 3
CMD, 246645471, 4, 3, 20, 0, 0, 0, 0, 0, 0, 0, 0
MSG, 246645476, New rally
MSG, 246645481, New fence
FNCE, 246645487, 10, 0, 98, 15.3694775, 75.1243937, 10, 0
FNCE, 246645493, 10, 1, 98, 15.3694025, 75.1246646, 10, 0
FNCE, 246645526, 10, 2, 98, 15.3694775, 75.1248684, 10, 0
FNCE, 246645532, 10, 3, 98, 15.3696456, 75.1249086, 10, 0
FNCE, 246645537, 10, 4, 98, 15.3699042, 75.1248443, 10, 0
FNCE, 246645549, 10, 5, 98, 15.3702533, 75.1247826, 10, 0
FNCE, 246645554, 10, 6, 98, 15.3703154, 75.1244822, 10, 0
FNCE, 246645559, 10, 7, 98, 15.3700982, 75.124281, 10, 0
FNCE, 246645565, 10, 8, 98, 15.3698292, 75.1241469, 10, 0
FNCE, 246645570, 10, 9, 98, 15.3695111, 75.1241147, 10, 0
MSG, 246645579, Frame: QUAD/X
MODE, 246645583, Loiter, 5, 53
ORGN, 246645587, 0, 15.3676775, 75.1253367, 627.76
ORGN, 246645591, 1, 15.3676835, 75.1253366, 627.63
MSG, 246645600, GPS 1: probing for u-blox at 230400 baud
MSG, 246645609, u-blox 1 HW: 00190000 SW: EXT CORE 4.04 (7f89f7)
IMU, 246653252, 0, 0.0008284334, -0.002922299, -0.001124845, 0.1039125, 0.2521015, -9.823895, 0, 0, 45.77295, 1, 1, 2022, 2022
IMU, 246653252, 1, 0.0003022745, 2.478005E-05, -0.0003581419, 0.1521642, 0.08950059, -9.807231, 0, 0, 46, 1, 1, 1998, 2046
FILE, @SYS/uarts.txt, 0, 64, UARTV1\nSERIAL0 OTG1  TX =       0 RX =       0 TXBD=     0 RXBD=
POWR, 246672937, 4.953424, 5.028571, 1, 1, 6
MCU, 246672937, 45.20875, 3.347691, 3.337176, 3.353044
BAT, 246672950, 0, 15.77278, 15.91402, 1.015768, 74.37688, 1.182868, 0, 0.1390498, 97, 1, 0
MAG, 246672961, 0, -176, -382, 160, 31, 0, -44, 0, 0, 0, 1, 246672959
MAG, 246672961, 1, -315, -713, 560, 132, -200, 136, 0, 0, 0, 1, 246672960
SURF, 246672982, 0, 2, 0, 0, -0.1143625
SURF, 246672991, 1, 2, 0, 0, -0.1143625
BARO, 246673078, 0, -0.06903076, 627.691, 93945.9, 46.16, -0.2581856, 246673, 0, 35, 1
CTUN, 246673091, -7.748604E-07, -1.195076E-09, 0, 0.4106495, -0.139521, -0.139521, -0.06, NaN, 0, -0.01075133, -2, -2
ATT, 246673151, -0.0001909975, 3.162098, -0.0002840243, -0.3405991, 147.3014, 113.4275, 3
ANG, 246672472, -0.0001909975, 3.162078, -0.0002840243, -0.339477, 147.3014, 113.3868, 0.002499
RATE, 246672489, -13.42588, -0.02383555, -0.03153674, 9.010646, -0.03616983, 0.02166867, 221.6411, -0.05207059, 0.5888245, -0.4183769, -0.4183769, 0, 0
PIDR, 246673168, -0.234646, -0.0004160088, -0.23423, -0.03162105, 0, 8.431303E-05, 0, 0, 1, 0.01929529, 9
PIDP, 246673172, 0.1545145, -0.0006312827, 0.1551458, 0.02094468, 0, 0.0007239857, 0, 0, 1, 0.03274866, 9
PIDY, 246673176, 3.784698, -0.0009088033, 3.271247, 0.5888245, 0, 0, 0, 0, 1, 0.4020418, 9
PIDA, 246673179, -0.4183769, -0.4183769, 0, 0, -410.6503, 0, 0, 0, 1, 0, 13
PIDN, 246673183, 0, 0, 0, 0, 0, 0, 0, 0, 0, 0, 0
PIDE, 246673187, 0, 0, 0, 0, 0, 0, 0, 0, 0, 0, 0
XKF4, 246672657, 0, 0.03, 0, 0, 0, 0, 0.006205628, 0.4757288, 0.105337, 0, 48, 113471, 0, 0
XKY0, 246672657, 0, 157.8203, 14.3781, 215.9771, 287.9794, 0.009106346, 72.02525, 144.0055, 0.2001215, 0.1998513, 0.1997866, 0.2000168, 0.2002238
XKY1, 246672657, 0, 0.05700793, 0.06539707, 0.07185551, 0.0674579, 0.05828159, -0.04074083, -0.04480584, -0.03808345, -0.02986377, -0.03150613
XKF1, 246672657, 0, 3.16, -0.34, 113.42, -0.00426605, 0.05115197, 0.02650663, 0.05321365, 0.6945842, 0.01435605, 0.139521, 0.08, -0.07, -0.01, 627.76
XKF2, 246672657, 0, 0, 0, -0.02, 0, 0, 417, -5, 152, 0, 0, 0, 0, 0, 0
XKF3, 246672657, 0, 0.02, 0, -0.09, -0.06, -0.01, 0.04, 0, 0, 0, -0.71, 0, 0, 0.0006660388
XKF5, 246672657, 0, 0, 0, 0, 0, 0.35, 0.49, 0, 0, 0.5, 0.0001173788, 0.005761751, 0.01059098
XKFS, 246672657, 0, 0, 0, 0, 0, 0, 1, 0, 1
XKQ, 246672657, 0, 0.54873, -0.01031251, -0.009405107, 0.8358831
XKF4, 246672657, 1, 0.04, 0, 0, 0, 0, 0.006187747, 0.4440304, 0.1163822, 0, 48, 113471, 0, 0
XKY0, 246672657, 1, 82.65593, 14.33691, 215.993, 287.9955, 359.9966, 71.99493, 143.9927, 0.1999873, 0.1999833, 0.2000024, 0.2000182, 0.2000089
XKY1, 246672657, 1, 0.06414714, 0.06463604, 0.06424596, 0.06351597, 0.0634549, -0.03762097, -0.03705196, -0.03641114, -0.03658411, -0.03733183
XKF1, 246672657, 1, 4.13, 0.19, 113.17, 0.008507624, 0.005770683, 0.02645357, 0.05456488, 0.7063088, -0.02172667, 0.1361167, 0.01, 0, 0, 627.76
XKF2, 246672657, 1, 0, 0, -0.01, 0, 0, 419, -5, 147, 0, 0, 0, 0, 0, 0
XKF3, 246672657, 1, 0.04, -0.04, -0.09, -0.05, -0.04, 0.04, 0, 0, 0, -0.62, 0, 0.01370289, 0.0008646316
XKFS, 246672657, 1, 0, 0, 0, 0, 0, 1, 0, 1
XKQ, 246672657, 1, 0.550573, -0.009585796, 0.0002484256, 0.8347319
AHR2, 246673289, 4.14, -0.15, 113.18, 627.53, 15.3676843, 75.125337, 0.5499994, 0.02106524, 0.02947004, 0.8343791
POS, 246673307, 15.3676837, 75.1253368, 627.62, -0.009520991, -0.139521
MOTB, 246673312, 1, 1, 1, 0.04106495, 0, 2
RCIN, 246673318, 1102, 1927, 1102, 1927, 1102, 1000, 1000, 875, 2000, 1495, 1000, 1000, 875, 875
RCI2, 246673322, 875, 875, 0, 1
RCOU, 246673328, 1000, 1000, 1000, 1000, 0, 0, 0, 0, 1495, 0, 0, 0, 0, 0
RCO2, 246673332, 0, 0, 0, 0
PSCN, 246673357, 0.6945842, 0.6945842, 0.6945842, -0.00426605, -0.00426605, -0.00426605, 0, 0, 1.070882E-05
PSCE, 246673362, 0.01435605, 0.01435605, 0.01435605, 0.05115196, 0.05115196, 0.05115196, 0, 0, 5.759554E-05
PSCD, 246673366, 0.139521, 0.139521, 0.139521, 0.02650663, 0.02650663, 0.02650663, 0.004183769, 0.004183769, 0.004183769
VIBE, 246673371, 0, 0.009240291, 0.008624147, 0.01133276, 0
VIBE, 246673371, 1, 0.06385706, 0.06791759, 0.07998832, 0
CTRL, 246673379, 0.03252025, 0.0001254466, 0.01463856, 0.0008793062, 0.3625818
DCM, 246675127, 4.149416, -0.1567399, 113.1805, 0.01193916, 0.008438843, 0, 0, 0
EAHR, 246675146, 0, 0, 0, 0, 0, 0, 0, 0, 0, 0
GPS, 246693103, 0, 3, 554705400, 2380, 17, 0.58, 15.3676843, 75.1253369, 630.86, 0.05, 21.13739, 0, 0, 1
GPA, 246693103, 0, 1.12, 0.99, 1.9, 0.24, 0, 1, 246685, 200, 552.85, 0, 0
IMU, 246693175, 0, 0.00157279, -0.002197185, -0.0006720477, 0.09273638, 0.2621763, -9.828708, 0, 0, 45.77295, 1, 1, 2022, 2022
IMU, 246693175, 1, -0.0008055376, 0.0002752355, 0.0005653041, 0.15086, 0.1105358, -9.782732, 0, 0, 46, 1, 1, 1998, 2046
FILE, @SYS/uarts.txt, 64, 64,      0 FE=0 OE=0 NE=0 FlowCtrl=0\nSERIAL1 UART7 TX*=  153784 RX*=
FILE, @SYS/uarts.txt, 128, 64,    40094 TXBD=  6246 RXBD=  1628 FE=0 OE=0 NE=0 FlowCtrl=0\nSERIA
FILE, @SYS/uarts.txt, 192, 64, L2 UART5 TX*=    6331 RX*=       0 TXBD=   257 RXBD=     0 FE=0 
SURF, 246722884, 0, 2, 0, 0, -0.115591
SURF, 246722915, 1, 2, 0, 0, -0.115591
STAK, 246725760, 5, 181, 1968, 1520, timer
IMU, 246732944, 0, 0.001377679, -0.001901362, 0.0007834636, 0.1059097, 0.2602988, -9.820549, 0, 0, 45.77295, 1, 1, 2022, 2022
IMU, 246732944, 1, -0.0006464885, 0.0009252764, 0.0002273213, 0.1742987, 0.09016168, -9.808482, 0, 0, 46, 1, 1, 1998, 2046
FILE, @SYS/uarts.txt, 256, 64, OE=0 NE=0 FlowCtrl=0\nSERIAL3 UART1 TX*=    2328 RX*=  164525 TXB
FILE, @SYS/uarts.txt, 320, 64, D=    94 RXBD=  6683 FE=149 OE=0 NE=161 FlowCtrl=0\nSERIAL4 UART8
FILE, @SYS/uarts.txt, 384, 64,  TX*=       0 RX*=       0 TXBD=     0 RXBD=     0 FE=0 OE=0 NE=
FILE, @SYS/uarts.txt, 448, 64, 0 FlowCtrl=0\nSERIAL5 UART2 TX =       0 RX =       0 TXBD=     0
POWR, 246772917, 4.957654, 5.026154, 1, 1, 6
MCU, 246772917, 45.16899, 3.348395, 3.341234, 3.353467
BAT, 246772933, 0, 15.78651, 15.92935, 1.027302, 74.40542, 1.183318, 0, 0.1390498, 97, 1, 0
MAG, 246772945, 0, -176, -382, 160, 31, 0, -44, 0, 0, 0, 1, 246772942
MAG, 246772945, 1, -314, -714, 574, 132, -200, 136, 0, 0, 0, 1, 246772943
SURF, 246772992, 0, 2, 0, 0, -0.1168454
SURF, 246773001, 1, 2, 0, 0, -0.1168454
BARO, 246773038, 0, -0.08959961, 627.6704, 93946.14, 46.16, 0.04834274, 246773, 0, 35, 1
CTUN, 246773055, -7.748604E-07, -1.197975E-09, 0, 0.4106495, -0.1426131, -0.1426131, -0.08, NaN, 0, -0.02075133, -2, -2
ATT, 246773113, -0.0002280532, 3.165567, -0.0002609214, -0.342456, 158.8054, 113.4312, 3
ANG, 246772474, -0.0002280532, 3.165548, -0.0002609214, -0.3413315, 158.8054, 113.3905, 0.002502
RATE, 246772488, -13.27661, -0.0267865, -0.03108965, 10.51816, -0.05888895, 0.02547828, 262.8679, -0.02229493, 0.732035, -0.3407478, -0.3407478, 0, 0
PIDR, 246773153, -0.2319875, -0.0004675126, -0.23152, -0.0312552, 0, 0.0001655541, 0, 0, 1, 0.01996076, 9
PIDP, 246773186, 0.1808389, -0.001027806, 0.1818667, 0.02455201, 0, 0.0009262743, 0, 0, 1, 0.03365593, 9
PIDY, 246773201, 4.536153, -0.0003891199, 4.066861, 0.732035, 0, 0, 0, 0, 1, 0.4650579, 9
PIDA, 246773205, -0.3407478, -0.3407478, 0, 0, -410.6503, 0, 0, 0, 1, 0, 13
PIDN, 246773209, 0, 0, 0, 0, 0, 0, 0, 0, 0, 0, 0
PIDE, 246773213, 0, 0, 0, 0, 0, 0, 0, 0, 0, 0, 0
XKF4, 246772593, 0, 0.03, 0, 0, 0, 0, 0.006151338, 0.4757288, 0.105337, 0, 48, 113471, 0, 0
XKY0, 246772593, 0, 208.7943, 14.28477, 215.9923, 287.9391, 359.9702, 72.04253, 144.0562, 0.2005443, 0.2001025, 0.1995195, 0.1996002, 0.2002334
XKY1, 246772593, 0, 0.03506382, 0.0488039, 0.05928984, 0.05201988, 0.03705336, 0.04064367, 0.03408293, 0.04512972, 0.05851099, 0.05573355
XKF1, 246772593, 0, 3.16, -0.34, 113.43, -0.006439906, 0.04960783, 0.02703433, 0.04060997, 0.6954675, 0.01658293, 0.1426131, 0.08, -0.07, -0.01, 627.76
XKF2, 246772593, 0, 0, -0.01, -0.02, 0, 0, 417, -5, 152, 0, 0, 0, 0, 0, 0
XKF3, 246772593, 0, 0.03, 0.07, 0.02, -0.07, -0.01, 0.06, 0, 0, 0, -0.64, 0, 0, 0.0005157417
XKF5, 246772593, 0, 0, 0, 0, 0, 0.35, 0.49, 0, 0, 0.5, 0.0002276681, 0.008657381, 0.006617525
XKFS, 246772593, 0, 0, 0, 0, 0, 0, 1, 0, 1
XKQ, 246772593, 0, 0.548703, -0.01028204, -0.009389035, 0.8359014
XKF4, 246772593, 1, 0.02, 0, 0, 0, 0, 0.006132687, 0.4440304, 0.1163822, 0, 48, 113471, 0, 0
XKY0, 246772593, 1, 144.31, 14.26707, 215.9897, 287.9913, 359.9966, 71.99829, 143.994, 0.2000126, 0.1999677, 0.1999674, 0.2000122, 0.2000401
XKY1, 246772593, 1, 0.04639979, 0.04739275, 0.04702733, 0.04580859, 0.04542075, 0.04580445, 0.04651128, 0.04767404, 0.04768581, 0.04653039
XKF1, 246772593, 1, 4.12, 0.19, 113.18, 0.005215656, 0.005512565, 0.02741785, 0.04265067, 0.7067745, -0.01879149, 0.1393598, 0.01, 0, 0, 627.76
XKF2, 246772593, 1, 0, 0, -0.01, 0, 0, 419, -5, 147, 0, 0, 0, 0, 0, 0
XKF3, 246772593, 1, 0.05, 0.02, 0.02, -0.06, -0.04, 0.06, 0, 0, 0, -0.54, 0, 0.01603771, 0.0003014345
XKFS, 246772593, 1, 0, 0, 0, 0, 0, 1, 0, 1
XKQ, 246772593, 1, 0.5505388, -0.009591698, 0.0002297035, 0.8347544
AHR2, 246773305, 4.15, -0.14, 113.18, 627.56, 15.3676843, 75.1253369, 0.5499486, 0.02103211, 0.02954637, 0.8344107
POS, 246773310, 15.3676837, 75.1253368, 627.61, -0.01261315, -0.1426131
MOTB, 246773315, 1, 1, 1, 0.04106495, 0, 2
RCIN, 246773321, 1102, 1927, 1102, 1927, 1102, 1000, 1000, 875, 2000, 1495, 1000, 1000, 875, 875
RCI2, 246773325, 875, 875, 0, 1
RCOU, 246773331, 1000, 1000, 1000, 1000, 0, 0, 0, 0, 1495, 0, 0, 0, 0, 0
RCO2, 246773334, 0, 0, 0, 0
PSCN, 246773341, 0.6954675, 0.6954675, 0.6954675, -0.006439906, -0.006439906, -0.006439906, 0, 0, 1.809607E-05
PSCE, 246773346, 0.01658293, 0.01658293, 0.01658293, 0.04960783, 0.04960783, 0.04960783, 0, 0, 5.648485E-05
PSCD, 246773357, 0.1426131, 0.1426131, 0.1426131, 0.02703433, 0.02703433, 0.02703433, 0.003407478, 0.003407478, 0.003407478
VIBE, 246773361, 0, 0.01007647, 0.009810993, 0.01054555, 0
VIBE, 246773361, 1, 0.0636335, 0.0645564, 0.08257069, 0
CTRL, 246773370, 0.03217625, 0.0001204964, 0.01781584, 0.0009044055, 0.4858728
IMU, 246773380, 0, 0.001010501, -0.00233924, -0.0006236159, 0.09995633, 0.2535291, -9.825965, 0, 0, 45.28986, 1, 1, 2022, 2022
IMU, 246773380, 1, -0.001410754, -0.001682398, -0.001739316, 0.1427854, 0.1159144, -9.820798, 0, 0, 46, 1, 1, 1998, 2046
DCM, 246775135, 4.154424, -0.1470369, 113.1873, 0.01442983, 0.008833198, 0, 0, 0
EAHR, 246775154, 0, 0, 0, 0, 0, 0, 0, 0, 0, 0
FILE, @SYS/uarts.txt, 512, 64,  RXBD=     0 FE=0 OE=0 NE=0 FlowCtrl=0\nSERIAL6 UART3 TX =       
FILE, @SYS/uarts.txt, 576, 64, 0 RX =       0 TXBD=     0 RXBD=     0 FE=0 OE=0 NE=0 FlowCtrl=0
FILE, @SYS/uarts.txt, 640, 64, \nSERIAL7 OTG2  TX =       0 RX =       0 TXBD=     0 RXBD=     0
IMU, 246813414, 0, 0.001132276, -0.002371818, -0.0009708473, 0.104498, 0.2641229, -9.832383, 0, 0, 45.77295, 1, 1, 2022, 2022
IMU, 246813414, 1, -0.0001335877, -0.002468522, -0.0004718908, 0.1576047, 0.1292211, -9.811913, 0, 0, 46, 1, 1, 1998, 2046
FILE, @SYS/uarts.txt, 704, 64,  FE=0 OE=0 NE=0 FlowCtrl=0\nIOMCU   UART6 TX*= 1908682 RX*= 12038
SURF, 246822917, 0, 2, 0, 0, -0.1181037
SURF, 246822927, 1, 2, 0, 0, -0.1181037
STAK, 246826740, 6, 181, 944, 656, rcout
FILE, @SYS/uarts.txt, 768, 53, 84 TXBD=  7746 RXBD= 14009 FE=0 OE=0 NE=0 FlowCtrl=0\n
IMU, 246853263, 0, 0.001155527, -0.002644628, 0.0009453989, 0.09790424, 0.2585354, -9.824608, 0, 0, 45.77295, 1, 1, 2022, 2022
IMU, 246853263, 1, 0.0005716782, 0.001350094, 0.001028148, 0.1607451, 0.09042063, -9.795118, 0, 0, 46, 1, 1, 1998, 2046
FILE, @SYS/memory.txt, 0, 64, MemInfoV1\nSTART=0x24000000 LEN=512k FREE=  3008 LRG=  1152 TYPE=
POWR, 246872893, 4.956445, 5.030989, 1, 1, 6
MCU, 246872893, 45.12922, 3.348676, 3.341795, 3.354032
BAT, 246872906, 0, 15.80106, 15.94541, 1.038104, 74.43425, 1.183774, 0, 0.1390498, 97, 1, 0
MAG, 246872918, 0, -175, -382, 158, 31, 0, -44, 0, 0, 0, 1, 246872915
MAG, 246872918, 1, -314, -714, 579, 132, -200, 136, 0, 0, 0, 1, 246872916
SURF, 246872935, 0, 2, 0, 0, -0.1193658
SURF, 246872944, 1, 2, 0, 0, -0.1193658
BARO, 246872966, 0, -0.1278687, 627.6321, 93946.56, 46.16, 0.213108, 246872, 0, 35, 1
CTUN, 246872979, -7.748604E-07, -1.200817E-09, 0, 0.4106495, -0.1452015, -0.1452015, -0.12, NaN, 0, -0.02075133, -2, -2
ATT, 246873107, -0.0002262146, 3.169174, -0.0002662537, -0.3451472, 158.8744, 113.4344, 3
ANG, 246872472, -0.0002262146, 3.169157, -0.0002662537, -0.3440201, 158.8744, 113.3937, 0.002493
RATE, 246872484, -13.12325, 0.01440389, -0.03099064, 12.03308, -0.04923979, 0.02892283, 289.825, 0.01744713, 0.8410407, -0.334549, -0.334549, 0, 0
PIDR, 246873124, -0.2292859, 0.0002513954, -0.2295372, -0.03098753, 0, -3.110901E-06, 0, 0, 1, 0.02032518, 9
PIDP, 246873134, 0.2072666, -0.0008593965, 0.208126, 0.02809701, 0, 0.0008258229, 0, 0, 1, 0.03427743, 9
PIDY, 246873138, 5.0092, 0.00030451, 4.672448, 0.8410407, 0, 0, 0, 0, 1, 0.5128018, 9
PIDA, 246873142, -0.334549, -0.334549, 0, 0, -410.6503, 0, 0, 0, 1, 0, 13
PIDN, 246873146, 0, 0, 0, 0, 0, 0, 0, 0, 0, 0, 0
PIDE, 246873150, 0, 0, 0, 0, 0, 0, 0, 0, 0, 0, 0
XKF4, 246872645, 0, 0.03, 0, 0, 0, 0, 0.006230789, 0.4757288, 0.105337, 0, 48, 113471, 0, 0
XKY0, 246872645, 0, 208.7948, 14.2848, 215.9929, 287.9397, 359.9708, 72.0431, 144.0567, 0.2005443, 0.2001025, 0.1995195, 0.1996002, 0.2002334
XKY1, 246872645, 0, 0.03506382, 0.0488039, 0.05928984, 0.05201988, 0.03705336, 0.04064367, 0.03408293, 0.04512972, 0.05851099, 0.05573355
XKF1, 246872645, 0, 3.16, -0.34, 113.43, -0.00924934, 0.04779513, 0.02709929, 0.0269454, 0.6951576, 0.0186236, 0.1452015, 0.08, -0.07, -0.01, 627.76
XKF2, 246872645, 0, 0, -0.01, -0.02, 0, 0, 417, -5, 152, 0, 0, 0, 0, 0, 0
XKF3, 246872645, 0, 0.03, 0.07, 0.02, -0.07, -0.01, 0.05, 0, 0, 0, -0.63, 0, 0, 0.0005157417
XKF5, 246872645, 0, 0, 0, 0, 0, 0.35, 0.49, 0, 0, 0.5, 0.0001665666, 0.006508488, 0.008712167
XKFS, 246872645, 0, 0, 0, 0, 0, 0, 1, 0, 1
XKQ, 246872645, 0, 0.5486804, -0.01024488, -0.009375893, 0.8359169
XKF4, 246872645, 1, 0.02, 0, 0, 0, 0, 0.006211806, 0.4440304, 0.1163822, 0, 48, 113471, 0, 0
XKY0, 246872645, 1, 144.3138, 14.26709, 215.9935, 287.9951, 0.0003878732, 72.00206, 143.9978, 0.2000126, 0.1999677, 0.1999674, 0.2000122, 0.2000401
XKY1, 246872645, 1, 0.04639979, 0.04739275, 0.04702733, 0.04580859, 0.04542075, 0.04580445, 0.04651128, 0.04767404, 0.04768581, 0.04653039
XKF1, 246872645, 1, 4.12, 0.19, 113.18, 0.001607029, 0.005042913, 0.02791118, 0.02883664, 0.7062361, -0.01681973, 0.1421085, 0.01, 0, 0, 627.76
XKF2, 246872645, 1, 0, 0, -0.01, 0, 0, 419, -5, 147, 0, 0, 0, 0, 0, 0
XKF3, 246872645, 1, 0.05, 0.02, 0.02, -0.06, -0.04, 0.04, 0, 0, 0, -0.52, 0, 0.01603771, 0.0003014345
XKFS, 246872645, 1, 0, 0, 0, 0, 0, 1, 0, 1
XKQ, 246872645, 1, 0.550541, -0.009603417, 0.0002470022, 0.8347528
AHR2, 246873284, 4.15, -0.12, 113.19, 627.54, 15.3676842, 75.1253369, 0.5499058, 0.02088588, 0.02967477, 0.8344381
POS, 246873290, 15.3676837, 75.1253368, 627.61, -0.01520151, -0.1452015
MOTB, 246873295, 1, 1, 1, 0.04106495, 0, 2
RCIN, 246873301, 1102, 1927, 1102, 1927, 1102, 1000, 1000, 875, 2000, 1495, 1000, 1000, 875, 875
RCI2, 246873305, 875, 875, 0, 1
RCOU, 246873311, 1000, 1000, 1000, 1000, 0, 0, 0, 0, 1495, 0, 0, 0, 0, 0
RCO2, 246873317, 0, 0, 0, 0
PSCN, 246873328, 0.6951576, 0.6951576, 0.6951576, -0.00924934, -0.00924934, -0.00924934, 0, 0, 1.744177E-05
PSCE, 246873332, 0.0186236, 0.0186236, 0.0186236, 0.04779513, 0.04779513, 0.04779513, 0, 0, 5.719855E-05
PSCD, 246873337, 0.1452015, 0.1452015, 0.1452015, 0.02709929, 0.02709929, 0.02709929, 0.00334549, 0.00334549, 0.00334549
VIBE, 246873341, 0, 0.01005707, 0.01026062, 0.01115765, 0
VIBE, 246873341, 1, 0.0620842, 0.06307563, 0.08100212, 0
CTRL, 246873349, 0.03182499, 0.0001132635, 0.02110249, 0.0009216365, 0.6059808
DCM, 246875134, 4.157335, -0.1250029, 113.1942, 0.01442983, 0.008877037, 0, 0, 0
EAHR, 246875159, 0, 0, 0, 0, 0, 0, 0, 0, 0, 0
FILE, @SYS/memory.txt, 64, 64, 4\nSTART=0x30000000 LEN=256k FREE=262136 LRG=262136 TYPE=8\nSTART=
FILE, @SYS/memory.txt, 128, 64, 0x20000000 LEN=128k FREE=112544 LRG=112544 TYPE=2\nSTART=0x000004
GPS, 246893134, 0, 3, 554705600, 2380, 17, 0.58, 15.3676842, 75.1253369, 630.88, 0.023, 21.13739, 0.121, 0, 1
GPA, 246893134, 0, 1.12, 0.99, 1.9, 0.38, 0, 1, 246885, 200, 552.87, 0, 0
IMU, 246893193, 0, 0.001328525, -0.001756193, -0.001193286, 0.09685247, 0.2479458, -9.826453, 0, 0, 45.28986, 1, 1, 2022, 2022
IMU, 246893193, 1, 0.001659945, -0.00102387, -0.001152658, 0.1604268, 0.0795706, -9.823499, 0, 0, 46, 1, 1, 1998, 2046
FILE, @SYS/memory.txt, 192, 64, 00 LEN= 63k FREE= 64504 LRG= 64504 TYPE=2\nSTART=0x30040000 LEN= 
FILE, @SYS/memory.txt, 256, 64, 32k FREE= 32760 LRG= 32760 TYPE=8\nSTART=0x38000000 LEN= 64k FREE
SURF, 246922934, 0, 2, 0, 0, -0.1206274
SURF, 246922943, 1, 2, 0, 0, -0.1206274
STAK, 246926766, 7, 177, 1456, 648, rcin
FILE, @SYS/memory.txt, 320, 26, = 56808 LRG= 56152 TYPE=1\n
IMU, 246932954, 0, 0.001398898, -0.002444052, -0.0005687267, 0.1033129, 0.2691197, -9.828754, 0, 0, 45.77295, 1, 1, 2022, 2022
IMU, 246932954, 1, 0.000541347, -0.001218173, -0.0008609651, 0.1487769, 0.1201315, -9.827517, 0, 0, 46, 1, 1, 1998, 2046
FILE, @SYS/threads.txt, 0, 64, ThreadsV2\nISR           PRI=255 sp=0x24000000 STACK=1292/1536\nAr
FMT, 253, 28, HEAT, Qfbfff, TimeUS,Temp,Targ,P,I,Out
HEAT, 246952478, 45.5797, 45, -28.98521, 0.9901184, 0
FILE, @SYS/threads.txt, 64, 64, duCopter    PRI=182 sp=0x24000600 STACK=4040/7168\nidle          
FILE, @SYS/threads.txt, 128, 64, PRI=  1 sp=0x240214B0 STACK=288/496\nUART_RX       PRI= 60 sp=0x2
POWR, 246972945, 4.961581, 5.026154, 1, 1, 6
MCU, 246972945, 45.12922, 3.348535, 3.340534, 3.35375
BAT, 246972961, 0, 15.79301, 15.93736, 1.038104, 74.4631, 1.18423, 0, 0.1390498, 97, 1, 0
MAG, 246972972, 0, -175, -383, 159, 31, 0, -44, 0, 0, 0, 1, 246972969
MAG, 246972972, 1, -309, -715, 572, 132, -200, 136, 0, 0, 0, 1, 246972971
SURF, 246972990, 0, 2, 0, 0, -0.1219411
SURF, 246973024, 1, 2, 0, 0, -0.1219411
BARO, 246973085, 0, -0.1484375, 627.6116, 93946.79, 46.16, 0.06521533, 246973, 0, 35, 1
CTUN, 246973098, -7.748604E-07, -1.201556E-09, 0, 0.4106495, -0.1506641, -0.1506641, -0.14, NaN, 0, -0.03075133, -2, -2
DU32, 246973117, 7, 6349272
TERR, 246973158, 2, 15.3676837, 75.1253368, 100, 627.6307, -0.03075133, 0, 224, -5.887897
ATT, 246973205, -0.0002578517, 3.170114, -0.0002288135, -0.3450098, 158.9104, 113.4358, 3
ANG, 246972472, -0.0002578517, 3.170097, -0.0002288135, -0.3438821, 158.9104, 113.3951, 0.002499
RATE, 246972484, -13.0513, -0.01740867, -0.03063882, 12.74501, -0.007560906, 0.03000316, 302.6299, 0.03301469, 0.9207785, -0.6175995, -0.6175995, 0, 0
PIDR, 246973222, -0.2277953, -0.0003038386, -0.2274914, -0.03071135, 0, 7.252554E-05, 0, 0, 1, 0.0193996, 9
PIDP, 246973226, 0.2224589, -0.0001319627, 0.2225909, 0.03004977, 0, -4.660729E-05, 0, 0, 1, 0.03530288, 9
PIDY, 246973230, 5.28173, 0.0005762151, 5.115436, 0.9207785, 0, 0, 0, 0, 1, 0.5396655, 9
PIDA, 246973234, -0.6175995, -0.6175995, 0, 0, -410.6503, 0, 0, 0, 1, 0, 13
PIDN, 246973238, 0, 0, 0, 0, 0, 0, 0, 0, 0, 0, 0
PIDE, 246973241, 0, 0, 0, 0, 0, 0, 0, 0, 0, 0, 0
XKF4, 246972651, 0, 0.03, 0, 0, 0, 0, 0.006223632, 0.4757288, 0.105337, 0, 48, 113471, 0, 0
XKY0, 246972651, 0, 228.5842, 14.3453, 216.0177, 287.933, 359.9417, 72.03178, 144.0787, 0.2006778, 0.2003531, 0.1995407, 0.1993632, 0.2000652
XKY1, 246972651, 0, -0.01383551, 0.004659511, 0.01948079, 0.0101075, -0.01048401, 0.01727105, 0.007715154, 0.02236398, 0.04098737, 0.03781457
XKF1, 246972651, 0, 3.17, -0.34, 113.43, -0.01163352, 0.04397907, 0.02838937, 0.04814529, 0.6949737, 0.01943294, 0.1506641, 0.08, -0.07, -0.01, 627.76
XKF2, 246972651, 0, 0.01, -0.01, -0.02, 0, 0, 417, -5, 152, 0, 0, 0, 0, 0, 0
XKF3, 246972651, 0, 0, 0.06, -0.09, -0.05, 0, 0.02, 0, 0, 0, -0.56, 0, 0, 0.0007830286
XKF5, 246972651, 0, 0, 0, 0, 0, 0.34, 0.49, 0, 0, 0.5, 0.0001689242, 0.008272984, 0.009680212
XKFS, 246972651, 0, 0, 0, 0, 0, 0, 1, 0, 1
XKQ, 246972651, 0, 0.5486702, -0.01024127, -0.009368505, 0.8359237
XKF4, 246972651, 1, 0.03, 0, 0, 0, 0, 0.00620494, 0.4440304, 0.1163822, 0, 48, 113471, 0, 0
XKY0, 246972651, 1, 145.0142, 14.26735, 215.9886, 287.9907, 359.9977, 71.99995, 143.9944, 0.2000172, 0.1999578, 0.1999567, 0.2000154, 0.2000528
XKY1, 246972651, 1, 0.002745387, 0.002559898, 0.001536713, 0.001089985, 0.001836971, 0.02485207, 0.02586759, 0.02600493, 0.02507428, 0.02436187
XKF1, 246972651, 1, 4.13, 0.18, 113.18, -0.0007579255, 0.004231774, 0.02949044, 0.04896876, 0.7057076, -0.01535967, 0.1476947, 0.01, 0, 0, 627.76
XKF2, 246972651, 1, 0, -0.01, -0.01, 0, 0, 419, -5, 147, 0, 0, 0, 0, 0, 0
XKF3, 246972651, 1, 0.01, 0.01, -0.09, -0.04, -0.04, 0.02, 0, 0, 0, -0.46, 0, 0.01603771, 0.000594722
XKFS, 246972651, 1, 0, 0, 0, 0, 0, 1, 0, 1
XKQ, 246972651, 1, 0.5505574, -0.00951898, 0.000223775, 0.834743
AHR2, 246973376, 4.14, -0.11, 113.19, 627.5, 15.3676842, 75.1253369, 0.5498791, 0.02074038, 0.02962318, 0.8344611
POS, 246973382, 15.3676837, 75.1253368, 627.6, -0.02066408, -0.1506641
MOTB, 246973387, 1, 1, 1, 0.04106495, 0, 2
RCIN, 246973393, 1102, 1927, 1102, 1927, 1102, 1000, 1000, 875, 2000, 1495, 1000, 1000, 875, 875
RCI2, 246973397, 875, 875, 0, 1
RCOU, 246973406, 1000, 1000, 1000, 1000, 0, 0, 0, 0, 1495, 0, 0, 0, 0, 0
RCO2, 246973409, 0, 0, 0, 0
PSCN, 246973416, 0.6949736, 0.6949736, 0.6949736, -0.01163352, -0.01163352, -0.01163352, 0, 0, 2.495467E-05
PSCE, 246973420, 0.01943294, 0.01943294, 0.01943294, 0.04397907, 0.04397907, 0.04397907, 0, 0, 5.34677E-05
PSCD, 246973425, 0.1506641, 0.1506641, 0.1506641, 0.02838937, 0.02838937, 0.02838937, 0.006175995, 0.006175995, 0.006175995
VIBE, 246973429, 0, 0.009100326, 0.009258253, 0.01001668, 0
VIBE, 246973429, 1, 0.05855423, 0.06616192, 0.07856353, 0
CTRL, 246973437, 0.0314826, 0.000110153, 0.02425127, 0.0008538914, 0.7122664
IMU, 246973450, 0, 0.001174214, -0.001449567, 0.0003398265, 0.0925294, 0.2563547, -9.823623, 0, 0, 45.77295, 1, 1, 2022, 2022
IMU, 246973450, 1, 0.0001864096, -0.001545867, -0.0006485215, 0.162345, 0.07254709, -9.799635, 0, 0, 46, 1, 1, 1998, 2046
UART, 246973600, 1, 3047, 142
UART, 246973605, 2, 117, 0
UART, 246973608, 3, 0, 654
UART, 246973613, 100, 8362, 5128
DCM, 246975127, 4.142385, -0.1151512, 113.1987, 0.01503486, 0.00890456, 0, 0, 0
EAHR, 246975146, 0, 0, 0, 0, 0, 0, 0, 0, 0, 0
FILE, @SYS/threads.txt, 192, 64, 407B0E8 STACK=880/1200\nOTG1          PRI= 60 sp=0x2407A1A0 STACK
FILE, @SYS/threads.txt, 256, 64, =480/752\nmonitor       PRI=183 sp=0x2401CE20 STACK=1096/1456\ntim
IMU, 247013369, 0, 0.001147838, -0.001529902, -0.001028234, 0.1050886, 0.2600494, -9.829131, 0, 0, 45.28986, 1, 1, 2022, 2022
IMU, 247013369, 1, -2.483744E-05, -0.001084081, -0.001460574, 0.1442013, 0.1084842, -9.826324, 0, 0, 46, 1, 1, 1998, 2046
FILE, @SYS/threads.txt, 320, 64, er         PRI=181 sp=0x2401E3E0 STACK=1520/1968\nrcout         P
SURF, 247022877, 0, 2, 0, 0, -0.1233436
SURF, 247022887, 1, 2, 0, 0, -0.1233436
STAK, 247026774, 8, 58, 2480, 1576, io
FILE, @SYS/threads.txt, 384, 64, RI=181 sp=0x2401DA00 STACK=656/944\nrcin          PRI=177 sp=0x24
RAD, 247038192, 65, 0, 100, 96, 0, 0, 0
FILE, @SYS/threads.txt, 448, 64, 01D410 STACK=648/1456\nio            PRI= 58 sp=0x2401C430 STACK=
FILE, @SYS/threads.txt, 512, 64, 1576/2480\nstorage       PRI= 59 sp=0x2401DDF0 STACK=928/1456\nUAR
IMU, 247053240, 0, 0.001235902, -0.002377928, 9.453766E-05, 0.09606132, 0.2661559, -9.825745, 0, 0, 45.77295, 1, 1, 2022, 2022
IMU, 247053240, 1, 0.0003025081, -0.0001012865, 0.0008280553, 0.1538627, 0.09727407, -9.821264, 0, 0, 46, 1, 1, 1998, 2046
FILE, @SYS/threads.txt, 576, 64, T7         PRI= 60 sp=0x24078FF8 STACK=256/752\nUART5         PRI
POWR, 247072950, 4.961078, 5.030989, 1, 1, 6
MCU, 247072950, 45.12922, 3.348395, 3.340674, 3.353185
BAT, 247072963, 0, 15.792, 15.93653, 1.039386, 74.49198, 1.184686, 0, 0.1390498, 97, 1, 0
MAG, 247072974, 0, -176, -382, 158, 31, 0, -44, 0, 0, 0, 1, 247072972
MAG, 247072974, 1, -309, -716, 583, 132, -200, 136, 0, 0, 0, 1, 247072973
SURF, 247072992, 0, 2, 0, 0, -0.1248199
SURF, 247073058, 1, 2, 0, 0, -0.1248199
BARO, 247073089, 0, -0.1542969, 627.6057, 93946.88, 46.16, -0.1549313, 247073, 0, 35, 1
CTUN, 247073102, -7.748604E-07, -1.201272E-09, 0, 0.4106495, -0.1562908, -0.1562908, -0.15, NaN, 0, -0.03075133, -2, -2
ATT, 247073159, -0.0002513741, 3.169709, -0.0002337445, -0.3460281, 158.9129, 113.4381, 3
ANG, 247072472, -0.0002513741, 3.169693, -0.0002337445, -0.3449007, 158.9129, 113.3973, 0.0025
RATE, 247072485, -13.04582, 0.007282889, -0.03084373, 12.74812, -0.06118129, 0.03023952, 302.63, 0.06182968, 0.944308, -0.02365112, -0.02365112, 0, 0
PIDR, 247073176, -0.2276867, 0.0001271104, -0.2278138, -0.03075486, 0, -8.886518E-05, 0, 0, 1, 0.01755128, 9
PIDP, 247073180, 0.222463, -0.001067815, 0.2235308, 0.03017666, 0, 6.286123E-05, 0, 0, 1, 0.03747964, 9
PIDY, 247073184, 5.281891, 0.001079131, 5.246156, 0.944308, 0, 0, 0, 0, 1, 0.5502128, 9
PIDA, 247073187, -0.02365112, -0.02365112, 0, 0, -410.6503, 0, 0, 0, 1, 0, 13
PIDN, 247073191, 0, 0, 0, 0, 0, 0, 0, 0, 0, 0, 0
PIDE, 247073198, 0, 0, 0, 0, 0, 0, 0, 0, 0, 0, 0
XKF4, 247072650, 0, 0.03, 0, 0, 0, 0, 0.00630251, 0.4757288, 0.105337, 0, 48, 113471, 0, 0
XKY0, 247072650, 0, 228.5828, 14.34533, 216.0163, 287.9316, 359.9403, 72.03036, 144.0773, 0.2006778, 0.2003531, 0.1995407, 0.1993632, 0.2000652
XKY1, 247072650, 0, -0.01383551, 0.004659511, 0.01948079, 0.0101075, -0.01048401, 0.01727105, 0.007715154, 0.02236398, 0.04098737, 0.03781457
XKF1, 247072650, 0, 3.16, -0.34, 113.43, -0.01395684, 0.0406881, 0.02970031, 0.06260341, 0.6942306, 0.02031141, 0.1562908, 0.08, -0.07, -0.01, 627.76
XKF2, 247072650, 0, 0.01, -0.01, -0.02, 0, 0, 417, -5, 152, 0, 0, 0, 0, 0, 0
XKF3, 247072650, 0, 0, 0.06, -0.09, -0.05, 0, 0, 0, 0, 0, -0.56, 0, 0, 0.0007830286
XKF5, 247072650, 0, 0, 0, 0, 0, 0.33, 0.49, 0, 0, 0.5, 0.0001108412, 0.005019952, 0.009054392
XKFS, 247072650, 0, 0, 0, 0, 0, 0, 1, 0, 1
XKQ, 247072650, 0, 0.5486538, -0.01023559, -0.009376534, 0.8359343
XKV1, 247072650, 0, 0.0001708205, 4.931774E-06, 4.953441E-06, 7.384509E-05, 0.03075224, 0.03076444, 0.0120865, 0.06939106, 0.06939148, 0.1484612, 3.905386E-11, 3.907138E-11
XKV2, 247072650, 0, 1.084678E-10, 5.124539E-06, 5.124759E-06, 5.867005E-08, 0, 0, 0, 0, 0, 0, 0, 0
XKF4, 247072650, 1, 0.03, 0, 0, 0, 0, 0.006283881, 0.4440304, 0.1163822, 0, 48, 113471, 0, 0
XKY0, 247072650, 1, 145.0109, 14.26737, 215.9851, 287.9872, 359.9942, 71.99649, 143.9909, 0.2000172, 0.1999578, 0.1999567, 0.2000154, 0.2000528
XKY1, 247072650, 1, 0.002745387, 0.002559898, 0.001536713, 0.001089985, 0.001836971, 0.02485207, 0.02586759, 0.02600493, 0.02507428, 0.02436187
XKF1, 247072650, 1, 4.13, 0.18, 113.18, -0.002996094, 0.002663909, 0.03050974, 0.0638056, 0.7049088, -0.0144502, 0.1534449, 0.01, 0, 0, 627.76
XKF2, 247072650, 1, 0, -0.01, -0.01, 0, 0, 419, -5, 147, 0, 0, 0, 0, 0, 0
XKF3, 247072650, 1, 0.01, 0.01, -0.09, -0.04, -0.04, 0, 0, 0, 0, -0.47, 0, 0.01603771, 0.000594722
XKFS, 247072650, 1, 0, 0, 0, 0, 0, 1, 0, 1
XKQ, 247072650, 1, 0.5505347, -0.009527965, 0.0002407414, 0.8347579
AHR2, 247073321, 4.12, -0.1, 113.2, 627.48, 15.3676842, 75.1253369, 0.5498449, 0.02060572, 0.02951599, 0.8344906
POS, 247073345, 15.3676837, 75.1253368, 627.6, -0.02629077, -0.1562908
MOTB, 247073350, 1, 1, 1, 0.04106495, 0, 2
RCIN, 247073356, 1102, 1927, 1102, 1927, 1102, 1000, 1000, 875, 2000, 1495, 1000, 1000, 875, 875
RCI2, 247073360, 875, 875, 0, 1
RCOU, 247073366, 1000, 1000, 1000, 1000, 0, 0, 0, 0, 1495, 0, 0, 0, 0, 0
RCO2, 247073370, 0, 0, 0, 0
PSCN, 247073376, 0.6942306, 0.6942306, 0.6942306, -0.01395684, -0.01395684, -0.01395684, 0, 0, 2.359988E-05
PSCE, 247073381, 0.02031141, 0.02031141, 0.02031141, 0.0406881, 0.0406881, 0.0406881, 0, 0, 5.380299E-05
PSCD, 247073385, 0.1562908, 0.1562908, 0.1562908, 0.02970031, 0.02970031, 0.02970031, 0.0002365112, 0.0002365112, 0.0002365112
VIBE, 247073389, 0, 0.009258524, 0.00811561, 0.009212505, 0
VIBE, 247073389, 1, 0.06086321, 0.06090222, 0.07336789, 0
CTRL, 247073398, 0.03122376, 9.747491E-05, 0.02633791, 0.0007000332, 0.7935539
DCM, 247075129, 4.123424, -0.1091103, 113.2044, 0.01503486, 0.009254048, 0, 0, 0
EAHR, 247075148, 0, 0, 0, 0, 0, 0, 0, 0, 0, 0
FILE, @SYS/threads.txt, 640, 64, = 60 sp=0x240784B0 STACK=304/752\nUART1         PRI= 60 sp=0x2407
GPS, 247093075, 0, 3, 554705800, 2380, 17, 0.58, 15.3676842, 75.1253368, 630.87, 0.023, 21.13739, 0.051, 0, 1
GPA, 247093075, 0, 1.12, 0.99, 1.9, 0.38, 0, 1, 247085, 200, 552.86, 0, 0
IMU, 247093175, 0, 0.0008315845, -0.002740769, 1.881365E-05, 0.09654001, 0.2569258, -9.826071, 0, 0, 45.77295, 1, 1, 2022, 2022
IMU, 247093175, 1, -0.0007478913, -0.002925784, 0.0006946627, 0.160065, 0.1026244, -9.817508, 0, 0, 46, 1, 1, 1998, 2046
FILE, @SYS/threads.txt, 704, 64, 78E8 STACK=312/752\nUART8         PRI= 60 sp=0x24076D20 STACK=408
MAV, 247095413, 1, 4573, 1951, 0, 6, 0, 6
FILE, @SYS/threads.txt, 768, 64, /752\nOTG2          PRI= 60 sp=0x24075DD8 STACK=480/752\nUART6    
FILE, @SYS/threads.txt, 832, 64,      PRI=181 sp=0x24074F58 STACK=336/752\nIOMCU         PRI=183 s
SURF, 247122880, 0, 2, 0, 0, -0.1263566
SURF, 247122889, 1, 2, 0, 0, -0.1263566
STAK, 247128271, 9, 59, 1456, 928, storage
FILE, @SYS/threads.txt, 896, 64, p=0x2406AB30 STACK=904/1456\nlog_io        PRI= 59 sp=0x2406B2C0 
IMU, 247133002, 0, 0.001737465, -0.002280768, -0.0007025721, 0.1023051, 0.2498954, -9.829508, 0, 0, 45.77295, 1, 1, 2022, 2022
IMU, 247133002, 1, -0.001641086, -0.0007473559, 0.0004911388, 0.1651355, 0.09758373, -9.808676, 0, 0, 46, 1, 1, 1998, 2046
FILE, @SYS/threads.txt, 960, 64, STACK=728/2016\nI2C1          PRI=176 sp=0x2406BBD0 STACK=984/145
FILE, @SYS/threads.txt, 1024, 64, 6\nI2C0          PRI=176 sp=0x2406C4A0 STACK=984/1456\nSPI1       
FILE, @SYS/threads.txt, 1088, 40,    PRI=181 sp=0x24070FC0 STACK=824/1456\n
POWR, 247172898, 4.960071, 5.028571, 1, 1, 6
MCU, 247172898, 45.10934, 3.348676, 3.340954, 3.354597
BAT, 247172932, 0, 15.79575, 15.93868, 1.027851, 74.52052, 1.185136, 0, 0.1390498, 97, 1, 0
MAG, 247172944, 0, -176, -383, 157, 31, 0, -44, 0, 0, 0, 1, 247172941
MAG, 247172944, 1, -314, -715, 552, 132, -200, 136, 0, 0, 0, 1, 247172943
SURF, 247172962, 0, 2, 0, 0, -0.1279546
SURF, 247172971, 1, 2, 0, 0, -0.1279546
BARO, 247172995, 0, -0.04553223, 627.7145, 93945.65, 46.16, -0.1838057, 247172, 0, 35, 1
CTUN, 247173007, -7.748604E-07, -1.199794E-09, 0, 0.4106495, -0.1618877, -0.1618877, -0.04, NaN, 0, -0.04075133, -3, -3
ATT, 247173131, -0.0002703468, 3.167581, -0.0002073418, -0.3471712, 158.9127, 113.4378, 3
ANG, 247172472, -0.0002703468, 3.167566, -0.0002073418, -0.3460453, 158.9127, 113.397, 0.0025
RATE, 247172484, -13.03229, -0.02475786, -0.03058144, 12.74588, -0.03489293, 0.03016869, 302.6304, -0.05627693, 0.9494545, -0.5426407, -0.5426407, 0, 0
PIDR, 247173148, -0.2274874, -0.0004321062, -0.2270553, -0.03065246, 0, 7.102237E-05, 0, 0, 1, 0.01777983, 9
PIDP, 247173152, 0.2224833, -0.0006089965, 0.2230923, 0.03011747, 0, 5.122247E-05, 0, 0, 1, 0.03879115, 9
PIDY, 247173156, 5.281895, -0.0009822177, 5.274747, 0.9494545, 0, 0, 0, 0, 1, 0.5156557, 9
PIDA, 247173160, -0.5426407, -0.5426407, 0, 0, -410.6503, 0, 0, 0, 1, 0, 13
PIDN, 247173164, 0, 0, 0, 0, 0, 0, 0, 0, 0, 0, 0
PIDE, 247173168, 0, 0, 0, 0, 0, 0, 0, 0, 0, 0, 0
XKF4, 247172645, 0, 0.02, 0, 0, 0, 0, 0.006314549, 0.4757288, 0.105337, 0, 48, 113471, 0, 0
XKY0, 247172645, 0, 259.5925, 14.7291, 216.0643, 287.9536, 359.9052, 71.98624, 144.0846, 0.2006095, 0.2007406, 0.1998476, 0.1991663, 0.199636
XKY1, 247172645, 0, -0.03903897, -0.01582444, 0.002230251, -0.009875922, -0.03539572, 0.01579913, 0.004392383, 0.0229547, 0.04587376, 0.04141427
XKF1, 247172645, 0, 3.16, -0.34, 113.43, -0.01415774, 0.03520109, 0.03085278, 0.06146614, 0.6946135, 0.01949121, 0.1618877, 0.08, -0.07, -0.01, 627.76
XKF2, 247172645, 0, 0.02, -0.01, -0.02, 0, 0, 417, -5, 152, 0, 0, 0, 0, 0, 0
XKF3, 247172645, 0, -0.01, 0.06, -0.01, -0.05, 0, 0, 0, 0, 0, -0.66, 0, 0, 0.0002971253
XKF5, 247172645, 0, 0, 0, 0, 0, 0.33, 0.49, 0, 0, 0.5, 0.0001496023, 0.008261105, 0.006152262
XKFS, 247172645, 0, 0, 0, 0, 0, 0, 1, 0, 1
XKQ, 247172645, 0, 0.5486561, -0.01023747, -0.009397505, 0.8359326
XKF4, 247172645, 1, 0.01, 0, 0, 0, 0, 0.006295484, 0.4440304, 0.1163822, 0, 48, 113471, 0, 0
XKY0, 247172645, 1, 132.5117, 14.34688, 215.9825, 287.9865, 359.9944, 71.99535, 143.988, 0.2000069, 0.1999446, 0.1999589, 0.2000299, 0.2000596
XKY1, 247172645, 1, -0.01948711, -0.02026525, -0.02012226, -0.01925577, -0.01886332, 0.02683304, 0.02642994, 0.02556528, 0.02543415, 0.02621762
XKF1, 247172645, 1, 4.13, 0.18, 113.18, -0.004346707, 0.0003794434, 0.03179274, 0.06266156, 0.7050062, -0.01437035, 0.159145, 0.01, 0, 0, 627.76
XKF2, 247172645, 1, 0, -0.01, -0.01, 0, 0, 419, -5, 147, 0, 0, 0, 0, 0, 0
XKF3, 247172645, 1, 0, 0.02, -0.01, -0.04, -0.02, 0, 0, 0, 0, -0.57, 0, 0.01633531, 8.832773E-05
XKFS, 247172645, 1, 0, 0, 0, 0, 0, 1, 0, 1
XKQ, 247172645, 1, 0.5505291, -0.00950379, 0.0001943681, 0.8347618
AHR2, 247173260, 4.11, -0.09, 113.2, 627.47, 15.3676842, 75.1253368, 0.5498232, 0.02046834, 0.02946566, 0.8345101
POS, 247173266, 15.3676837, 75.1253368, 627.59, -0.03188771, -0.1618877
MOTB, 247173270, 1, 1, 1, 0.04106495, 0, 2
RCIN, 247173277, 1102, 1927, 1102, 1927, 1102, 1000, 1000, 875, 2000, 1495, 1000, 1000, 875, 875
RCI2, 247173280, 875, 875, 0, 1
RCOU, 247173290, 1000, 1000, 1000, 1000, 0, 0, 0, 0, 1495, 0, 0, 0, 0, 0
RCO2, 247173293, 0, 0, 0, 0
PSCN, 247173300, 0.6946135, 0.6946135, 0.6946135, -0.01415774, -0.01415774, -0.01415774, 0, 0, 2.8375E-05
PSCE, 247173304, 0.01949121, 0.01949121, 0.01949121, 0.03520109, 0.03520109, 0.03520109, 0, 0, 5.094493E-05
PSCD, 247173309, 0.1618877, 0.1618877, 0.1618877, 0.03085278, 0.03085278, 0.03085278, 0.005426407, 0.005426407, 0.005426407
VIBE, 247173313, 0, 0.009269049, 0.009136068, 0.009406092, 0
VIBE, 247173313, 1, 0.06218808, 0.05776057, 0.07419796, 0
CTRL, 247173321, 0.03104488, 9.875041E-05, 0.02765568, 0.000574199, 0.8476865
IMU, 247173332, 0, 0.00104537, -0.001930894, -0.001220143, 0.09422302, 0.2654682, -9.824243, 0, 0, 45.28986, 1, 1, 2022, 2022
IMU, 247173332, 1, 0.0006657753, 0.002240108, -0.0006762753, 0.1424094, 0.1055758, -9.808242, 0, 0, 46, 1, 1, 1998, 2046
DCM, 247175088, 4.110428, -0.09937071, 113.2077, 0.0151893, 0.00947926, 0, 0, 0
EAHR, 247175107, 0, 0, 0, 0, 0, 0, 0, 0, 0, 0
FILE, @SYS/timers.txt, 0, 64, TIMERV1\nTIM5  CLK= 200Mhz MODE=  PWM FREQ=       7 TGT=       8\n
FILE, @SYS/timers.txt, 64, 64, TIM4  CLK= 200Mhz MODE=  PWM FREQ=       7 TGT=       8\nTIM1  CL
IMU, 247213363, 0, 0.00111616, -0.002531519, 0.0006267529, 0.1073064, 0.2582493, -9.827702, 0, 0, 45.28986, 1, 1, 2022, 2022
IMU, 247213363, 1, 0.001295769, 0.0004912664, 0.001174633, 0.1582303, 0.09298986, -9.804882, 0, 0, 46, 1, 1, 1998, 2046
FILE, @SYS/timers.txt, 128, 48, K= 200Mhz MODE=  PWM FREQ=       7 TGT=       8\n
SURF, 247222916, 0, 2, 0, 0, -0.1296115
SURF, 247222929, 1, 2, 0, 0, -0.1296115
STAK, 247228222, 10, 60, 752, 256, UART7
FILE, @ROMFS/hwdef.dat, 0, 64, MCU STM32H7xx STM32H743xx\nOSCILLATOR_HZ 16000000\nSTM32_ST_USE_TI
IMU, 247253261, 0, 0.0009364507, -0.002056831, -0.0003142773, 0.09670462, 0.2545108, -9.826797, 0, 0, 45.77295, 1, 1, 2022, 2022
IMU, 247253261, 1, 0.0005700635, -0.001405539, -0.000446339, 0.1641979, 0.08568144, -9.83557, 0, 0, 46, 1, 1, 1998, 2046
FILE, @ROMFS/hwdef.dat, 64, 64, MER 2\nUSB_VENDOR 0x3162\nUSB_PRODUCT 0x0053\nUSB_STRING_MANUFACTUR
POWR, 247272909, 4.960474, 5.026154, 1, 1, 6
MCU, 247272909, 45.12922, 3.348676, 3.342355, 3.354738
BAT, 247272926, 0, 15.79168, 15.93699, 1.045021, 74.54955, 1.185595, 0, 0.1390498, 97, 1, 0
MAG, 247272937, 0, -176, -382, 159, 31, 0, -44, 0, 0, 0, 1, 247272935
MAG, 247272937, 1, -312, -715, 580, 132, -200, 136, 0, 0, 0, 1, 247272936
SURF, 247272955, 0, 2, 0, 0, -0.1313129
SURF, 247272964, 1, 2, 0, 0, -0.1313129
BARO, 247273009, 0, -0.1043091, 627.6557, 93946.29, 46.16, 0.003109156, 247273, 0, 35, 1
CTUN, 247273022, -7.748604E-07, -1.198487E-09, 0, 0.4106495, -0.1667382, -0.1667382, -0.1, NaN, 0, -0.04075133, -3, -3
ATT, 247273101, -0.0002461237, 3.16584, -0.0002313043, -0.3472652, 158.9167, 113.4408, 3
ANG, 247272475, -0.0002461237, 3.165824, -0.0002313043, -0.3461404, 158.9167, 113.4001, 0.002503
RATE, 247272490, -13.0241, -0.01910494, -0.03064959, 12.74017, -0.0407874, 0.03019558, 302.6307, -0.07812006, 0.9504619, 0.4339218, 0.4339218, 0, 0
PIDR, 247273118, -0.2273489, -0.0003334442, -0.2270154, -0.03064708, 0, -2.513102E-06, 0, 0, 1, 0.0186975, 9
PIDP, 247273121, 0.2223499, -0.0007118745, 0.2230617, 0.03011333, 0, 8.224177E-05, 0, 0, 1, 0.03943244, 9
PIDY, 247273125, 5.281902, -0.001363452, 5.280344, 0.9504619, 0, 0, 0, 0, 1, 0.4665248, 9
PIDA, 247273129, 0.4339218, 0.4339218, 0, 0, -410.6503, 0, 0, 0, 1, 0, 13
PIDN, 247273133, 0, 0, 0, 0, 0, 0, 0, 0, 0, 0, 0
PIDE, 247273137, 0, 0, 0, 0, 0, 0, 0, 0, 0, 0, 0
XKF4, 247272610, 0, 0.02, 0, 0, 0, 0, 0.006393655, 0.4757288, 0.105337, 0, 48, 113471, 0, 0
XKY0, 247272610, 0, 259.5905, 14.72912, 216.0623, 287.9515, 359.9032, 71.9842, 144.0826, 0.2006095, 0.2007406, 0.1998476, 0.1991663, 0.199636
XKY1, 247272610, 0, -0.03903897, -0.01582444, 0.002230251, -0.009875922, -0.03539572, 0.01579913, 0.004392383, 0.0229547, 0.04587376, 0.04141427
XKF1, 247272610, 0, 3.16, -0.34, 113.44, -0.01414346, 0.03046259, 0.03156667, 0.05307991, 0.694819, 0.01860631, 0.1667382, 0.08, -0.07, -0.01, 627.76
XKF2, 247272610, 0, 0.02, -0.01, -0.02, 0, 0, 417, -5, 152, 0, 0, 0, 0, 0, 0
XKF3, 247272610, 0, -0.01, 0.06, -0.01, -0.05, 0, 0.11, 0, 0, 0, -0.64, 0, 0, 0.0002971253
XKF5, 247272610, 0, 0, 0, 0, 0, 0.33, 0.49, 0, 0, 0.5, 0.0001150927, 0.003276507, 0.004912628
XKFS, 247272610, 0, 0, 0, 0, 0, 0, 1, 0, 1
XKQ, 247272610, 0, 0.5486333, -0.01024487, -0.009410935, 0.8359473
XKF4, 247272610, 1, 0.01, 0, 0, 0, 0, 0.006374335, 0.4440304, 0.1163822, 0, 48, 113471, 0, 0
XKY0, 247272610, 1, 132.5134, 14.3469, 215.9841, 287.9881, 359.996, 71.99696, 143.9896, 0.2000069, 0.1999446, 0.1999589, 0.2000299, 0.2000596
XKY1, 247272610, 1, -0.01948711, -0.02026525, -0.02012226, -0.01925577, -0.01886332, 0.02683304, 0.02642994, 0.02556528, 0.02543415, 0.02621762
XKF1, 247272610, 1, 4.13, 0.18, 113.18, -0.004620851, -0.001386492, 0.03248685, 0.05426862, 0.7051077, -0.01482446, 0.1641422, 0.01, 0, 0, 627.76
XKF2, 247272610, 1, 0, -0.01, -0.01, 0, 0, 419, -5, 147, 0, 0, 0, 0, 0, 0
XKF3, 247272610, 1, 0, 0.02, -0.01, -0.04, -0.02, 0.11, 0, 0, 0, -0.55, 0, 0.01633531, 8.832773E-05
XKFS, 247272610, 1, 0, 0, 0, 0, 0, 1, 0, 1
XKQ, 247272610, 1, 0.5505212, -0.009514397, 0.0002132021, 0.834767
AHR2, 247273331, 4.09, -0.08, 113.21, 627.58, 15.3676842, 75.1253368, 0.5497789, 0.02032388, 0.02944657, 0.8345436
POS, 247273337, 15.3676837, 75.1253368, 627.59, -0.0367382, -0.1667382
MOTB, 247273341, 1, 1, 1, 0.04106495, 0, 2
RCIN, 247273347, 1102, 1927, 1102, 1927, 1102, 1000, 1000, 875, 2000, 1495, 1000, 1000, 875, 875
RCI2, 247273351, 875, 875, 0, 1
RCOU, 247273358, 1000, 1000, 1000, 1000, 0, 0, 0, 0, 1495, 0, 0, 0, 0, 0
RCO2, 247273361, 0, 0, 0, 0
PSCN, 247273368, 0.6948189, 0.6948189, 0.6948189, -0.01414346, -0.01414346, -0.01414346, 0, 0, 2.293835E-05
PSCE, 247273372, 0.01860631, 0.01860631, 0.01860631, 0.03046259, 0.03046259, 0.03046259, 0, 0, 5.306396E-05
PSCD, 247273379, 0.1667382, 0.1667382, 0.1667382, 0.03156667, 0.03156667, 0.03156667, -0.004339218, -0.004339218, -0.004339218
VIBE, 247273384, 0, 0.009034328, 0.008139867, 0.009842384, 0
VIBE, 247273384, 1, 0.06056437, 0.06503671, 0.07795889, 0
CTRL, 247273392, 0.03091755, 8.432013E-05, 0.02848441, 0.0004735628, 0.8829032
FILE, @ROMFS/hwdef.dat, 128, 64, ER "Holybro"\nAPJ_BOARD_ID 56\nFLASH_RESERVE_START_KB 128\nenv USE_
DCM, 247275132, 4.099187, -0.08673195, 113.2145, 0.0151893, 0.009595696, 0, 0, 0
EAHR, 247275151, 0, 0, 0, 0, 0, 0, 0, 0, 0, 0
