FMT, 128, 89, FMT, BBnNZ, Type,Length,Name,Format,Columns
FMT, 119, 76, UNIT, QbZ, TimeUS,Id,Label
FMT, 118, 44, FMTU, QBNN, TimeUS,FmtType,UnitIds,MultIds
FMT, 120, 20, MULT, Qbd, TimeUS,Id,Mult
FMT, 32, 35, PARM, QNff, TimeUS,Name,Value,Default
FMT, 94, 51, GPS, QBBIHBcLLeffffB, TimeUS,I,Status,GMS,GWk,NSats,HDop,Lat,Lng,Alt,Spd,GCrs,VZ,Yaw,U
FMT, 95, 39, GPA, QBCCCCfBIHeHH, TimeUS,I,VDop,HAcc,VAcc,SAcc,YAcc,VV,SMS,Delta,AEl,RTCMFU,RTCMFD
FMT, 99, 22, UBX1, QBHBBHI, TimeUS,Instance,noisePerMS,jamInd,aPower,agcCnt,config
FMT, 100, 16, UBX2, QBbBbB, TimeUS,Instance,ofsI,magI,ofsQ,magQ
FMT, 96, 42, GRAW, QIHBBddfBbB, TimeUS,WkMS,Week,numSV,sv,cpMes,prMes,doMes,mesQI,cno,lli
FMT, 97, 24, GRXH, QdHbBB, TimeUS,rcvTime,week,leapS,numMeas,recStat
FMT, 98, 41, GRXS, QddfBBBHBBBBB, TimeUS,prMes,cpMes,doMes,gnss,sv,freq,lock,cno,prD,cpD,doD,trk
FMT, 101, 23, SBPH, QIII, TimeUS,CrcError,LastInject,IARhyp
FMT, 102, 67, SBRH, QQQQQQQQ, TimeUS,msg_flag,1,2,3,4,5,6
FMT, 103, 123, SBRM, QQQQQQQQQQQQQQQ, TimeUS,msg_flag,1,2,3,4,5,6,7,8,9,10,11,12,13
FMT, 104, 23, SBRE, QHIiBB, TimeUS,GWk,GMS,ns_residual,level,quality
FMT, 59, 75, MSG, QZ, TimeUS,Message
FMT, 60, 39, RCIN, QHHHHHHHHHHHHHH, TimeUS,C1,C2,C3,C4,C5,C6,C7,C8,C9,C10,C11,C12,C13,C14
FMT, 61, 18, RCI2, QHHHB, TimeUS,C15,C16,OMask,Flags
FMT, 62, 39, RCOU, QHHHHHHHHHHHHHH, TimeUS,C1,C2,C3,C4,C5,C6,C7,C8,C9,C10,C11,C12,C13,C14
FMT, 207, 19, RCO2, QHHHH, TimeUS,C15,C16,C17,C18
FMT, 208, 39, RCO3, QHHHHHHHHHHHHHH, TimeUS,C19,C20,C21,C22,C23,C24,C25,C26,C27,C28,C29,C30,C31,C32
FMT, 63, 19, RSSI, Qff, TimeUS,RXRSSI,RXLQ
FMT, 64, 43, BARO, QBfffcfIffB, TimeUS,I,Alt,AltAMSL,Press,Temp,CRt,SMS,Offset,GndTemp,Health
FMT, 65, 24, BARD, QBfff, TimeUS,I,DynPrX,DynPrY,DynPrZ
FMT, 66, 25, CANF, QBIBBBBBBBBB, TimeUS,Bus,Id,DLC,B0,B1,B2,B3,B4,B5,B6,B7
FMT, 67, 81, CAFD, QBIBQQQQQQQQ, TimeUS,Bus,Id,DLC,D0,D1,D2,D3,D4,D5,D6,D7
FMT, 196, 50, PL, QBBfffffffIIB, TimeUS,Heal,TAcq,pX,pY,vX,vY,mX,mY,mZ,LastMeasMS,EKFOutl,Est
FMT, 68, 24, POWR, QffHHB, TimeUS,Vcc,VServo,Flags,AccFlags,Safety
FMT, 69, 27, MCU, Qffff, TimeUS,MTemp,MVolt,MVmin,MVmax
FMT, 93, 46, CMD, QHHHffffLLfB, TimeUS,CTot,CNum,CId,Prm1,Prm2,Prm3,Prm4,Lat,Lng,Alt,Frame
FMT, 92, 46, MISE, QHHHffffLLfB, TimeUS,CTot,CNum,CId,Prm1,Prm2,Prm3,Prm4,Lat,Lng,Alt,Frame
FMT, 78, 48, MAVC, QBBBBBHffffiifBB, TimeUS,TS,TC,SS,SC,Fr,Cmd,P1,P2,P3,P4,X,Y,Z,Res,WL
FMT, 79, 20, RAD, QBBBBBHH, TimeUS,RSSI,RemRSSI,TxBuf,Noise,RemNoise,RxErrors,Fixed
FMT, 81, 46, CAM, QBHIHLLeeeccC, TimeUS,I,Img,GPSTime,GPSWeek,Lat,Lng,Alt,RelAlt,GPSAlt,R,P,Y
FMT, 82, 46, TRIG, QBHIHLLeeeccC, TimeUS,I,Img,GPSTime,GPSWeek,Lat,Lng,Alt,RelAlt,GPSAlt,R,P,Y
FMT, 83, 48, MNT, QBfffffffff, TimeUS,I,DRoll,Roll,DPitch,Pitch,DYawB,YawB,DYawE,YawE,Dist
FMT, 114, 41, ARSP, QBffcffBBffB, TimeUS,I,Airspeed,DiffPress,Temp,RawPress,Offset,U,H,Hp,TR,Pri
FMT, 88, 41, BAT, QBfffffcfBBB, TimeUS,Inst,Volt,VoltR,Curr,CurrTot,EnrgTot,Temp,Res,RemPct,H,SH
FMT, 89, 40, BCL, QBfHHHHHHHHHHHH, TimeUS,Instance,Volt,V1,V2,V3,V4,V5,V6,V7,V8,V9,V10,V11,V12
FMT, 113, 35, MAG, QBhhhhhhhhhBI, TimeUS,I,MagX,MagY,MagZ,OfsX,OfsY,OfsZ,MOX,MOY,MOZ,Health,S
FMT, 122, 14, MODE, QMBB, TimeUS,Mode,ModeNum,Rsn
FMT, 116, 17, RFND, QBCBBb, TimeUS,Instance,Dist,Stat,Orient,Quality
FMT, 117, 36, DMS, QIIIIBBBBBBBBB, TimeUS,N,Dp,RT,RS,Fa,Fmn,Fmx,Pa,Pmn,Pmx,Sa,Smn,Smx
FMT, 174, 41, BCN, QBBfffffff, TimeUS,Health,Cnt,D0,D1,D2,D3,PosX,PosY,PosZ
FMT, 175, 57, PRX, QBBfffffffffff, TimeUS,Layer,He,D0,D45,D90,D135,D180,D225,D270,D315,DUp,CAn,CDis
FMT, 176, 44, PRXR, QBffffffff, TimeUS,Layer,D0,D45,D90,D135,D180,D225,D270,D315
FMT, 179, 61, PM, QHHHIIHHIIIIIIQ, TimeUS,LR,NLon,NL,MaxT,Mem,Load,ErrL,InE,ErC,SPIC,I2CC,I2CI,Ex,R
FMT, 178, 29, SRTL, QBHHBfff, TimeUS,Active,NumPts,MaxPts,Action,N,E,D
FMT, 170, 48, OABR, QBBHHHBfLLiLLi, TimeUS,Type,Act,DYaw,Yaw,DP,RChg,Mar,DLt,DLg,DAlt,OLt,OLg,OAlt
FMT, 171, 31, OADJ, QBBBBLLLL, TimeUS,State,Err,CurrPoint,TotPoints,DLat,DLng,OALat,OALng
FMT, 172, 37, SA, QBffffffB, TimeUS,State,DVelX,DVelY,DVelZ,MVelX,MVelY,MVelZ,Back
FMT, 173, 21, OAVG, QBBLL, TimeUS,version,point_num,Lat,Lon
FMT, 77, 45, SIM, QccCfLLffff, TimeUS,Roll,Pitch,Yaw,Alt,Lat,Lng,Q1,Q2,Q3,Q4
FMT, 84, 38, TERR, QBLLHffHHf, TimeUS,Status,Lat,Lng,Spacing,TerrH,CHeight,Pending,Loaded,ROfs
FMT, 86, 40, ESC, QBffffcfcf, TimeUS,Instance,RPM,RawRPM,Volt,Curr,Temp,CTot,MotTemp,Err
FMT, 87, 15, EDT2, QBBBB, TimeUS,Instance,Stress,MaxStress,Status
FMT, 85, 46, CSRV, QBfffBfffffB, TimeUS,Id,Pos,Force,Speed,Pow,PosCmd,V,A,MotT,PCBT,Err
FMT, 105, 52, PIDR, QffffffffffB, TimeUS,Tar,Act,Err,P,I,D,FF,DFF,Dmod,SRate,Flags
FMT, 106, 52, PIDP, QffffffffffB, TimeUS,Tar,Act,Err,P,I,D,FF,DFF,Dmod,SRate,Flags
FMT, 107, 52, PIDY, QffffffffffB, TimeUS,Tar,Act,Err,P,I,D,FF,DFF,Dmod,SRate,Flags
FMT, 108, 52, PIDA, QffffffffffB, TimeUS,Tar,Act,Err,P,I,D,FF,DFF,Dmod,SRate,Flags
FMT, 109, 52, PIDS, QffffffffffB, TimeUS,Tar,Act,Err,P,I,D,FF,DFF,Dmod,SRate,Flags
FMT, 110, 52, PIDN, QffffffffffB, TimeUS,Tar,Act,Err,P,I,D,FF,DFF,Dmod,SRate,Flags
FMT, 111, 52, PIDE, QffffffffffB, TimeUS,Tar,Act,Err,P,I,D,FF,DFF,Dmod,SRate,Flags
FMT, 112, 56, DSTL, QBfLLeccfeffff, TimeUS,Stg,THdg,Lat,Lng,Alt,XT,Travel,L1I,Loiter,Des,P,I,D
FMT, 161, 32, ACC, QBQfff, TimeUS,I,SampleUS,AccX,AccY,AccZ
FMT, 162, 32, GYR, QBQfff, TimeUS,I,SampleUS,GyrX,GyrY,GyrZ
FMT, 163, 54, IMU, QBffffffIIfBBHH, TimeUS,I,GyrX,GyrY,GyrZ,AccX,AccY,AccZ,EG,EA,T,GH,AH,GHz,AHz
FMT, 166, 28, VIBE, QBfffI, TimeUS,IMU,VibeX,VibeY,VibeZ,Clip
FMT, 164, 31, ISBH, QHBBHHQf, TimeUS,N,type,instance,mul,smp_cnt,SampleUS,smp_rate
FMT, 165, 207, ISBD, QHHaaa, TimeUS,N,seqno,x,y,z
FMT, 129, 15, RFRH, QI, TimeUS,TF
FMT, 130, 5, RFRF, BB, FTypes,Slow
FMT, 138, 38, RFRN, IIIfIfffBBB, HLat,HLon,HAlt,E2T,AM,TX,TY,TZ,VC,EKT,Flags
FMT, 131, 4, REV2, B, Event
FMT, 132, 15, RSO2, III, Lat,Lon,Alt
FMT, 133, 11, RWA2, ff, Airspeed,uncertainty
FMT, 134, 4, REV3, B, Event
FMT, 135, 15, RSO3, III, Lat,Lon,Alt
FMT, 136, 11, RWA3, ff, Airspeed,Uncertainty
FMT, 137, 16, REY3, ffIB, yawangle,yawangleerr,timestamp_ms,type
FMT, 139, 13, RISH, HBBfBB, LR,PG,PA,LD,AC,GC
FMT, 140, 37, RISI, ffffffffBB, DVX,DVY,DVZ,DAX,DAY,DAZ,DVDT,DADT,Flags,I
FMT, 148, 5, RASH, BB, Primary,NumInst
FMT, 149, 14, RASI, fIBBB, pd,UpdateMS,H,Use,I
FMT, 141, 5, RBRH, BB, Primary,NumInst
FMT, 142, 13, RBRI, IfBB, LastUpdate,Alt,H,I
FMT, 143, 8, RRNH, hhB, GCl,MaxD,NumSensors
FMT, 144, 20, RRNI, fffHBBB, PX,PY,PZ,Dist,Orient,Status,I
FMT, 145, 5, RGPH, BB, NumInst,Primary
FMT, 146, 23, RGPI, ffffBBBB, OX,OY,OZ,Lg,Flags,Stat,NSats,I
FMT, 147, 58, RGPJ, IffffffIiiiffHB, TS,VX,VY,VZ,SA,Y,YA,YT,Lat,Lon,Alt,HA,VA,HD,I
FMT, 153, 14, RMGH, fBBBBBBB, Dec,Avail,NumInst,AutoDec,NumEna,LOE,C,FUsable
FMT, 154, 35, RMGI, IffffffBBBB, LU,OX,OY,OZ,FX,FY,FZ,UFY,H,HSF,I
FMT, 150, 33, RBCH, ffffiiiBB, PX,PY,PZ,AE,OLat,OLng,OAlt,Flags,NumInst
FMT, 151, 25, RBCI, IffffBB, LU,PX,PY,PZ,Dist,H,I
FMT, 152, 21, RVOH, fffIBB, OX,OY,OZ,Del,H,Ena
FMT, 155, 40, ROFH, ffffIffffB, FX,FY,GX,GY,Tms,PX,PY,PZ,HgtOvr,Qual
FMT, 156, 49, REPH, fffffffffIIH, PX,PY,PZ,Q1,Q2,Q3,Q4,PEr,AEr,TS,RT,D
FMT, 157, 19, RSLL, IIfI, Lat,Lng,PosAccSD,TS
FMT, 158, 25, REVH, ffffIH, VX,VY,VZ,Er,TS,D
FMT, 159, 31, RWOH, ffIffff, DA,DT,TS,PX,PY,PZ,R
FMT, 160, 53, RBOH, ffffffffIfffH, Q,DPX,DPY,DPZ,DAX,DAY,DAZ,DT,TS,OX,OY,OZ,D
FMT, 43, 37, XKF0, QBBccCCcccccccc, TimeUS,C,ID,rng,innov,SIV,TR,BPN,BPE,BPD,OFH,OFL,OFN,OFE,OFD
FMT, 44, 56, XKF1, QBccCfffffffccce, TimeUS,C,Roll,Pitch,Yaw,VN,VE,VD,dPD,PN,PE,PD,GX,GY,GZ,OH
FMT, 45, 46, XKF2, QBccccchhhhhhfff, TimeUS,C,AX,AY,AZ,VWN,VWE,MN,ME,MD,MX,MY,MZ,IDX,IDY,IS
FMT, 46, 42, XKF3, QBcccccchhhccff, TimeUS,C,IVN,IVE,IVD,IPN,IPE,IPD,IMX,IMY,IMZ,IYAW,IVT,RErr,ErSc
FMT, 47, 44, XKF4, QBcccccfffHBIHb, TimeUS,C,SV,SP,SH,SM,SVT,errRP,OFN,OFE,FS,TS,SS,GPS,PI
FMT, 48, 41, XKF5, QBBhhhcccCCfff, TimeUS,C,NI,FIX,FIY,AFI,HAGL,offset,RI,rng,Herr,eAng,eVel,ePos
FMT, 49, 36, XKFD, QBffffff, TimeUS,C,IX,IY,IZ,IVX,IVY,IVZ
FMT, 50, 29, XKFM, QBBffff, TimeUS,C,OGNM,GLR,ALR,GDR,ADR
FMT, 51, 20, XKFS, QBBBBBBBBB, TimeUS,C,MI,BI,GI,AI,SS,GPS_GTA,GPS_CHK_WAIT,MAG_FUSION
FMT, 52, 28, XKQ, QBffff, TimeUS,C,Q1,Q2,Q3,Q4
FMT, 53, 48, XKT, QBIffffffff, TimeUS,C,Cnt,IMUMin,IMUMax,EKFMin,EKFMax,AngMin,AngMax,VMin,VMax
FMT, 54, 20, XKTV, QBff, TimeUS,C,TVS,TVD
FMT, 55, 60, XKV1, QBffffffffffff, TimeUS,C,V00,V01,V02,V03,V04,V05,V06,V07,V08,V09,V10,V11
FMT, 56, 60, XKV2, QBffffffffffff, TimeUS,C,V12,V13,V14,V15,V16,V17,V18,V19,V20,V21,V22,V23
FMT, 57, 60, XKY0, QBffffffffffff, TimeUS,C,YC,YCS,Y0,Y1,Y2,Y3,Y4,W0,W1,W2,W3,W4
FMT, 58, 52, XKY1, QBffffffffff, TimeUS,C,IVN0,IVN1,IVN2,IVN3,IVN4,IVE0,IVE1,IVE2,IVE3,IVE4
FMT, 41, 60, NKY0, QBffffffffffff, TimeUS,C,YC,YCS,Y0,Y1,Y2,Y3,Y4,W0,W1,W2,W3,W4
FMT, 42, 52, NKY1, QBffffffffff, TimeUS,C,IVN0,IVN1,IVN2,IVN3,IVN4,IVE0,IVE1,IVE2,IVE3,IVE4
FMT, 70, 45, AHR2, QccCfLLffff, TimeUS,Roll,Pitch,Yaw,Alt,Lat,Lng,Q1,Q2,Q3,Q4
FMT, 71, 19, AOA, Qff, TimeUS,AOA,SSA
FMT, 72, 36, ATT, QffffffB, TimeUS,DesRoll,Roll,DesPitch,Pitch,DesYaw,Yaw,AEKF
FMT, 73, 24, ORGN, QBLLe, TimeUS,Type,Lat,Lng,Alt
FMT, 74, 31, POS, QLLfff, TimeUS,Lat,Lng,Alt,RelHomeAlt,RelOriginAlt
FMT, 76, 35, ATSC, Qffffff, TimeUS,AngPScX,AngPScY,AngPScZ,PDScX,PDScY,PDScZ
FMT, 204, 51, VSTB, Qffffffffff, TimeUS,GyrX,GyrY,GyrZ,AccX,AccY,AccZ,Q1,Q2,Q3,Q4
FMT, 90, 38, MON, QIbIHHHHHII, TimeUS,Dly,Tsk,IErr,IErrCnt,IErrLn,MM,MC,SmLn,SPICnt,I2CCnt
FMT, 91, 47, WDOG, QbIHHHHHHHIBIIn, TimeUS,Tsk,IE,IEC,IEL,MvMsg,MvCmd,SmLn,FL,FT,FA,FP,ICSR,LR,TN
FMT, 210, 20, UART, QBff, TimeUS,I,Tx,Rx
FMT, 115, 21, RPM, QBffB, TimeUS,I,RPM,Qual,H
FMT, 209, 27, FNCE, QBBBLLBf, TimeUS,Tot,Seq,Type,Lat,Lng,Count,Radius
FMT, 177, 33, DSF, QIHIIII, TimeUS,Dp,Blk,Bytes,FMn,FMx,FAv
FMT, 121, 24, RALY, QBBLLhB, TimeUS,Tot,Seq,Lat,Lng,Alt,Flags
FMT, 183, 23, MAV, QBHHHBHH, TimeUS,chan,txp,rxp,rxdp,flags,ss,tf
FMT, 167, 43, VISO, Qffffffff, TimeUS,dt,AngDX,AngDY,AngDZ,PosDX,PosDY,PosDZ,conf
FMT, 168, 58, VISP, QQIffffffffBBb, TimeUS,RTimeUS,CTimeMS,PX,PY,PZ,R,P,Y,PErr,AErr,Rst,Ign,Q
FMT, 169, 42, VISV, QQIffffBBb, TimeUS,RTimeUS,CTimeMS,VX,VY,VZ,VErr,Rst,Ign,Q
FMT, 180, 28, OF, QBffff, TimeUS,Qual,flowX,flowY,bodyX,bodyY
FMT, 182, 21, WENC, Qfbfb, TimeUS,Dist0,Qual0,Dist1,Qual1
FMT, 185, 35, ADSB, QIiiiHHhH, TimeUS,ICAO_address,Lat,Lng,Alt,Heading,Hor_vel,Ver_vel,Squark
FMT, 181, 12, EV, QB, TimeUS,Id
FMT, 186, 18, ARM, QBIBB, TimeUS,ArmState,ArmChecks,Forced,Method
FMT, 184, 13, ERR, QBB, TimeUS,Subsys,ECode
FMT, 187, 35, WINC, QBBBBBfffHfb, TimeUS,Heal,ThEnd,Mov,Clut,Mode,DLen,Len,DRate,Tens,Vcc,Temp
FMT, 188, 47, PSCN, Qfffffffff, TimeUS,DPN,TPN,PN,DVN,TVN,VN,DAN,TAN,AN
FMT, 189, 47, PSCE, Qfffffffff, TimeUS,DPE,TPE,PE,DVE,TVE,VE,DAE,TAE,AE
FMT, 190, 47, PSCD, Qfffffffff, TimeUS,DPD,TPD,PD,DVD,TVD,VD,DAD,TAD,AD
FMT, 191, 35, PSON, Qffffff, TimeUS,TPON,PON,TVON,VON,TAON,AON
FMT, 192, 35, PSOE, Qffffff, TimeUS,TPOE,POE,TVOE,VOE,TAOE,AOE
FMT, 193, 35, PSOD, Qffffff, TimeUS,TPOD,POD,TVOD,VOD,TAOD,AOD
FMT, 194, 35, PSOT, Qffffff, TimeUS,TPOT,POT,TVOT,VOT,TAOT,AOT
FMT, 75, 63, RATE, Qfffffffffffff, TimeUS,RDes,R,ROut,PDes,P,POut,YDes,Y,YOut,ADes,A,AOut,AOutSlew
FMT, 195, 39, ANG, Qfffffff, TimeUS,DesRoll,Roll,DesPitch,Pitch,DesYaw,Yaw,Dt
FMT, 201, 33, STAK, QBBHHN, TimeUS,Id,Pri,Total,Free,Name
FMT, 202, 88, FILE, NIBZ, FileName,Offset,Length,Data
FMT, 197, 78, AISR, QBBBZ, TimeUS,num,total,ID,payload
FMT, 198, 41, AIS1, QBBIBbHbLLHHBBbI, US,typ,rep,mmsi,nav,rot,sog,pos,lon,lat,cog,hed,sec,man,raim,rad
FMT, 199, 38, AIS4, QBIHBBBBBBLLBBI, US,rep,mmsi,year,mth,day,h,m,s,fix,lon,lat,epfd,raim,rad
FMT, 200, 175, AIS5, QBIBINZBHHBBBBZB, US,rep,mmsi,ver,imo,cal,nam,typ,bow,stn,prt,str,fix,dght,dst,dte
FMT, 203, 39, SCR, QNIii, TimeUS,Name,Runtime,Total_mem,Run_mem
FMT, 206, 90, VER, QBHBBBBIZHBB, TimeUS,BT,BST,Maj,Min,Pat,FWT,GH,FWS,APJ,BU,FV
FMT, 205, 32, MOTB, QfffffB, TimeUS,LiftMax,BatVolt,ThLimit,ThrAvMx,ThrOut,FailFlags
FMT, 6, 24, PTUN, QBfff, TimeUS,Param,TunVal,TunMin,TunMax
FMT, 0, 55, CTUN, Qffffffefffhh, TimeUS,ThI,ABst,ThO,ThH,DAlt,Alt,BAlt,DSAlt,SAlt,TAlt,DCRt,CRt
FMT, 1, 14, D16, QBh, TimeUS,Id,Value
FMT, 2, 14, DU16, QBH, TimeUS,Id,Value
FMT, 3, 16, D32, QBi, TimeUS,Id,Value
FMT, 4, 16, DU32, QBI, TimeUS,Id,Value
FMT, 5, 16, DFLT, QBf, TimeUS,Id,Value
FMT, 9, 47, SIDD, Qfffffffff, TimeUS,Time,Targ,F,Gx,Gy,Gz,Ax,Ay,Az
FMT, 10, 40, SIDS, QBfffffff, TimeUS,Ax,Mag,FSt,FSp,TFin,TC,TR,TFout
FMT, 8, 49, GUIP, QBfffbffffff, TimeUS,Type,pX,pY,pZ,Terrain,vX,vY,vZ,aX,aY,aZ
FMT, 11, 44, GUIA, QBffffffff, TimeUS,Type,Roll,Pitch,Yaw,RollRt,PitchRt,YawRt,Thrust,ClimbRt
IMU, 89413839, 0, -0.0009468589, 5.445574E-05, -0.0001303158, -0.3586293, -0.2272591, -9.801484, 0, 0, 44.32367, 1, 1, 2022, 2022
IMU, 89413839, 1, 0.0004495451, 0.0004910911, -0.0002493689, -0.2814287, -0.4181184, -9.78417, 0, 0, 45, 1, 1, 1999, 2045
FMT, 248, 25, SURF, QBBfff, TimeUS,I,St,D,FD,TO
SURF, 89424115, 0, 2, 0, 0, 0.06716303
SURF, 89424144, 1, 2, 0, 0, 0.06716303
IMU, 89453833, 0, -0.0002230559, -0.0004301959, 0.0002814865, -0.3628922, -0.2316299, -9.803652, 0, 0, 44.80676, 1, 1, 2022, 2022
IMU, 89453833, 1, 0.0001805423, -0.0006089308, 0.0008901558, -0.2867039, -0.4283774, -9.808956, 0, 0, 45, 1, 1, 1999, 2045
POWR, 89474011, 4.937814, 5.091428, 1, 1, 6
MCU, 89474011, 40.27833, 3.348254, 3.340534, 3.35375
BAT, 89474025, 0, 15.54163, 15.78178, 1.206178, 31.13947, 0.4865394, 0, 0.1991007, 99, 1, 0
MAG, 89474037, 0, -277, -169, 264, -382, 367, 647, 0, 0, 0, 1, 89474035
MAG, 89474037, 1, -11, -383, 193, 30, 10, -27, 0, 0, 0, 1, 89474034
SURF, 89474055, 0, 2, 0, 0, 0.06785318
SURF, 89474064, 1, 2, 0, 0, 0.06785318
BARO, 89474084, 0, -0.081604, 660.7284, 93636.96, 40.51, 0.02581016, 89474, 0, 35, 1
CTUN, 89474096, 0, 0, 0, 0.3996059, 0.08163425, 0.08163425, -0.08, NaN, 0, 0.0185863, 1, 1
ATT, 89474243, -2.339809E-05, 1.597964, -0.0003445859, -0.874339, 145.9613, 145.9272, 3
ANG, 89473324, -2.339809E-05, 1.597078, -0.0003445859, -0.8748145, 145.9613, 145.9613, 0.0025
RATE, 89473337, -7.186323, 0.00812203, -0.01697444, 3.93833, -0.02079532, 0.009396148, -0.05493945, 0.008800182, -0.0002014149, 0.0617981, 0.0617981, 0, 0
PIDR, 89474261, -0.1254212, 0.0001417562, -0.1255629, -0.01695099, 0, -2.344784E-05, 0, 0, 1, 0.02009037, 9
PIDP, 89474265, 0.06870413, -0.0003629468, 0.06906708, 0.009324055, 0, 7.209316E-05, 0, 0, 1, 0.03791021, 9
PIDY, 89474269, -0.0009582907, 0.0001535921, -0.001118972, -0.0002014149, 0, 0, 0, 0, 1, 0.00158096, 9
PIDA, 89474273, 0.0617981, 0.0617981, 0, 0, -399.6059, 0, 0, 0, 1, 0, 13
PIDN, 89474277, 2.155107, 2.155107, 0, 0, -2.217337E-11, 0, 0, 0, 0, 0, 0
PIDE, 89474281, 1.699644, 1.699644, 0, 0, 1.731688E-11, 0, 0, 0, 0, 0, 0
XKF4, 89473480, 0, 0, 0, 0, 0.02, 0, 0.006455702, -1.366392, -0.3936326, 0, 48, 109375, 0, 0
XKY0, 89473480, 0, 136.0649, 14.30399, 215.9797, 287.9852, 359.9978, 71.99997, 143.9888, 0.2000166, 0.199916, 0.1999314, 0.2000417, 0.2000943
XKY1, 89473480, 0, 0.007293253, 0.008897447, 0.01077433, 0.01032963, 0.008178563, -0.006196345, -0.00764863, -0.006571385, -0.004453774, -0.004222189
XKF1, 89473480, 0, 1.59, -0.87, 145.92, 0.02155107, 0.01699644, -0.01151406, -0.003740879, -3.535765, -1.594849, -0.08163425, 0, 0, -0.01, 660.81
XKF2, 89473480, 0, 0, 0, 0, 0, 0, 323, -4, 236, 0, 0, 0, 0, 0, 0
XKF3, 89473480, 0, 0, 0, 0.01, -0.02, -0.03, -0.1, 0, 0, 0, -2.23, 0, 0, 2.623515E-05
XKF5, 89473480, 0, 0, 0, 0, 0, 0.38, 0.3, 0, 0, 0.5, 0.0003612322, 0.00286565, 0.003128061
XKFS, 89473480, 0, 0, 0, 0, 0, 0, 1, 0, 1
XKQ, 89473480, 0, 0.2927051, 0.02092592, 0.005811246, 0.9559561
XKF4, 89473480, 1, 0, 0, 0, 0.02, 0, 0.006496052, -1.386197, -0.3911247, 0, 48, 109375, 0, 0
XKY0, 89473480, 1, 126.2503, 14.45743, 215.9841, 287.9899, 359.9993, 71.99932, 143.99, 0.2000003, 0.1999297, 0.1999562, 0.2000433, 0.2000706
XKY1, 89473480, 1, 0.008370328, 0.009114461, 0.009831598, 0.009530559, 0.00862758, -0.006075155, -0.006587461, -0.006037949, -0.005186217, -0.005209247
XKF1, 89473480, 1, 2.7, -0.4, 144.91, 0.02440147, 0.0157327, -0.01155951, -0.004814562, -3.534726, -1.596694, -0.08582743, 0, 0.01, -0.02, 660.81
XKF2, 89473480, 1, 0, 0, -0.01, 0, 0, 324, -4, 235, 0, 0, 0, 0, 0, 0
XKF3, 89473480, 1, 0, 0, 0.01, -0.02, -0.03, -0.1, 0, 0, 0, -2.37, 0, 0.002813741, 3.145988E-05
XKFS, 89473480, 1, 0, 0, 0, 0, 0, 1, 0, 1
XKQ, 89473480, 1, 0.3010405, 0.01998837, 0.01606995, 0.9532664
AHR2, 89474376, 2.61, -0.49, 145.01, 660.84, 15.369569, 75.1243776, 0.3004102, 0.0109907, 0.02044496, 0.9535276
POS, 89474382, 15.3695688, 75.1243773, 660.89, 0.02163425, 0.08163425
MOTB, 89474387, 1, 1, 1, 0.03996059, 0, 2
RCIN, 89474394, 1495, 1495, 982, 1495, 982, 982, 1495, 1495, 1495, 1495, 1495, 1495, 1495, 1495
RCI2, 89474398, 1495, 1495, 0, 1
RCOU, 89474404, 1000, 1000, 1000, 1000, 0, 0, 0, 0, 1495, 0, 0, 0, 0, 0
RCO2, 89474407, 0, 0, 0, 0
PSCN, 89474414, -3.535765, -3.535765, -3.535765, 0.02155107, 0.02155107, 0.02155107, 0, -2.217337E-13, -4.663167E-05
PSCE, 89474419, -1.594849, -1.594849, -1.594849, 0.01699644, 0.01699644, 0.01699644, 0, 1.731688E-13, 3.633207E-05
PSCD, 89474423, -0.08163425, -0.08163425, -0.08163425, -0.01151406, -0.01151406, -0.01151406, -0.000617981, -0.000617981, -0.000617981
VIBE, 89474428, 0, 0.008147068, 0.00963786, 0.00922099, 0
VIBE, 89474428, 1, 0.0596836, 0.05333902, 0.0713224, 0
FMT, 246, 31, CTRL, Qfffff, TimeUS,RMSRollP,RMSRollD,RMSPitchP,RMSPitchD,RMSYaw
CTRL, 89474441, 0.01695393, 7.000871E-05, 0.009249857, 0.0001190166, 0.0001551367
FMT, 251, 43, DCM, Qffffffff, TimeUS,Roll,Pitch,Yaw,ErrRP,ErrYaw,VWN,VWE,VWD
DCM, 89475922, 2.613075, -0.497018, 145.0176, 0.01303348, 0.03005438, 0, 0, 0
FMT, 250, 51, EAHR, QffffffLLfI, TimeUS,Roll,Pitch,Yaw,VN,VE,VD,Lat,Lon,Alt,Flg
EAHR, 89478450, 0, 0, 0, 0, 0, 0, 0, 0, 0, 0
MSG, 89491809, ArduCopter V4.6.2 (1ebd4d99)
MSG, 89491816, ChibiOS: 88b84600
VER, 89491821, 10, 5009, 4, 6, 2, 255, 515722649, ArduCopter V4.6.2 (1ebd4d99), 56, 2, 2
MSG, 89491836, Pixhawk6C 003D0048 3133510F 31343630
MSG, 89491844, Param space used: 974/5376
MSG, 89491851, RC Protocol: SBUS
MSG, 89491861, RCOut: PWM:1-16
MSG, 89491866, New mission
IMU, 89493794, 0, 0.0001783069, -0.0007021806, -0.000413985, -0.3644051, -0.2246773, -9.803683, 0, 0, 44.80676, 1, 1, 2022, 2022
IMU, 89493794, 1, 0.0003409752, -0.001436782, -0.001208978, -0.2770939, -0.4309576, -9.812819, 0, 0, 45, 1, 1, 1999, 2045
CMD, 89493875, 4, 0, 16, 0, 0, 0, 0, 15.3695685, 75.124377, 660.87, 0
CMD, 89493883, 4, 1, 22, 1, 0, 0, 0, 0, 0, 10, 3
CMD, 89493890, 4, 2, 16, 10, 0, 0, 0, 15.367361, 75.1254623, 10, 3
CMD, 89493900, 4, 3, 20, 0, 0, 0, 0, 0, 0, 0, 0
MSG, 89493908, New rally
MSG, 89493913, New fence
FNCE, 89493921, 10, 0, 98, 15.3694775, 75.1243937, 10, 0
FNCE, 89493927, 10, 1, 98, 15.3694025, 75.1246646, 10, 0
FNCE, 89493934, 10, 2, 98, 15.3694775, 75.1248684, 10, 0
FNCE, 89493939, 10, 3, 98, 15.3696456, 75.1249086, 10, 0
FNCE, 89493946, 10, 4, 98, 15.3699042, 75.1248443, 10, 0
FNCE, 89493954, 10, 5, 98, 15.3702533, 75.1247826, 10, 0
FNCE, 89493959, 10, 6, 98, 15.3703154, 75.1244822, 10, 0
FNCE, 89493964, 10, 7, 98, 15.3700982, 75.124281, 10, 0
FNCE, 89493970, 10, 8, 98, 15.3698292, 75.1241469, 10, 0
FNCE, 89493975, 10, 9, 98, 15.3695111, 75.1241147, 10, 0
MSG, 89493984, Frame: QUAD/X
MODE, 89493995, Guided, 4, 2
ORGN, 89493999, 0, 15.3696006, 75.1243922, 660.81
ORGN, 89494002, 1, 15.3695685, 75.124377, 660.87
MSG, 89494011, GPS 1: probing for u-blox at 230400 baud
MSG, 89494021, u-blox 1 HW: 00190000 SW: EXT CORE 4.04 (7f89f7)
SURF, 89524065, 0, 2, 0, 0, 0.0685261
SURF, 89524075, 1, 2, 0, 0, 0.0685261
FILE, @SYS/uarts.txt, 0, 64, UARTV1\nSERIAL0 OTG1  TX =       0 RX =       0 TXBD=     0 RXBD=
GPS, 89534141, 0, 3, 222672600, 2380, 12, 0.77, 15.369569, 75.1243776, 647.6, 0.041, 0, 0.017, 0, 1
GPA, 89534141, 0, 1.55, 1.23, 2.26, 0.35, 0, 1, 89514, 200, 569.59, 0, 0
IMU, 89534268, 0, -8.507055E-05, 0.0001167866, 0.0003272135, -0.3566251, -0.2278821, -9.803467, 0, 0, 44.80676, 1, 1, 2022, 2022
IMU, 89534268, 1, 0.0004197127, 0.002753566, 0.0001254089, -0.2851962, -0.3972918, -9.806333, 0, 0, 45, 1, 1, 1999, 2045
FILE, @SYS/uarts.txt, 64, 64,      0 FE=0 OE=0 NE=0 FlowCtrl=0\nSERIAL1 UART7 TX*=  133833 RX*=
FILE, @SYS/uarts.txt, 128, 64,    18917 TXBD= 15116 RXBD=  2136 FE=0 OE=0 NE=0 FlowCtrl=0\nSERIA
STAK, 89560169, 7, 177, 1456, 712, rcin
FILE, @SYS/uarts.txt, 192, 64, L2 UART5 TX*=    2340 RX*=       0 TXBD=   264 RXBD=     0 FE=0 
FILE, @SYS/uarts.txt, 256, 64, OE=0 NE=0 FlowCtrl=0\nSERIAL3 UART1 TX*=    1762 RX*=   57052 TXB
POWR, 89573972, 4.949597, 5.035824, 1, 1, 6
MCU, 89573972, 40.23857, 3.348958, 3.341935, 3.355021
BAT, 89573985, 0, 15.54282, 15.78756, 1.229247, 31.1736, 0.48707, 0, 0.1991007, 99, 1, 0
MAG, 89573997, 0, -276, -166, 255, -382, 367, 647, 0, 0, 0, 1, 89573996
MAG, 89573997, 1, -10, -384, 192, 30, 10, -27, 0, 0, 0, 1, 89573994
SURF, 89574015, 0, 2, 0, 0, 0.06917709
SURF, 89574024, 1, 2, 0, 0, 0.06917709
BARO, 89574071, 0, -0.196228, 660.6138, 93638.25, 40.51, -0.1478336, 89574, 0, 35, 1
CTUN, 89574083, 0, 0, 0, 0.3996059, 0.08153275, 0.08153275, -0.19, NaN, 0, 0.0185863, 1, 1
ATT, 89574163, -2.33981E-05, 1.598429, -0.000344586, -0.8737915, 145.9737, 145.9396, 3
ANG, 89573324, -2.33981E-05, 1.597544, -0.000344586, -0.8742675, 145.9737, 145.9737, 0.002499
RATE, 89573336, -7.188267, -0.006617857, -0.01689652, 3.935783, -0.003459254, 0.009416708, -0.05488474, -0.003722685, -0.0002290286, -0.007247925, -0.007247925, 0, 0
PIDR, 89574179, -0.1254668, -0.0001155034, -0.1253513, -0.01692243, 0, 2.591054E-05, 0, 0, 1, 0.01847513, 9
PIDP, 89574183, 0.06870529, -6.037538E-05, 0.06876566, 0.009283365, 0, 0.0001333431, 0, 0, 1, 0.03886849, 9
PIDY, 89574187, -0.0009586323, -6.497311E-05, -0.001272381, -0.0002290286, 0, 0, 0, 0, 1, 0.001434373, 9
PIDA, 89574191, -0.007247925, -0.007247925, 0, 0, -399.6059, 0, 0, 0, 1, 0, 13
PIDN, 89574195, 2.157948, 2.157948, 0, 0, -1.192604E-11, 0, 0, 0, 0, 0, 0
PIDE, 89574198, 1.874897, 1.874897, 0, 0, 9.313958E-12, 0, 0, 0, 0, 0, 0
XKF4, 89573428, 0, 0.01, 0, 0, 0.02, 0, 0.006463523, -1.366392, -0.3936326, 0, 48, 109375, 0, 0
XKY0, 89573428, 0, 120.8731, 14.58894, 215.9812, 287.9892, 0.0002612941, 71.99918, 143.9874, 0.1999919, 0.1999115, 0.1999534, 0.2000597, 0.2000835
XKY1, 89573428, 0, -0.02031162, -0.01847173, -0.01615424, -0.01656258, -0.01913154, -0.000744291, -0.002583212, -0.001401163, 0.001167798, 0.001573438
XKF1, 89573428, 0, 1.59, -0.87, 145.93, 0.02157948, 0.01874897, -0.01130995, -0.0005257374, -3.533235, -1.591064, -0.08153275, 0, 0, -0.01, 660.81
XKF2, 89573428, 0, 0, 0, 0, 0, 0, 323, -4, 236, 0, 0, 0, 0, 0, 0
XKF3, 89573428, 0, -0.01, 0, -0.02, -0.01, -0.03, -0.16, 0, 0, 0, -1.76, 0, 0, 7.115147E-05
XKF5, 89573428, 0, 0, 0, 0, 0, 0.38, 0.3, 0, 0, 0.5, 0.0003482188, 0.002903129, 0.005609517
XKFS, 89573428, 0, 0, 0, 0, 0, 0, 1, 0, 1
XKQ, 89573428, 0, 0.2926021, 0.02092192, 0.005818786, 0.9559877
XKF4, 89573428, 1, 0.01, 0, 0, 0.02, 0, 0.006502211, -1.386197, -0.3911247, 0, 48, 109375, 0, 0
XKY0, 89573428, 1, 122.4911, 14.54605, 215.9814, 287.9879, 359.9975, 71.99685, 143.9869, 0.1999953, 0.1999253, 0.1999586, 0.2000491, 0.2000718
XKY1, 89573428, 1, -0.01857743, -0.01849926, -0.01790433, -0.01761496, -0.01803092, -0.0001523461, -0.000752461, -0.0008634955, -0.0003320237, 0.0001074012
XKF1, 89573428, 1, 2.7, -0.4, 144.92, 0.02395373, 0.01776787, -0.01171942, -0.0004313901, -3.531988, -1.592779, -0.08563591, 0, 0.01, -0.02, 660.81
XKF2, 89573428, 1, 0, 0, -0.01, 0, 0, 324, -4, 235, 0, 0, 0, 0, 0, 0
XKF3, 89573428, 1, -0.01, 0, -0.02, -0.01, -0.03, -0.16, 0, 0, 0, -1.86, 0, 0.002938011, 6.839088E-05
XKFS, 89573428, 1, 0, 0, 0, 0, 0, 1, 0, 1
XKQ, 89573428, 1, 0.3009391, 0.01995866, 0.01607697, 0.9532989
AHR2, 89574355, 2.6, -0.48, 145.03, 660.78, 15.369569, 75.1243776, 0.300243, 0.01088018, 0.02043223, 0.9535818
POS, 89574361, 15.3695688, 75.1243773, 660.89, 0.02153275, 0.08153275
MOTB, 89574366, 1, 1, 1, 0.03996059, 0, 2
RCIN, 89574372, 1495, 1495, 982, 1495, 982, 982, 1495, 1495, 1495, 1495, 1495, 1495, 1495, 1495
RCI2, 89574376, 1495, 1495, 0, 1
RCOU, 89574382, 1000, 1000, 1000, 1000, 0, 0, 0, 0, 1495, 0, 0, 0, 0, 0
RCO2, 89574386, 0, 0, 0, 0
PSCN, 89574395, -3.533235, -3.533235, -3.533235, 0.02157948, 0.02157948, 0.02157948, 0, -1.192604E-13, -4.663952E-05
PSCE, 89574400, -1.591064, -1.591064, -1.591064, 0.01874897, 0.01874897, 0.01874897, 0, 9.313958E-14, 3.632202E-05
PSCD, 89574404, -0.08153275, -0.08153275, -0.08153275, -0.01130995, -0.01130995, -0.01130995, 7.247925E-05, 7.247925E-05, 7.247925E-05
VIBE, 89574408, 0, 0.008704124, 0.009617821, 0.008836971, 0
VIBE, 89574408, 1, 0.06357085, 0.05631879, 0.06842537, 0
CTRL, 89574416, 0.01695185, 6.366478E-05, 0.009257669, 0.0001170601, 0.0001770962
IMU, 89574432, 0, -0.0002560384, 0.0001050407, -0.000261747, -0.3575668, -0.2339908, -9.803885, 0, 0, 44.80676, 1, 1, 2022, 2022
IMU, 89574432, 1, -0.0003887861, 0.001627059, -0.0005648569, -0.2792711, -0.4119017, -9.814881, 0, 0, 45, 1, 1, 1999, 2045
DCM, 89575947, 2.607732, -0.4856152, 145.0378, 0.01311411, 0.03200499, 0, 0, 0
EAHR, 89578465, 0, 0, 0, 0, 0, 0, 0, 0, 0, 0
FILE, @SYS/uarts.txt, 320, 64, D=   199 RXBD=  6444 FE=144 OE=0 NE=163 FlowCtrl=0\nSERIAL4 UART8
FILE, @SYS/uarts.txt, 384, 64,  TX*=       0 RX*=       0 TXBD=     0 RXBD=     0 FE=0 OE=0 NE=
IMU, 89613764, 0, -0.0002241974, 0.0006556005, -0.001119709, -0.3588095, -0.2277311, -9.801624, 0, 0, 44.80676, 1, 1, 2022, 2022
IMU, 89613764, 1, 0.0007687783, -0.0007375844, -0.001581621, -0.2892245, -0.4203915, -9.818851, 0, 0, 45, 1, 1, 1999, 2045
FILE, @SYS/uarts.txt, 448, 64, 0 FlowCtrl=0\nSERIAL5 UART2 TX =       0 RX =       0 TXBD=     0
SURF, 89624092, 0, 2, 0, 0, 0.06978042
SURF, 89624102, 1, 2, 0, 0, 0.06978042
FILE, @SYS/uarts.txt, 512, 64,  RXBD=     0 FE=0 OE=0 NE=0 FlowCtrl=0\nSERIAL6 UART3 TX =       
FILE, @SYS/uarts.txt, 576, 64, 0 RX =       0 TXBD=     0 RXBD=     0 FE=0 OE=0 NE=0 FlowCtrl=0
FMT, 252, 28, HEAT, Qfbfff, TimeUS,Temp,Targ,P,I,Out
HEAT, 89650830, 44.77053, 45, 11.47327, 3.301853, 14.77513
FILE, @SYS/uarts.txt, 640, 64, \nSERIAL7 OTG2  TX =       0 RX =       0 TXBD=     0 RXBD=     0
IMU, 89653819, 0, 6.718622E-05, 0.0006463158, 0.0009366473, -0.3615899, -0.2284211, -9.80138, 0, 0, 44.80676, 1, 1, 2022, 2022
IMU, 89653819, 1, 0.000411868, 0.0004748538, -0.0003612595, -0.2767283, -0.4063548, -9.812686, 0, 0, 45, 1, 1, 1999, 2045
STAK, 89661560, 8, 58, 2480, 1576, io
FILE, @SYS/uarts.txt, 704, 64,  FE=0 OE=0 NE=0 FlowCtrl=0\nIOMCU   UART6 TX*=  715690 RX*=  4426
POWR, 89673978, 4.937411, 5.040659, 1, 1, 6
MCU, 89673978, 40.21869, 3.348958, 3.341514, 3.355727
BAT, 89673992, 0, 15.54786, 15.78918, 1.212037, 31.20727, 0.4875935, 0, 0.1991007, 99, 1, 0
MAG, 89674003, 0, -276, -169, 259, -382, 367, 647, 0, 0, 0, 1, 89674002
MAG, 89674003, 1, -12, -384, 189, 30, 10, -27, 0, 0, 0, 1, 89674001
SURF, 89674021, 0, 2, 0, 0, 0.07032511
SURF, 89674030, 1, 2, 0, 0, 0.07032511
BARO, 89674049, 0, -0.008056641, 660.8019, 93636.14, 40.51, -0.36493, 89674, 0, 35, 1
CTUN, 89674062, 0, 0, 0, 0.3996059, 0.08026621, 0.08026621, 0, NaN, 0, 0.01876941, 1, 1
ATT, 89674120, -2.33981E-05, 1.599015, -0.0003445859, -0.8715757, 145.9837, 145.9495, 3
ANG, 89673323, -2.33981E-05, 1.598131, -0.0003445859, -0.872052, 145.9837, 145.9837, 0.002492
RATE, 89673338, -7.190947, 0.01404766, -0.01699544, 3.925833, -0.03436251, 0.009392117, -0.05475195, -0.004647399, -0.0001928394, -0.03223419, -0.03223419, 0, 0
PIDR, 89674137, -0.1254922, 0.0002451779, -0.1257374, -0.01697455, 0, -2.089832E-05, 0, 0, 1, 0.01767312, 9
PIDP, 89674155, 0.06851277, -0.000599739, 0.06911251, 0.009330189, 0, 6.192784E-05, 0, 0, 1, 0.03920877, 9
PIDY, 89674174, -0.0009559641, -8.111242E-05, -0.00107133, -0.0001928394, 0, 0, 0, 0, 1, 0.001525959, 9
PIDA, 89674178, -0.03223419, -0.03223419, 0, 0, -399.6059, 0, 0, 0, 1, 0, 13
PIDN, 89674185, 2.272116, 2.272116, 0, 0, -6.414512E-12, 0, 0, 0, 0, 0, 0
PIDE, 89674189, 1.987543, 1.987543, 0, 0, 5.009584E-12, 0, 0, 0, 0, 0, 0
XKF4, 89673449, 0, 0.01, 0, 0.01, 0.02, 0, 0.00654098, -1.366392, -0.3936326, 0, 48, 109375, 0, 0
XKY0, 89673449, 0, 120.8745, 14.58896, 215.9826, 287.9905, 0.001651293, 72.00057, 143.9888, 0.1999919, 0.1999115, 0.1999534, 0.2000597, 0.2000835
XKY1, 89673449, 0, -0.02031162, -0.01847173, -0.01615424, -0.01656258, -0.01913154, -0.000744291, -0.002583212, -0.001401163, 0.001167798, 0.001573438
XKF1, 89673449, 0, 1.59, -0.87, 145.94, 0.02272116, 0.01987543, -0.01057188, 0.01406329, -3.529898, -1.587559, -0.08026622, 0, 0, -0.01, 660.81
XKF2, 89673449, 0, 0, 0, 0, 0, 0, 323, -4, 236, 0, 0, 0, 0, 0, 0
XKF3, 89673449, 0, -0.01, 0, -0.02, -0.01, -0.03, -0.27, 0, 0, 0, -2.11, 0, 0, 0.0001833948
XKF5, 89673449, 0, 0, 0, 0, 0, 0.38, 0.3, 0, 0, 0.5, 0.0003563484, 0.002440512, 0.006628582
XKFS, 89673449, 0, 0, 0, 0, 0, 0, 1, 0, 1
XKQ, 89673449, 0, 0.2925192, 0.02090442, 0.005831154, 0.9560133
XKF4, 89673449, 1, 0.01, 0, 0.01, 0.02, 0, 0.006579183, -1.386197, -0.3911247, 0, 48, 109375, 0, 0
XKY0, 89673449, 1, 122.4918, 14.54608, 215.9822, 287.9887, 359.9983, 71.99766, 143.9877, 0.1999953, 0.1999253, 0.1999586, 0.2000491, 0.2000718
XKY1, 89673449, 1, -0.01857743, -0.01849926, -0.01790433, -0.01761496, -0.01803092, -0.0001523461, -0.000752461, -0.0008634955, -0.0003320237, 0.0001074012
XKF1, 89673449, 1, 2.7, -0.4, 144.93, 0.0251823, 0.01887672, -0.01203436, 0.01238595, -3.528716, -1.589238, -0.08453253, 0, 0.01, -0.02, 660.81
XKF2, 89673449, 1, 0, 0, -0.01, 0, 0, 324, -4, 235, 0, 0, 0, 0, 0, 0
XKF3, 89673449, 1, -0.01, 0, -0.02, -0.01, -0.03, -0.27, 0, 0, 0, -2.23, 0, 0.003111641, 0.0001900728
XKFS, 89673449, 1, 0, 0, 0, 0, 0, 1, 0, 1
XKQ, 89673449, 1, 0.3008673, 0.01998828, 0.01606207, 0.9533212
AHR2, 89674296, 2.6, -0.47, 145.05, 660.67, 15.369569, 75.1243776, 0.3000663, 0.01073982, 0.02042804, 0.9536391
POS, 89674302, 15.3695688, 75.1243774, 660.89, 0.02026622, 0.08026622
MOTB, 89674307, 1, 1, 1, 0.03996059, 0, 2
RCIN, 89674313, 1495, 1495, 982, 1495, 982, 982, 1495, 1495, 1495, 1495, 1495, 1495, 1495, 1495
RCI2, 89674343, 1495, 1495, 0, 1
RCOU, 89674378, 1000, 1000, 1000, 1000, 0, 0, 0, 0, 1495, 0, 0, 0, 0, 0
RCO2, 89674382, 0, 0, 0, 0
PSCN, 89674400, -3.529898, -3.529898, -3.529898, 0.02272116, 0.02272116, 0.02272116, 0, -6.414511E-14, -4.664583E-05
PSCE, 89674404, -1.587559, -1.587559, -1.587559, 0.01987543, 0.01987543, 0.01987543, 0, 5.009584E-14, 3.631389E-05
PSCD, 89674409, -0.08026621, -0.08026621, -0.08026621, -0.01057188, -0.01057188, -0.01057188, 0.0003223419, 0.0003223419, 0.0003223419
VIBE, 89674413, 0, 0.00828643, 0.009653457, 0.009846826, 0
VIBE, 89674413, 1, 0.06059734, 0.05619336, 0.07397623, 0
CTRL, 89674421, 0.01695109, 6.987601E-05, 0.009248541, 0.0001192068, 0.0001766856
DCM, 89675940, 2.60231, -0.4710505, 145.0596, 0.01311411, 0.03237665, 0, 0, 0
FILE, @SYS/uarts.txt, 768, 53, 78 TXBD= 32325 RXBD=  1488 FE=0 OE=0 NE=0 FlowCtrl=0\n
EAHR, 89678426, 0, 0, 0, 0, 0, 0, 0, 0, 0, 0
IMU, 89693853, 0, -0.000313432, 0.000617155, -0.000753771, -0.3639582, -0.2322844, -9.805048, 0, 0, 44.80676, 1, 1, 2022, 2022
IMU, 89693853, 1, 0.0006283468, 0.0009671553, -0.002415749, -0.2805695, -0.4163626, -9.788831, 0, 0, 45, 1, 1, 1999, 2045
FILE, @SYS/memory.txt, 0, 64, MemInfoV1\nSTART=0x24000000 LEN=512k FREE=  2968 LRG=  1152 TYPE=
FILE, @SYS/memory.txt, 64, 64, 4\nSTART=0x30000000 LEN=256k FREE=262136 LRG=262136 TYPE=8\nSTART=
SURF, 89724024, 0, 2, 0, 0, 0.07081053
SURF, 89724060, 1, 2, 0, 0, 0.07081053
FILE, @SYS/memory.txt, 128, 64, 0x20000000 LEN=128k FREE=112544 LRG=112544 TYPE=2\nSTART=0x000004
GPS, 89734094, 0, 3, 222672800, 2380, 12, 0.77, 15.3695691, 75.1243776, 647.61, 0.02, 0, -0.05, 0, 1
GPA, 89734094, 0, 1.55, 1.23, 2.26, 0.35, 0, 1, 89714, 200, 569.6, 0, 0
IMU, 89734184, 0, -0.0008346374, 0.0005114705, 5.415298E-05, -0.361635, -0.2288602, -9.809418, 0, 0, 44.80676, 1, 1, 2022, 2022
IMU, 89734184, 1, 0.000635312, -0.0008353436, -0.001319655, -0.2974083, -0.4226782, -9.79884, 0, 0, 45, 1, 1, 1999, 2045
FILE, @SYS/memory.txt, 192, 64, 00 LEN= 63k FREE= 64504 LRG= 64504 TYPE=2\nSTART=0x30040000 LEN= 
FILE, @SYS/memory.txt, 256, 64, 32k FREE= 32760 LRG= 32760 TYPE=8\nSTART=0x38000000 LEN= 64k FREE
STAK, 89761607, 9, 59, 1456, 928, storage
FILE, @SYS/memory.txt, 320, 26, = 56808 LRG= 56152 TYPE=1\n
POWR, 89774008, 4.95, 5.040659, 1, 1, 6
MCU, 89774008, 40.23857, 3.348817, 3.341935, 3.355868
BAT, 89774021, 0, 15.54859, 15.79667, 1.243894, 31.24184, 0.488131, 0, 0.1994409, 99, 1, 0
MAG, 89774032, 0, -272, -169, 262, -382, 367, 647, 0, 0, 0, 1, 89774031
MAG, 89774032, 1, -11, -384, 188, 30, 10, -27, 0, 0, 0, 1, 89774030
SURF, 89774051, 0, 2, 0, 0, 0.07124378
SURF, 89774059, 1, 2, 0, 0, 0.07124378
BARO, 89774079, 0, -0.01098633, 660.799, 93636.16, 40.51, -0.3008273, 89774, 0, 35, 1
CTUN, 89774092, 0, 0, 0, 0.3996059, 0.07990249, 0.07990249, -0.01, NaN, 0, 0.008098021, 1, 1
ATT, 89774162, -2.33981E-05, 1.598363, -0.0003445859, -0.8704724, 145.9931, 145.959, 3
ANG, 89773325, -2.33981E-05, 1.59748, -0.0003445859, -0.8709483, 145.9931, 145.9931, 0.002501
RATE, 89773338, -7.188115, -0.002080942, -0.01688543, 3.920919, 0.02716847, 0.008975282, -0.0547157, 0.00837269, -0.000144814, -0.3370285, -0.3370285, 0, 0
PIDR, 89774231, -0.1254594, -3.63193E-05, -0.1254231, -0.01693212, 0, 4.669208E-05, 0, 0, 1, 0.01824719, 9
PIDP, 89774235, 0.06847501, 0.0004741793, 0.06800083, 0.009180113, 0, -0.0002048308, 0, 0, 1, 0.03553912, 9
PIDY, 89774239, -0.000955421, 0.000146131, -0.0008045221, -0.000144814, 0, 0, 0, 0, 1, 0.001701937, 9
PIDA, 89774242, -0.3370285, -0.3370285, 0, 0, -399.6059, 0, 0, 0, 1, 0, 13
PIDN, 89774246, 2.372499, 2.372499, 0, 0, -3.450031E-12, 0, 0, 0, 0, 0, 0
PIDE, 89774256, 2.030597, 2.030597, 0, 0, 2.694394E-12, 0, 0, 0, 0, 0, 0
XKF4, 89773457, 0, 0.01, 0, 0, 0.02, 0, 0.006576211, -1.366392, -0.3936326, 0, 48, 109375, 0, 0
XKY0, 89773457, 0, 130.3225, 14.38012, 215.984, 287.9891, 359.9984, 71.99917, 143.9902, 0.2000055, 0.1999329, 0.1999531, 0.2000381, 0.2000705
XKY1, 89773457, 0, 0.002541793, 0.004852343, 0.007210289, 0.006356537, 0.003471809, 0.01296486, 0.01123612, 0.01289983, 0.015656, 0.01569606
XKF1, 89773457, 0, 1.59, -0.87, 145.95, 0.02372499, 0.02030597, -0.01044129, 0.01288361, -3.526679, -1.584757, -0.07990249, 0, 0, -0.01, 660.81
XKF2, 89773457, 0, 0, 0, 0, 0, 0, 323, -4, 236, 0, 0, 0, 0, 0, 0
XKF3, 89773457, 0, 0, 0.01, 0.04, -0.02, -0.02, -0.08, 0, 0, 0, -1.79, 0, 0, 0.0001220734
XKF5, 89773457, 0, 0, 0, 0, 0, 0.38, 0.3, 0, 0, 0.5, 0.000339057, 0.00471478, 0.006032516
XKFS, 89773457, 0, 0, 0, 0, 0, 0, 1, 0, 1
XKQ, 89773457, 0, 0.2924404, 0.02089307, 0.005830263, 0.9560377
XKV1, 89773457, 0, 0.0002962, 5.263546E-06, 5.400536E-06, 2.792508E-05, 0.029673, 0.02970019, 0.01193062, 0.08677051, 0.08677051, 0.1548732, 3.962665E-11, 3.954075E-11
XKV2, 89773457, 0, 1.467058E-10, 3.673571E-06, 3.673247E-06, 5.620934E-08, 0, 0, 0, 0, 0, 0, 0, 0
XKF4, 89773457, 1, 0.01, 0, 0, 0.02, 0, 0.006613011, -1.386197, -0.3911247, 0, 48, 109375, 0, 0
XKY0, 89773457, 1, 123.2501, 14.52698, 215.9802, 287.9861, 359.9949, 71.99448, 143.9854, 0.1999966, 0.1999315, 0.1999611, 0.2000445, 0.2000664
XKY1, 89773457, 1, 0.00422236, 0.004599953, 0.005374488, 0.005475402, 0.004763451, 0.01377565, 0.01308395, 0.01322943, 0.01401093, 0.01434842
XKF1, 89773457, 1, 2.7, -0.4, 144.94, 0.0256304, 0.01949796, -0.0118396, 0.009506821, -3.525512, -1.586403, -0.08451633, 0, 0.01, -0.02, 660.81
XKF2, 89773457, 1, 0, 0, -0.01, 0, 0, 324, -4, 235, 0, 0, 0, 0, 0, 0
XKF3, 89773457, 1, 0, 0.01, 0.03, -0.02, -0.02, -0.08, 0, 0, 0, -1.91, 0, 0.003485058, 0.0001130717
XKFS, 89773457, 1, 0, 0, 0, 0, 0, 1, 0, 1
XKQ, 89773457, 1, 0.3007931, 0.02000576, 0.01610393, 0.9533436
AHR2, 89774358, 2.59, -0.46, 145.07, 660.86, 15.3695691, 75.1243776, 0.2999187, 0.01068298, 0.02037697, 0.9536873
POS, 89774364, 15.3695689, 75.1243774, 660.88, 0.01990249, 0.07990249
MOTB, 89774369, 1, 1, 1, 0.03996059, 0, 2
RCIN, 89774375, 1495, 1495, 982, 1495, 982, 982, 1495, 1495, 1495, 1495, 1495, 1495, 1495, 1495
RCI2, 89774379, 1495, 1495, 0, 1
RCOU, 89774385, 1000, 1000, 1000, 1000, 0, 0, 0, 0, 1495, 0, 0, 0, 0, 0
RCO2, 89774388, 0, 0, 0, 0
PSCN, 89774395, -3.526679, -3.526679, -3.526679, 0.02372499, 0.02372499, 0.02372499, 0, -3.450031E-14, -4.665183E-05
PSCE, 89774400, -1.584757, -1.584757, -1.584757, 0.02030597, 0.02030597, 0.02030597, 0, 2.694394E-14, 3.630618E-05
PSCD, 89774404, -0.07990249, -0.07990249, -0.07990249, -0.01044129, -0.01044129, -0.01044129, 0.003370285, 0.003370285, 0.003370285
VIBE, 89774408, 0, 0.009123172, 0.009192231, 0.009766899, 0
VIBE, 89774408, 1, 0.05934661, 0.05641479, 0.071486, 0
CTRL, 89774416, 0.01694271, 7.905923E-05, 0.009252669, 0.0001208575, 0.0001732772
IMU, 89774427, 0, -0.0001778932, 0.000639015, -5.76902E-05, -0.3604124, -0.2298739, -9.80044, 0, 0, 44.80676, 1, 1, 2022, 2022
IMU, 89774427, 1, 0.00095585, -0.0009062423, -0.0006358224, -0.2736974, -0.4172842, -9.810916, 0, 0, 45, 1, 1, 1999, 2045
DCM, 89775911, 2.594742, -0.4678135, 145.0774, 0.01296973, 0.03127501, 0, 0, 0
EAHR, 89778434, 0, 0, 0, 0, 0, 0, 0, 0, 0, 0
FILE, @SYS/threads.txt, 0, 64, ThreadsV2\nISR           PRI=255 sp=0x24000000 STACK=1312/1536\nAr
FILE, @SYS/threads.txt, 64, 64, duCopter    PRI=182 sp=0x24000600 STACK=4016/7168\nidle          
FILE, @SYS/threads.txt, 128, 64, PRI=  1 sp=0x240214B0 STACK=288/496\nUART_RX       PRI= 60 sp=0x2
IMU, 89813838, 0, 0.0002204846, 0.0006691449, 4.38445E-05, -0.357075, -0.2306085, -9.807254, 0, 0, 44.80676, 1, 1, 2022, 2022
IMU, 89813838, 1, -0.0004478008, 0.001440527, 0.0008674234, -0.2882657, -0.4177454, -9.799261, 0, 0, 45, 1, 1, 1999, 2045
SURF, 89824031, 0, 2, 0, 0, 0.07166658
SURF, 89824041, 1, 2, 0, 0, 0.07166658
FILE, @SYS/threads.txt, 192, 64, 407B0E8 STACK=880/1200\nOTG1          PRI= 60 sp=0x2407A1A0 STACK
FILE, @SYS/threads.txt, 256, 64, =480/752\nmonitor       PRI=183 sp=0x2401CE20 STACK=1096/1456\ntim
FILE, @SYS/threads.txt, 320, 64, er         PRI=181 sp=0x2401E3E0 STACK=1528/1968\nrcout         P
IMU, 89853770, 0, -3.779571E-06, -0.000257496, -0.0004106104, -0.3609951, -0.2274935, -9.801659, 0, 0, 44.80676, 1, 1, 2022, 2022
IMU, 89853770, 1, 0.00133259, 5.58084E-05, 3.887319E-05, -0.2733518, -0.4364078, -9.824039, 0, 0, 45, 1, 1, 1999, 2045
FILE, @SYS/threads.txt, 384, 64, RI=181 sp=0x2401DA00 STACK=664/944\nrcin          PRI=177 sp=0x24
STAK, 89862538, 10, 60, 752, 208, UART7
FILE, @SYS/threads.txt, 448, 64, 01D410 STACK=712/1456\nio            PRI= 58 sp=0x2401C430 STACK=
POWR, 89873986, 4.944763, 5.040659, 1, 1, 6
MCU, 89873986, 40.21869, 3.349239, 3.341374, 3.355444
BAT, 89873999, 0, 15.55344, 15.79703, 1.221374, 31.27576, 0.4886586, 0, 0.1994409, 99, 1, 0
MAG, 89874011, 0, -277, -170, 254, -382, 367, 647, 0, 0, 0, 1, 89874009
MAG, 89874011, 1, -12, -384, 188, 30, 10, -27, 0, 0, 0, 1, 89874008
SURF, 89874029, 0, 2, 0, 0, 0.07208895
SURF, 89874058, 1, 2, 0, 0, 0.07208895
BARO, 89874093, 0, -0.05511475, 660.7549, 93636.66, 40.52, 0.1048324, 89874, 0, 35, 1
CTUN, 89874124, 0, 0, 0, 0.3996059, 0.0806689, 0.0806689, -0.05, NaN, 0, 0.01809802, 1, 1
ATT, 89874182, -2.33981E-05, 1.599794, -0.000344586, -0.8691655, 146.0028, 145.9686, 3
ANG, 89873324, -2.33981E-05, 1.598911, -0.000344586, -0.8696421, 146.0028, 146.0028, 0.002491
RATE, 89873337, -7.194607, 0.03343349, -0.01714825, 3.91507, 0.005205979, 0.009054318, -0.05466749, -0.0237883, -0.0001682487, -0.111866, -0.111866, 0, 0
PIDR, 89874198, -0.125537, 0.0005835245, -0.1261205, -0.01702627, 0, -0.0001219733, 0, 0, 1, 0.01958531, 9
PIDP, 89874202, 0.06835575, 9.086147E-05, 0.06826489, 0.009215761, 0, -0.0001614426, 0, 0, 1, 0.03215314, 9
PIDY, 89874206, -0.0009546167, -0.0004151842, -0.0009347147, -0.0001682487, 0, 0, 0, 0, 1, 0.001845938, 9
PIDA, 89874210, -0.111866, -0.111866, 0, 0, -399.6059, 0, 0, 0, 1, 0, 13
PIDN, 89874214, 2.426741, 2.426741, 0, 0, -1.855625E-12, 0, 0, 0, 0, 0, 0
PIDE, 89874217, 1.975013, 1.975013, 0, 0, 1.4492E-12, 0, 0, 0, 0, 0, 0
XKF4, 89873428, 0, 0.01, 0, 0, 0.01, 0, 0.006653429, -1.366392, -0.3936326, 0, 48, 109375, 0, 0
XKY0, 89873428, 0, 130.3215, 14.38015, 215.9829, 287.988, 359.9974, 71.99809, 143.9892, 0.2000055, 0.1999329, 0.1999531, 0.2000381, 0.2000705
XKY1, 89873428, 0, 0.002541793, 0.004852343, 0.007210289, 0.006356537, 0.003471809, 0.01296486, 0.01123612, 0.01289983, 0.015656, 0.01569606
XKF1, 89873428, 0, 1.59, -0.86, 145.96, 0.02426741, 0.01975014, -0.01055092, -0.005197386, -3.52353, -1.582693, -0.08066891, 0, 0, -0.01, 660.81
XKF2, 89873428, 0, 0, 0, 0, 0, 0, 323, -4, 236, 0, 0, 0, 0, 0, 0
XKF3, 89873428, 0, 0, 0.01, 0.04, -0.02, -0.02, -0.09, 0, 0, 0, -1.41, 0, 0, 0.0001220734
XKF5, 89873428, 0, 0, 0, 0, 0, 0.38, 0.3, 0, 0, 0.5, 0.0002878661, 0.004021627, 0.006651768
XKFS, 89873428, 0, 0, 0, 0, 0, 0, 1, 0, 1
XKQ, 89873428, 0, 0.2923604, 0.02088533, 0.00584729, 0.9560623
XKF4, 89873428, 1, 0.01, 0, 0, 0.01, 0, 0.006690574, -1.386197, -0.3911247, 0, 48, 109375, 0, 0
XKY0, 89873428, 1, 123.2477, 14.52701, 215.9778, 287.9838, 359.9926, 71.99212, 143.983, 0.1999966, 0.1999315, 0.1999611, 0.2000445, 0.2000664
XKY1, 89873428, 1, 0.00422236, 0.004599953, 0.005374488, 0.005475402, 0.004763451, 0.01377565, 0.01308395, 0.01322943, 0.01401093, 0.01434842
XKF1, 89873428, 1, 2.7, -0.4, 144.95, 0.02653684, 0.01930799, -0.01270683, -0.007132791, -3.522448, -1.584285, -0.08533979, 0, 0.01, -0.02, 660.81
XKF2, 89873428, 1, 0, 0, -0.01, 0, 0, 324, -4, 235, 0, 0, 0, 0, 0, 0
XKF3, 89873428, 1, 0, 0.01, 0.03, -0.02, -0.02, -0.09, 0, 0, 0, -1.5, 0, 0.003485058, 0.0001130717
XKFS, 89873428, 1, 0, 0, 0, 0, 0, 1, 0, 1
XKQ, 89873428, 1, 0.3007185, 0.02000984, 0.01610468, 0.953367
AHR2, 89874376, 2.58, -0.47, 145.09, 660.85, 15.3695691, 75.1243776, 0.2997915, 0.01075908, 0.02028568, 0.9537284
POS, 89874382, 15.3695689, 75.1243774, 660.89, 0.02066891, 0.08066891
MOTB, 89874387, 1, 1, 1, 0.03996059, 0, 2
RCIN, 89874393, 1495, 1495, 982, 1495, 982, 982, 1495, 1495, 1495, 1495, 1495, 1495, 1495, 1495
RCI2, 89874397, 1495, 1495, 0, 1
RCOU, 89874403, 1000, 1000, 1000, 1000, 0, 0, 0, 0, 1495, 0, 0, 0, 0, 0
RCO2, 89874406, 0, 0, 0, 0
PSCN, 89874413, -3.52353, -3.52353, -3.52353, 0.02426741, 0.02426741, 0.02426741, 0, -1.855625E-14, -4.665792E-05
PSCE, 89874418, -1.582693, -1.582693, -1.582693, 0.01975014, 0.01975014, 0.01975014, 0, 1.4492E-14, 3.629837E-05
PSCD, 89874422, -0.0806689, -0.0806689, -0.0806689, -0.01055092, -0.01055092, -0.01055092, 0.00111866, 0.00111866, 0.00111866
VIBE, 89874426, 0, 0.007785, 0.01001968, 0.009678634, 0
VIBE, 89874426, 1, 0.05584349, 0.05648094, 0.07187834, 0
CTRL, 89874434, 0.01694426, 7.622386E-05, 0.009240021, 0.0001153333, 0.000176048
DCM, 89875950, 2.587235, -0.4792947, 145.0923, 0.01296973, 0.03146518, 0, 0, 0
RAD, 89876302, 64, 0, 100, 95, 0, 0, 0
EAHR, 89878465, 0, 0, 0, 0, 0, 0, 0, 0, 0, 0
FILE, @SYS/threads.txt, 512, 64, 1576/2480\nstorage       PRI= 59 sp=0x2401DDF0 STACK=928/1456\nUAR
IMU, 89893817, 0, -0.000557886, 0.0003612729, -0.0001453326, -0.3620107, -0.2266377, -9.804675, 0, 0, 44.80676, 1, 1, 2022, 2022
IMU, 89893817, 1, 0.001059018, 0.000663089, -0.001851384, -0.2883749, -0.4193422, -9.806081, 0, 0, 45, 1, 1, 1999, 2045
FILE, @SYS/threads.txt, 576, 64, T7         PRI= 60 sp=0x24078FF8 STACK=208/752\nUART5         PRI
FILE, @SYS/threads.txt, 640, 64, = 60 sp=0x240784B0 STACK=280/752\nUART1         PRI= 60 sp=0x2407
FILE, @SYS/threads.txt, 704, 64, 78E8 STACK=336/752\nUART8         PRI= 60 sp=0x24076D20 STACK=408
SURF, 89924082, 0, 2, 0, 0, 0.0725079
SURF, 89924091, 1, 2, 0, 0, 0.0725079
FILE, @SYS/threads.txt, 768, 64, /752\nOTG2          PRI= 60 sp=0x24075DD8 STACK=480/752\nUART6    
GPS, 89934130, 0, 3, 222673000, 2380, 12, 0.77, 15.3695692, 75.1243776, 647.61, 0.062, 0, -0.15, 0, 1
GPA, 89934130, 0, 1.55, 1.22, 2.26, 0.35, 0, 1, 89914, 200, 569.6, 0, 0
IMU, 89934198, 0, 7.622863E-05, 6.375154E-05, -0.0002478012, -0.3625565, -0.2312808, -9.799048, 0, 0, 44.80676, 1, 1, 2022, 2022
IMU, 89934198, 1, 0.001081098, 0.003076119, 0.0006567343, -0.2851895, -0.4151786, -9.797688, 0, 0, 45, 1, 1, 1999, 2045
FILE, @SYS/threads.txt, 832, 64,      PRI=181 sp=0x24074F58 STACK=344/752\nIOMCU         PRI=183 s
FILE, @SYS/threads.txt, 896, 64, p=0x2406AB30 STACK=912/1456\nlog_io        PRI= 59 sp=0x2406B2C0 
STAK, 89962560, 11, 60, 752, 280, UART5
FILE, @SYS/threads.txt, 960, 64, STACK=752/2016\nI2C1          PRI=176 sp=0x2406BBD0 STACK=984/145
POWR, 89973969, 4.953827, 5.038241, 1, 1, 6
MCU, 89973969, 40.21869, 3.349239, 3.341935, 3.354456
BAT, 89973982, 0, 15.55005, 15.79808, 1.242613, 31.31027, 0.4891953, 0, 0.1996066, 99, 1, 0
MAG, 89973994, 0, -278, -166, 253, -382, 367, 647, 0, 0, 0, 1, 89973993
MAG, 89973994, 1, -13, -384, 189, 30, 10, -27, 0, 0, 0, 1, 89973991
SURF, 89974016, 0, 2, 0, 0, 0.07291884
SURF, 89974025, 1, 2, 0, 0, 0.07291884
BARO, 89974044, 0, -0.01098633, 660.799, 93636.17, 40.51, 0.3262268, 89974, 0, 35, 1
CTUN, 89974057, 0, 0, 0, 0.3996059, 0.0836056, 0.0836056, -0.01, NaN, 0, 0.01809802, 1, 1
ATT, 89974116, -2.339808E-05, 1.598754, -0.0003445859, -0.8684712, 146.011, 145.9769, 3
ANG, 89973324, -2.339808E-05, 1.597872, -0.0003445859, -0.8689471, 146.011, 146.011, 0.002493
RATE, 89973337, -7.18975, -0.02327033, -0.01686179, 3.911843, 0.01447753, 0.009238576, -0.05463805, -0.01453356, -0.0001781112, 0.0878334, 0.0878334, 0, 0
PIDR, 89974146, -0.1254981, -0.0004061439, -0.1250919, -0.01688741, 0, 2.56159E-05, 0, 0, 1, 0.0214964, 9
PIDP, 89974165, 0.06829505, 0.0002526805, 0.06804237, 0.00918572, 0, 5.285509E-05, 0, 0, 1, 0.02908972, 9
PIDY, 89974169, -0.0009533231, -0.0002536585, -0.0009895065, -0.0001781112, 0, 0, 0, 0, 1, 0.001959168, 9
PIDA, 89974173, 0.0878334, 0.0878334, 0, 0, -399.6059, 0, 0, 0, 1, 0, 13
PIDN, 89974177, 2.58623, 2.58623, 0, 0, -9.98056E-13, 0, 0, 0, 0, 0, 0
PIDE, 89974181, 2.045472, 2.045472, 0, 0, 7.794587E-13, 0, 0, 0, 0, 0, 0
XKF4, 89973434, 0, 0.04, 0, 0, 0.01, 0, 0.006704086, -1.366392, -0.3936326, 0, 48, 109375, 0, 0
XKY0, 89973434, 0, 106.2475, 14.96554, 215.9786, 287.9915, 0.003795711, 71.99854, 143.983, 0.1999605, 0.1998831, 0.1999673, 0.2000967, 0.2000925
XKY1, 89973434, 0, -0.02650889, -0.02444915, -0.02194242, -0.02245346, -0.0252753, -0.02958009, -0.03154662, -0.030195, -0.02739362, -0.02701382
XKF1, 89973434, 0, 1.59, -0.86, 145.97, 0.0258623, 0.02045472, -0.01163682, -0.02088465, -3.519799, -1.58017, -0.0836056, 0, 0, -0.01, 660.81
XKF2, 89973434, 0, 0, 0, 0, 0, 0, 323, -4, 236, 0, 0, 0, 0, 0, 0
XKF3, 89973434, 0, -0.02, -0.02, 0.13, -0.02, -0.01, -0.13, 0, 0, 0, -1.68, 0, 0, 0.001163877
XKF5, 89973434, 0, 0, 0, 0, 0, 0.4, 0.3, 0, 0, 0.5, 0.0002772941, 0.008155574, 0.01503558
XKFS, 89973434, 0, 0, 0, 0, 0, 0, 1, 0, 1
XKQ, 89973434, 0, 0.2922915, 0.02087647, 0.005841897, 0.9560835
XKF4, 89973434, 1, 0.04, 0, 0, 0.02, 0, 0.006740262, -1.386197, -0.3911247, 0, 48, 109375, 0, 0
XKY0, 89973434, 1, 128.0481, 14.42053, 215.9752, 287.9814, 359.9922, 71.9926, 143.9821, 0.200003, 0.1999209, 0.1999481, 0.200047, 0.200081
XKY1, 89973434, 1, -0.02437689, -0.02472799, -0.02424568, -0.02359666, -0.02367777, -0.02859345, -0.02921456, -0.02974037, -0.02944414, -0.02873541
XKF1, 89973434, 1, 2.71, -0.39, 144.96, 0.02823097, 0.02084993, -0.0144636, -0.0279005, -3.518527, -1.581353, -0.0891513, 0, 0.01, -0.02, 660.81
XKF2, 89973434, 1, 0, 0, -0.01, 0, 0, 324, -4, 235, 0, 0, 0, 0, 0, 0
XKF3, 89973434, 1, -0.02, -0.02, 0.13, -0.02, -0.02, -0.13, 0, 0, 0, -1.82, 0, 0.00753665, 0.001134972
XKFS, 89973434, 1, 0, 0, 0, 0, 0, 1, 0, 1
XKQ, 89973434, 1, 0.3006444, 0.01992785, 0.01614539, 0.9533914
AHR2, 89974288, 2.57, -0.48, 145.1, 660.81, 15.3695692, 75.1243776, 0.2996443, 0.01077604, 0.02013382, 0.9537777
POS, 89974296, 15.3695689, 75.1243774, 660.89, 0.0236056, 0.0836056
MOTB, 89974301, 1, 1, 1, 0.03996059, 0, 2
RCIN, 89974307, 1495, 1495, 982, 1495, 982, 982, 1495, 1495, 1495, 1495, 1495, 1495, 1495, 1495
RCI2, 89974334, 1495, 1495, 0, 1
RCOU, 89974370, 1000, 1000, 1000, 1000, 0, 0, 0, 0, 1495, 0, 0, 0, 0, 0
RCO2, 89974384, 0, 0, 0, 0
PSCN, 89974391, -3.519799, -3.519799, -3.519799, 0.0258623, 0.0258623, 0.0258623, 0, -9.98056E-15, -4.666316E-05
PSCE, 89974395, -1.580169, -1.580169, -1.580169, 0.02045472, 0.02045472, 0.02045472, 0, 7.794587E-15, 3.629162E-05
PSCD, 89974400, -0.0836056, -0.0836056, -0.0836056, -0.01163682, -0.01163682, -0.01163682, -0.000878334, -0.000878334, -0.000878334
VIBE, 89974404, 0, 0.008971421, 0.00901709, 0.009772678, 0
VIBE, 89974404, 1, 0.05796051, 0.05230235, 0.07589439, 0
CTRL, 89974412, 0.01693782, 8.723177E-05, 0.00923049, 0.0001136236, 0.0001732989
IMU, 89974423, 0, -0.0005462939, 0.0004173603, -0.0004632513, -0.3534221, -0.2322612, -9.80407, 0, 0, 44.80676, 1, 1, 2022, 2022
IMU, 89974423, 1, 0.000665545, 0.0034224, 0.0008311537, -0.2938085, -0.4197166, -9.809877, 0, 0, 45, 1, 1, 1999, 2045
DCM, 89975969, 2.57089, -0.4865441, 145.1104, 0.01478925, 0.03390808, 0, 0, 0
EAHR, 89978425, 0, 0, 0, 0, 0, 0, 0, 0, 0, 0
FILE, @SYS/threads.txt, 1024, 64, 6\nI2C0          PRI=176 sp=0x2406C800 STACK=984/1456\nSPI1       
FILE, @SYS/threads.txt, 1088, 40,    PRI=181 sp=0x24070FE8 STACK=776/1456\n
IMU, 90013832, 0, -7.319954E-05, -0.0004849192, -0.0003188569, -0.3647071, -0.2322352, -9.807997, 0, 0, 44.80676, 1, 1, 2022, 2022
IMU, 90013832, 1, -0.0003849638, -0.001569685, 0.0006202985, -0.2865471, -0.404377, -9.815697, 0, 0, 45, 1, 1, 1999, 2045
FILE, @SYS/timers.txt, 0, 64, TIMERV1\nTIM5  CLK= 200Mhz MODE=  PWM FREQ=       7 TGT=       8\n
SURF, 90024027, 0, 2, 0, 0, 0.07344068
SURF, 90024066, 1, 2, 0, 0, 0.07344068
FILE, @SYS/timers.txt, 64, 64, TIM4  CLK= 200Mhz MODE=  PWM FREQ=       7 TGT=       8\nTIM1  CL
FILE, @SYS/timers.txt, 128, 48, K= 200Mhz MODE=  PWM FREQ=       7 TGT=       8\n
IMU, 90053841, 0, -0.0001945759, 0.0001123129, -0.0003091562, -0.358369, -0.2260931, -9.803432, 0, 0, 44.32367, 1, 1, 2022, 2022
IMU, 90053841, 1, -0.0005115242, -0.00259206, -0.0002483751, -0.2778381, -0.4053962, -9.802736, 0, 0, 45, 1, 1, 1999, 2045
STAK, 90063806, 12, 60, 752, 336, UART1
FMT, 254, 20, TSYN, QBQ, TimeUS,SysID,RTT
TSYN, 90066316, 255, 38098
FILE, @ROMFS/hwdef.dat, 0, 64, MCU STM32H7xx STM32H743xx\nOSCILLATOR_HZ 16000000\nSTM32_ST_USE_TI
POWR, 90073994, 4.932779, 5.040659, 1, 1, 6
MCU, 90073994, 40.21869, 3.348958, 3.341655, 3.354738
BAT, 90074007, 0, 15.54602, 15.78927, 1.218628, 31.34413, 0.4897217, 0, 0.1996066, 99, 1, 0
MAG, 90074018, 0, -272, -168, 261, -382, 367, 647, 0, 0, 0, 1, 90074017
MAG, 90074018, 1, -12, -384, 189, 30, 10, -27, 0, 0, 0, 1, 90074016
SURF, 90074037, 0, 2, 0, 0, 0.07408784
SURF, 90074046, 1, 2, 0, 0, 0.07408784
BARO, 90074066, 0, -0.081604, 660.7284, 93636.95, 40.52, 0.1580238, 90074, 0, 35, 1
CTUN, 90074078, 0, 0, 0, 0.3996059, 0.08938303, 0.08938303, -0.08, NaN, 0, 0.0175487, 1, 1
ATT, 90074135, -2.339812E-05, 1.597875, -0.0003445859, -0.869732, 146.0205, 145.9863, 3
ANG, 90073324, -2.339812E-05, 1.596992, -0.0003445859, -0.8702075, 146.0205, 146.0205, 0.002492
RATE, 90073336, -7.186039, -0.005369192, -0.01687221, 3.917647, 0.02860598, 0.009119254, -0.05464763, -0.007907369, -0.0001690072, 0.2971649, 0.2971649, 0, 0
PIDR, 90074177, -0.1254235, -9.371008E-05, -0.1253298, -0.01691953, 0, 4.731479E-05, 0, 0, 1, 0.02318048, 9
PIDP, 90074211, 0.0683879, 0.0004992685, 0.06788862, 0.009164965, 0, -4.571077E-05, 0, 0, 1, 0.02631818, 9
PIDY, 90074225, -0.0009539729, -0.0001380096, -0.0009389288, -0.0001690072, 0, 0, 0, 0, 1, 0.00201748, 9
PIDA, 90074229, 0.2971649, 0.2971649, 0, 0, -399.6059, 0, 0, 0, 1, 0, 13
PIDN, 90074233, 2.856682, 2.856682, 0, 0, -5.368088E-13, 0, 0, 0, 0, 0, 0
PIDE, 90074237, 2.272857, 2.272857, 0, 0, 4.192353E-13, 0, 0, 0, 0, 0, 0
XKF4, 90073476, 0, 0.04, 0, 0, 0.02, 0, 0.006781058, -1.366392, -0.3936326, 0, 48, 109375, 0, 0
XKY0, 90073476, 0, 106.2473, 14.96557, 215.9785, 287.9913, 0.003627766, 71.99837, 143.9828, 0.1999605, 0.1998831, 0.1999673, 0.2000967, 0.2000925
XKY1, 90073476, 0, -0.02650889, -0.02444915, -0.02194242, -0.02245346, -0.0252753, -0.02958009, -0.03154662, -0.030195, -0.02739362, -0.02701382
XKF1, 90073476, 0, 1.59, -0.86, 145.98, 0.02856681, 0.02272857, -0.01394208, -0.06509659, -3.515011, -1.576622, -0.08938303, 0, 0, -0.01, 660.81
XKF2, 90073476, 0, 0, 0, 0, 0, 0, 323, -4, 236, 0, 0, 0, 0, 0, 0
XKF3, 90073476, 0, -0.02, -0.02, 0.13, -0.02, -0.01, -0.1, 0, 0, 0, -2.33, 0, 0, 0.001163877
XKF5, 90073476, 0, 0, 0, 0, 0, 0.4, 0.3, 0, 0, 0.5, 0.0003440262, 0.005027911, 0.009995849
XKFS, 90073476, 0, 0, 0, 0, 0, 0, 1, 0, 1
XKQ, 90073476, 0, 0.2922127, 0.02088426, 0.005833063, 0.9561075
XKF4, 90073476, 1, 0.04, 0, 0, 0.02, 0, 0.006816437, -1.386197, -0.3911247, 0, 48, 109375, 0, 0
XKY0, 90073476, 1, 128.048, 14.42055, 215.9751, 287.9814, 359.9922, 71.99255, 143.982, 0.200003, 0.1999209, 0.1999481, 0.200047, 0.200081
XKY1, 90073476, 1, -0.02437689, -0.02472799, -0.02424568, -0.02359666, -0.02367777, -0.02859345, -0.02921456, -0.02974037, -0.02944414, -0.02873541
XKF1, 90073476, 1, 2.7, -0.4, 144.97, 0.03014258, 0.02236265, -0.01754548, -0.06814487, -3.513834, -1.577689, -0.09494256, 0, 0.01, -0.02, 660.81
XKF2, 90073476, 1, 0, 0, -0.01, 0, 0, 324, -4, 235, 0, 0, 0, 0, 0, 0
XKF3, 90073476, 1, -0.02, -0.02, 0.13, -0.02, -0.02, -0.11, 0, 0, 0, -2.47, 0, 0.00753665, 0.001134972
XKFS, 90073476, 1, 0, 0, 0, 0, 0, 1, 0, 1
XKQ, 90073476, 1, 0.3005349, 0.01994407, 0.0161347, 0.9534258
AHR2, 90074334, 2.54, -0.48, 145.13, 660.85, 15.3695693, 75.1243776, 0.2994412, 0.01071647, 0.01991365, 0.9538468
POS, 90074340, 15.369569, 75.1243775, 660.89, 0.02938303, 0.08938303
MOTB, 90074345, 1, 1, 1, 0.03996059, 0, 2
RCIN, 90074351, 1495, 1495, 982, 1495, 982, 982, 1495, 1495, 1495, 1495, 1495, 1495, 1495, 1495
RCI2, 90074355, 1495, 1495, 0, 1
RCOU, 90074361, 1000, 1000, 1000, 1000, 0, 0, 0, 0, 1495, 0, 0, 0, 0, 0
RCO2, 90074365, 0, 0, 0, 0
PSCN, 90074371, -3.515011, -3.515011, -3.515011, 0.02856681, 0.02856681, 0.02856681, 0, -5.368088E-15, -4.666912E-05
PSCE, 90074376, -1.576622, -1.576622, -1.576622, 0.02272857, 0.02272857, 0.02272857, 0, 4.192352E-15, 3.628395E-05
PSCD, 90074380, -0.08938303, -0.08938303, -0.08938303, -0.01394208, -0.01394208, -0.01394208, -0.002971649, -0.002971649, -0.002971649
VIBE, 90074385, 0, 0.007832555, 0.009709224, 0.009641485, 0
VIBE, 90074385, 1, 0.05920044, 0.05645845, 0.06755315, 0
CTRL, 90074393, 0.01693394, 7.73119E-05, 0.009241455, 0.0001112949, 0.0001738905
DCM, 90075912, 2.544651, -0.4884311, 145.1351, 0.01478925, 0.03266865, 0, 0, 0
EAHR, 90078438, 0, 0, 0, 0, 0, 0, 0, 0, 0, 0
FILE, @ROMFS/hwdef.dat, 64, 64, MER 2\nUSB_VENDOR 0x3162\nUSB_PRODUCT 0x0053\nUSB_STRING_MANUFACTUR
IMU, 90093800, 0, -0.0001742266, -0.001213408, -0.0003296254, -0.3587222, -0.231727, -9.801558, 0, 0, 44.80676, 1, 1, 2022, 2022
IMU, 90093800, 1, -0.000933408, 0.00379987, -0.0005646176, -0.2785935, -0.4085273, -9.796774, 0, 0, 45, 1, 1, 1999, 2045
FILE, @ROMFS/hwdef.dat, 128, 64, ER "Holybro"\nAPJ_BOARD_ID 56\nFLASH_RESERVE_START_KB 128\nenv USE_
FILE, @ROMFS/hwdef.dat, 192, 64, ALT_RAM_MAP 1\nFLASH_SIZE_KB 2048\nenv OPTIMIZE -O2\nSERIAL_ORDER O
FILE, @ROMFS/hwdef.dat, 256, 64, TG1 UART7 UART5 USART1 UART8 USART2 USART3 OTG2\nPA11 OTG_FS_DM O
SURF, 90124042, 0, 2, 0, 0, 0.0748347
SURF, 90124051, 1, 2, 0, 0, 0.0748347
FILE, @ROMFS/hwdef.dat, 320, 64, TG1\nPA12 OTG_FS_DP OTG1\nPA9 VBUS INPUT OPENDRAIN\nPA13 JTMS-SWDIO
GPS, 90134122, 0, 3, 222673200, 2380, 12, 0.77, 15.3695692, 75.1243775, 647.63, 0.045, 0, -0.004, 0, 1
GPA, 90134122, 0, 1.55, 1.22, 2.25, 0.37, 0, 1, 90114, 200, 569.62, 0, 0
IMU, 90134258, 0, 0.0002453664, -0.0003384442, -0.0003944307, -0.361338, -0.2297679, -9.811736, 0, 0, 44.80676, 1, 1, 2022, 2022
IMU, 90134258, 1, 0.0001887836, -0.002101485, 0.001303979, -0.293818, -0.4037198, -9.790853, 0, 0, 45, 1, 1, 1999, 2045
FILE, @ROMFS/hwdef.dat, 384, 64,  SWD\nPA14 JTCK-SWCLK SWD\nPE8  UART7_TX UART7\nPE7  UART7_RX UART7
FILE, @ROMFS/hwdef.dat, 448, 64, \nPE9  UART7_RTS UART7 LOW PULLDOWN\nPE10 UART7_CTS UART7\nPC12 UAR
STAK, 90163866, 13, 60, 752, 408, UART8
FMT, 253, 35, IOMC, QHHIIIII, TimeUS,RSErr,Mem,TS,NPkt,Nerr,Nerr2,NDel
IOMC, 90164032, 0, 12896, 90088, 42999, 0, 0, 0
FILE, @ROMFS/hwdef.dat, 512, 64, T5_TX UART5\nPD2 UART5_RX UART5\nPC8 UART5_RTS UART5 LOW PULLDOWN\n
POWR, 90173949, 4.948288, 5.038241, 1, 1, 6
MCU, 90173949, 40.21869, 3.348817, 3.341514, 3.356434
BAT, 90173963, 0, 15.5528, 15.79995, 1.238219, 31.37852, 0.4902564, 0, 0.1996066, 99, 1, 0
MAG, 90173974, 0, -275, -169, 263, -382, 367, 647, 0, 0, 0, 1, 90173973
MAG, 90173974, 1, -13, -385, 187, 30, 10, -27, 0, 0, 0, 1, 90173971
SURF, 90173992, 0, 2, 0, 0, 0.07565573
SURF, 90174001, 1, 2, 0, 0, 0.07565573
BARO, 90174037, 0, 0.01837158, 660.8284, 93635.82, 40.52, -0.02487183, 90174, 0, 35, 1
CTUN, 90174062, 0, 0, 0, 0.3996059, 0.09331421, 0.09331421, 0.01, NaN, 0, 0.0275487, 1, 1
DU32, 90174097, 7, 6349264
TERR, 90174126, 2, 15.369569, 75.1243775, 100, 660.8724, 0.0275487, 0, 336, 13.86712
ATT, 90174174, -2.339814E-05, 1.598127, -0.0003445859, -0.8735973, 146.0295, 145.9954, 3
ANG, 90173324, -2.339814E-05, 1.597243, -0.0003445859, -0.8740729, 146.0295, 146.0295, 0.0025
RATE, 90173337, -7.187051, 7.700304E-05, -0.0169723, 3.934985, -0.06144973, 0.009640108, -0.05487625, -0.0125073, -0.0001564004, 0.5212784, 0.5212784, 0, 0
PIDR, 90174190, -0.1254303, 1.343957E-06, -0.1254316, -0.01693327, 0, -3.903151E-05, 0, 0, 1, 0.0245019, 9
PIDP, 90174207, 0.06863379, -0.0010725, 0.06970629, 0.00941035, 0, 0.0002297585, 0, 0, 1, 0.02704666, 9
PIDY, 90174223, -0.0009573165, -0.0002182936, -0.000868891, -0.0001564004, 0, 0, 0, 0, 1, 0.001967079, 9
PIDA, 90174255, 0.5212784, 0.5212784, 0, 0, -399.6059, 0, 0, 0, 1, 0, 13
PIDN, 90174273, 2.922231, 2.922231, 0, 0, -2.887249E-13, 0, 0, 0, 0, 0, 0
PIDE, 90174277, 2.207266, 2.207266, 0, 0, 2.254874E-13, 0, 0, 0, 0, 0, 0
XKF4, 90173426, 0, 0.02, 0, 0, 0.01, 0, 0.006843403, -1.366392, -0.3936326, 0, 48, 109375, 0, 0
XKY0, 90173426, 0, 201.8047, 14.39004, 215.9898, 287.9871, 359.9893, 71.99345, 143.9937, 0.200031, 0.2000021, 0.1999703, 0.1999795, 0.200017
XKY1, 90173426, 0, 0.03601724, 0.03795109, 0.04086185, 0.04072626, 0.03773291, 0.06151867, 0.05908619, 0.06017435, 0.06327824, 0.06410888
XKF1, 90173426, 0, 1.59, -0.87, 145.99, 0.02922231, 0.02207266, -0.01550246, -0.0578371, -3.511259, -1.574748, -0.09331421, 0, 0, -0.01, 660.81
XKF2, 90173426, 0, 0, 0, 0, 0, 0, 323, -4, 236, 0, 0, 0, 0, 0, 0
XKF3, 90173426, 0, 0.04, 0.06, -0.01, -0.02, -0.01, -0.17, 0, 0, 0, -1.45, 0, 0, 0.0003672151
XKF5, 90173426, 0, 0, 0, 0, 0, 0.4, 0.3, 0, 0, 0.5, 0.0003198533, 0.01426711, 0.01393794
XKFS, 90173426, 0, 0, 0, 0, 0, 0, 1, 0, 1
XKQ, 90173426, 0, 0.2921366, 0.02091669, 0.005826951, 0.9561301
XKF4, 90173426, 1, 0.02, 0, 0, 0.01, 0, 0.006878085, -1.386197, -0.3911247, 0, 48, 109375, 0, 0
XKY0, 90173426, 1, 119.0989, 14.64073, 215.9811, 287.9864, 359.9933, 71.99242, 143.9848, 0.199993, 0.1999431, 0.1999718, 0.2000395, 0.2000526
XKY1, 90173426, 1, 0.03829126, 0.03808727, 0.03867253, 0.03923803, 0.03900239, 0.06211428, 0.06143272, 0.06102816, 0.06145976, 0.06213089
XKF1, 90173426, 1, 2.71, -0.39, 144.98, 0.02928139, 0.0208783, -0.01759519, -0.05590039, -3.510536, -1.576272, -0.0987216, 0, 0.01, -0.02, 660.81
XKF2, 90173426, 1, 0, 0, -0.01, 0, 0, 324, -4, 235, 0, 0, 0, 0, 0, 0
XKF3, 90173426, 1, 0.04, 0.06, -0.01, -0.02, -0.01, -0.18, 0, 0, 0, -1.54, 0, 0.007616831, 0.0003738969
XKFS, 90173426, 1, 0, 0, 0, 0, 0, 1, 0, 1
XKQ, 90173426, 1, 0.3004192, 0.01993773, 0.01614166, 0.9534622
