FMT, 128, 89, FMT, BBnNZ, Type,Length,Name,Format,Columns
FMT, 119, 76, UNIT, QbZ, TimeUS,Id,Label
FMT, 118, 44, FMTU, QBNN, TimeUS,FmtType,UnitIds,MultIds
FMT, 120, 20, MULT, Qbd, TimeUS,Id,Mult
FMT, 32, 35, PARM, QNff, TimeUS,Name,Value,Default
FMT, 94, 51, GPS, QBBIHBcLLeffffB, TimeUS,I,Status,GMS,GWk,NSats,HDop,Lat,Lng,Alt,Spd,GCrs,VZ,Yaw,U
FMT, 95, 39, GPA, QBCCCCfBIHeHH, TimeUS,I,VDop,HAcc,VAcc,SAcc,YAcc,VV,SMS,Delta,AEl,RTCMFU,RTCMFD
FMT, 99, 22, UBX1, QBHBBHI, TimeUS,Instance,noisePerMS,jamInd,aPower,agcCnt,config
FMT, 100, 16, UBX2, QBbBbB, TimeUS,Instance,ofsI,magI,ofsQ,magQ
FMT, 96, 42, GRAW, QIHBBddfBbB, TimeUS,WkMS,Week,numSV,sv,cpMes,prMes,doMes,mesQI,cno,lli
FMT, 97, 24, GRXH, QdHbBB, TimeUS,rcvTime,week,leapS,numMeas,recStat
FMT, 98, 41, GRXS, QddfBBBHBBBBB, TimeUS,prMes,cpMes,doMes,gnss,sv,freq,lock,cno,prD,cpD,doD,trk
FMT, 101, 23, SBPH, QIII, TimeUS,CrcError,LastInject,IARhyp
FMT, 102, 67, SBRH, QQQQQQQQ, TimeUS,msg_flag,1,2,3,4,5,6
FMT, 103, 123, SBRM, QQQQQQQQQQQQQQQ, TimeUS,msg_flag,1,2,3,4,5,6,7,8,9,10,11,12,13
FMT, 104, 23, SBRE, QHIiBB, TimeUS,GWk,GMS,ns_residual,level,quality
FMT, 59, 75, MSG, QZ, TimeUS,Message
FMT, 60, 39, RCIN, QHHHHHHHHHHHHHH, TimeUS,C1,C2,C3,C4,C5,C6,C7,C8,C9,C10,C11,C12,C13,C14
FMT, 61, 18, RCI2, QHHHB, TimeUS,C15,C16,OMask,Flags
FMT, 62, 39, RCOU, QHHHHHHHHHHHHHH, TimeUS,C1,C2,C3,C4,C5,C6,C7,C8,C9,C10,C11,C12,C13,C14
FMT, 207, 19, RCO2, QHHHH, TimeUS,C15,C16,C17,C18
FMT, 208, 39, RCO3, QHHHHHHHHHHHHHH, TimeUS,C19,C20,C21,C22,C23,C24,C25,C26,C27,C28,C29,C30,C31,C32
FMT, 63, 19, RSSI, Qff, TimeUS,RXRSSI,RXLQ
FMT, 64, 43, BARO, QBfffcfIffB, TimeUS,I,Alt,AltAMSL,Press,Temp,CRt,SMS,Offset,GndTemp,Health
FMT, 65, 24, BARD, QBfff, TimeUS,I,DynPrX,DynPrY,DynPrZ
FMT, 66, 25, CANF, QBIBBBBBBBBB, TimeUS,Bus,Id,DLC,B0,B1,B2,B3,B4,B5,B6,B7
FMT, 67, 81, CAFD, QBIBQQQQQQQQ, TimeUS,Bus,Id,DLC,D0,D1,D2,D3,D4,D5,D6,D7
FMT, 196, 50, PL, QBBfffffffIIB, TimeUS,Heal,TAcq,pX,pY,vX,vY,mX,mY,mZ,LastMeasMS,EKFOutl,Est
FMT, 68, 24, POWR, QffHHB, TimeUS,Vcc,VServo,Flags,AccFlags,Safety
FMT, 69, 27, MCU, Qffff, TimeUS,MTemp,MVolt,MVmin,MVmax
FMT, 93, 46, CMD, QHHHffffLLfB, TimeUS,CTot,CNum,CId,Prm1,Prm2,Prm3,Prm4,Lat,Lng,Alt,Frame
FMT, 92, 46, MISE, QHHHffffLLfB, TimeUS,CTot,CNum,CId,Prm1,Prm2,Prm3,Prm4,Lat,Lng,Alt,Frame
FMT, 78, 48, MAVC, QBBBBBHffffiifBB, TimeUS,TS,TC,SS,SC,Fr,Cmd,P1,P2,P3,P4,X,Y,Z,Res,WL
FMT, 79, 20, RAD, QBBBBBHH, TimeUS,RSSI,RemRSSI,TxBuf,Noise,RemNoise,RxErrors,Fixed
FMT, 81, 46, CAM, QBHIHLLeeeccC, TimeUS,I,Img,GPSTime,GPSWeek,Lat,Lng,Alt,RelAlt,GPSAlt,R,P,Y
FMT, 82, 46, TRIG, QBHIHLLeeeccC, TimeUS,I,Img,GPSTime,GPSWeek,Lat,Lng,Alt,RelAlt,GPSAlt,R,P,Y
FMT, 83, 48, MNT, QBfffffffff, TimeUS,I,DRoll,Roll,DPitch,Pitch,DYawB,YawB,DYawE,YawE,Dist
FMT, 114, 41, ARSP, QBffcffBBffB, TimeUS,I,Airspeed,DiffPress,Temp,RawPress,Offset,U,H,Hp,TR,Pri
FMT, 88, 41, BAT, QBfffffcfBBB, TimeUS,Inst,Volt,VoltR,Curr,CurrTot,EnrgTot,Temp,Res,RemPct,H,SH
FMT, 89, 40, BCL, QBfHHHHHHHHHHHH, TimeUS,Instance,Volt,V1,V2,V3,V4,V5,V6,V7,V8,V9,V10,V11,V12
FMT, 113, 35, MAG, QBhhhhhhhhhBI, TimeUS,I,MagX,MagY,MagZ,OfsX,OfsY,OfsZ,MOX,MOY,MOZ,Health,S
FMT, 122, 14, MODE, QMBB, TimeUS,Mode,ModeNum,Rsn
FMT, 116, 17, RFND, QBCBBb, TimeUS,Instance,Dist,Stat,Orient,Quality
FMT, 117, 36, DMS, QIIIIBBBBBBBBB, TimeUS,N,Dp,RT,RS,Fa,Fmn,Fmx,Pa,Pmn,Pmx,Sa,Smn,Smx
FMT, 174, 41, BCN, QBBfffffff, TimeUS,Health,Cnt,D0,D1,D2,D3,PosX,PosY,PosZ
FMT, 175, 57, PRX, QBBfffffffffff, TimeUS,Layer,He,D0,D45,D90,D135,D180,D225,D270,D315,DUp,CAn,CDis
FMT, 176, 44, PRXR, QBffffffff, TimeUS,Layer,D0,D45,D90,D135,D180,D225,D270,D315
FMT, 179, 61, PM, QHHHIIHHIIIIIIQ, TimeUS,LR,NLon,NL,MaxT,Mem,Load,ErrL,InE,ErC,SPIC,I2CC,I2CI,Ex,R
FMT, 178, 29, SRTL, QBHHBfff, TimeUS,Active,NumPts,MaxPts,Action,N,E,D
FMT, 170, 48, OABR, QBBHHHBfLLiLLi, TimeUS,Type,Act,DYaw,Yaw,DP,RChg,Mar,DLt,DLg,DAlt,OLt,OLg,OAlt
FMT, 171, 31, OADJ, QBBBBLLLL, TimeUS,State,Err,CurrPoint,TotPoints,DLat,DLng,OALat,OALng
FMT, 172, 37, SA, QBffffffB, TimeUS,State,DVelX,DVelY,DVelZ,MVelX,MVelY,MVelZ,Back
FMT, 173, 21, OAVG, QBBLL, TimeUS,version,point_num,Lat,Lon
FMT, 77, 45, SIM, QccCfLLffff, TimeUS,Roll,Pitch,Yaw,Alt,Lat,Lng,Q1,Q2,Q3,Q4
FMT, 84, 38, TERR, QBLLHffHHf, TimeUS,Status,Lat,Lng,Spacing,TerrH,CHeight,Pending,Loaded,ROfs
FMT, 86, 40, ESC, QBffffcfcf, TimeUS,Instance,RPM,RawRPM,Volt,Curr,Temp,CTot,MotTemp,Err
FMT, 87, 15, EDT2, QBBBB, TimeUS,Instance,Stress,MaxStress,Status
FMT, 85, 46, CSRV, QBfffBfffffB, TimeUS,Id,Pos,Force,Speed,Pow,PosCmd,V,A,MotT,PCBT,Err
FMT, 105, 52, PIDR, QffffffffffB, TimeUS,Tar,Act,Err,P,I,D,FF,DFF,Dmod,SRate,Flags
FMT, 106, 52, PIDP, QffffffffffB, TimeUS,Tar,Act,Err,P,I,D,FF,DFF,Dmod,SRate,Flags
FMT, 107, 52, PIDY, QffffffffffB, TimeUS,Tar,Act,Err,P,I,D,FF,DFF,Dmod,SRate,Flags
FMT, 108, 52, PIDA, QffffffffffB, TimeUS,Tar,Act,Err,P,I,D,FF,DFF,Dmod,SRate,Flags
FMT, 109, 52, PIDS, QffffffffffB, TimeUS,Tar,Act,Err,P,I,D,FF,DFF,Dmod,SRate,Flags
FMT, 110, 52, PIDN, QffffffffffB, TimeUS,Tar,Act,Err,P,I,D,FF,DFF,Dmod,SRate,Flags
FMT, 111, 52, PIDE, QffffffffffB, TimeUS,Tar,Act,Err,P,I,D,FF,DFF,Dmod,SRate,Flags
FMT, 112, 56, DSTL, QBfLLeccfeffff, TimeUS,Stg,THdg,Lat,Lng,Alt,XT,Travel,L1I,Loiter,Des,P,I,D
FMT, 161, 32, ACC, QBQfff, TimeUS,I,SampleUS,AccX,AccY,AccZ
FMT, 162, 32, GYR, QBQfff, TimeUS,I,SampleUS,GyrX,GyrY,GyrZ
FMT, 163, 54, IMU, QBffffffIIfBBHH, TimeUS,I,GyrX,GyrY,GyrZ,AccX,AccY,AccZ,EG,EA,T,GH,AH,GHz,AHz
FMT, 166, 28, VIBE, QBfffI, TimeUS,IMU,VibeX,VibeY,VibeZ,Clip
FMT, 164, 31, ISBH, QHBBHHQf, TimeUS,N,type,instance,mul,smp_cnt,SampleUS,smp_rate
FMT, 165, 207, ISBD, QHHaaa, TimeUS,N,seqno,x,y,z
FMT, 129, 15, RFRH, QI, TimeUS,TF
FMT, 130, 5, RFRF, BB, FTypes,Slow
FMT, 138, 38, RFRN, IIIfIfffBBB, HLat,HLon,HAlt,E2T,AM,TX,TY,TZ,VC,EKT,Flags
FMT, 131, 4, REV2, B, Event
FMT, 132, 15, RSO2, III, Lat,Lon,Alt
FMT, 133, 11, RWA2, ff, Airspeed,uncertainty
FMT, 134, 4, REV3, B, Event
FMT, 135, 15, RSO3, III, Lat,Lon,Alt
FMT, 136, 11, RWA3, ff, Airspeed,Uncertainty
FMT, 137, 16, REY3, ffIB, yawangle,yawangleerr,timestamp_ms,type
FMT, 139, 13, RISH, HBBfBB, LR,PG,PA,LD,AC,GC
FMT, 140, 37, RISI, ffffffffBB, DVX,DVY,DVZ,DAX,DAY,DAZ,DVDT,DADT,Flags,I
FMT, 148, 5, RASH, BB, Primary,NumInst
FMT, 149, 14, RASI, fIBBB, pd,UpdateMS,H,Use,I
FMT, 141, 5, RBRH, BB, Primary,NumInst
FMT, 142, 13, RBRI, IfBB, LastUpdate,Alt,H,I
FMT, 143, 8, RRNH, hhB, GCl,MaxD,NumSensors
FMT, 144, 20, RRNI, fffHBBB, PX,PY,PZ,Dist,Orient,Status,I
FMT, 145, 5, RGPH, BB, NumInst,Primary
FMT, 146, 23, RGPI, ffffBBBB, OX,OY,OZ,Lg,Flags,Stat,NSats,I
FMT, 147, 58, RGPJ, IffffffIiiiffHB, TS,VX,VY,VZ,SA,Y,YA,YT,Lat,Lon,Alt,HA,VA,HD,I
FMT, 153, 14, RMGH, fBBBBBBB, Dec,Avail,NumInst,AutoDec,NumEna,LOE,C,FUsable
FMT, 154, 35, RMGI, IffffffBBBB, LU,OX,OY,OZ,FX,FY,FZ,UFY,H,HSF,I
FMT, 150, 33, RBCH, ffffiiiBB, PX,PY,PZ,AE,OLat,OLng,OAlt,Flags,NumInst
FMT, 151, 25, RBCI, IffffBB, LU,PX,PY,PZ,Dist,H,I
FMT, 152, 21, RVOH, fffIBB, OX,OY,OZ,Del,H,Ena
FMT, 155, 40, ROFH, ffffIffffB, FX,FY,GX,GY,Tms,PX,PY,PZ,HgtOvr,Qual
FMT, 156, 49, REPH, fffffffffIIH, PX,PY,PZ,Q1,Q2,Q3,Q4,PEr,AEr,TS,RT,D
FMT, 157, 19, RSLL, IIfI, Lat,Lng,PosAccSD,TS
FMT, 158, 25, REVH, ffffIH, VX,VY,VZ,Er,TS,D
FMT, 159, 31, RWOH, ffIffff, DA,DT,TS,PX,PY,PZ,R
FMT, 160, 53, RBOH, ffffffffIfffH, Q,DPX,DPY,DPZ,DAX,DAY,DAZ,DT,TS,OX,OY,OZ,D
FMT, 43, 37, XKF0, QBBccCCcccccccc, TimeUS,C,ID,rng,innov,SIV,TR,BPN,BPE,BPD,OFH,OFL,OFN,OFE,OFD
FMT, 44, 56, XKF1, QBccCfffffffccce, TimeUS,C,Roll,Pitch,Yaw,VN,VE,VD,dPD,PN,PE,PD,GX,GY,GZ,OH
FMT, 45, 46, XKF2, QBccccchhhhhhfff, TimeUS,C,AX,AY,AZ,VWN,VWE,MN,ME,MD,MX,MY,MZ,IDX,IDY,IS
FMT, 46, 42, XKF3, QBcccccchhhccff, TimeUS,C,IVN,IVE,IVD,IPN,IPE,IPD,IMX,IMY,IMZ,IYAW,IVT,RErr,ErSc
FMT, 47, 44, XKF4, QBcccccfffHBIHb, TimeUS,C,SV,SP,SH,SM,SVT,errRP,OFN,OFE,FS,TS,SS,GPS,PI
FMT, 48, 41, XKF5, QBBhhhcccCCfff, TimeUS,C,NI,FIX,FIY,AFI,HAGL,offset,RI,rng,Herr,eAng,eVel,ePos
FMT, 49, 36, XKFD, QBffffff, TimeUS,C,IX,IY,IZ,IVX,IVY,IVZ
FMT, 50, 29, XKFM, QBBffff, TimeUS,C,OGNM,GLR,ALR,GDR,ADR
FMT, 51, 20, XKFS, QBBBBBBBBB, TimeUS,C,MI,BI,GI,AI,SS,GPS_GTA,GPS_CHK_WAIT,MAG_FUSION
FMT, 52, 28, XKQ, QBffff, TimeUS,C,Q1,Q2,Q3,Q4
FMT, 53, 48, XKT, QBIffffffff, TimeUS,C,Cnt,IMUMin,IMUMax,EKFMin,EKFMax,AngMin,AngMax,VMin,VMax
FMT, 54, 20, XKTV, QBff, TimeUS,C,TVS,TVD
FMT, 55, 60, XKV1, QBffffffffffff, TimeUS,C,V00,V01,V02,V03,V04,V05,V06,V07,V08,V09,V10,V11
FMT, 56, 60, XKV2, QBffffffffffff, TimeUS,C,V12,V13,V14,V15,V16,V17,V18,V19,V20,V21,V22,V23
FMT, 57, 60, XKY0, QBffffffffffff, TimeUS,C,YC,YCS,Y0,Y1,Y2,Y3,Y4,W0,W1,W2,W3,W4
FMT, 58, 52, XKY1, QBffffffffff, TimeUS,C,IVN0,IVN1,IVN2,IVN3,IVN4,IVE0,IVE1,IVE2,IVE3,IVE4
FMT, 41, 60, NKY0, QBffffffffffff, TimeUS,C,YC,YCS,Y0,Y1,Y2,Y3,Y4,W0,W1,W2,W3,W4
FMT, 42, 52, NKY1, QBffffffffff, TimeUS,C,IVN0,IVN1,IVN2,IVN3,IVN4,IVE0,IVE1,IVE2,IVE3,IVE4
FMT, 70, 45, AHR2, QccCfLLffff, TimeUS,Roll,Pitch,Yaw,Alt,Lat,Lng,Q1,Q2,Q3,Q4
FMT, 71, 19, AOA, Qff, TimeUS,AOA,SSA
FMT, 72, 36, ATT, QffffffB, TimeUS,DesRoll,Roll,DesPitch,Pitch,DesYaw,Yaw,AEKF
FMT, 73, 24, ORGN, QBLLe, TimeUS,Type,Lat,Lng,Alt
FMT, 74, 31, POS, QLLfff, TimeUS,Lat,Lng,Alt,RelHomeAlt,RelOriginAlt
FMT, 76, 35, ATSC, Qffffff, TimeUS,AngPScX,AngPScY,AngPScZ,PDScX,PDScY,PDScZ
FMT, 204, 51, VSTB, Qffffffffff, TimeUS,GyrX,GyrY,GyrZ,AccX,AccY,AccZ,Q1,Q2,Q3,Q4
FMT, 90, 38, MON, QIbIHHHHHII, TimeUS,Dly,Tsk,IErr,IErrCnt,IErrLn,MM,MC,SmLn,SPICnt,I2CCnt
FMT, 91, 47, WDOG, QbIHHHHHHHIBIIn, TimeUS,Tsk,IE,IEC,IEL,MvMsg,MvCmd,SmLn,FL,FT,FA,FP,ICSR,LR,TN
FMT, 210, 20, UART, QBff, TimeUS,I,Tx,Rx
FMT, 115, 21, RPM, QBffB, TimeUS,I,RPM,Qual,H
FMT, 209, 27, FNCE, QBBBLLBf, TimeUS,Tot,Seq,Type,Lat,Lng,Count,Radius
FMT, 177, 33, DSF, QIHIIII, TimeUS,Dp,Blk,Bytes,FMn,FMx,FAv
FMT, 121, 24, RALY, QBBLLhB, TimeUS,Tot,Seq,Lat,Lng,Alt,Flags
FMT, 183, 23, MAV, QBHHHBHH, TimeUS,chan,txp,rxp,rxdp,flags,ss,tf
FMT, 167, 43, VISO, Qffffffff, TimeUS,dt,AngDX,AngDY,AngDZ,PosDX,PosDY,PosDZ,conf
FMT, 168, 58, VISP, QQIffffffffBBb, TimeUS,RTimeUS,CTimeMS,PX,PY,PZ,R,P,Y,PErr,AErr,Rst,Ign,Q
FMT, 169, 42, VISV, QQIffffBBb, TimeUS,RTimeUS,CTimeMS,VX,VY,VZ,VErr,Rst,Ign,Q
FMT, 180, 28, OF, QBffff, TimeUS,Qual,flowX,flowY,bodyX,bodyY
FMT, 182, 21, WENC, Qfbfb, TimeUS,Dist0,Qual0,Dist1,Qual1
FMT, 185, 35, ADSB, QIiiiHHhH, TimeUS,ICAO_address,Lat,Lng,Alt,Heading,Hor_vel,Ver_vel,Squark
FMT, 181, 12, EV, QB, TimeUS,Id
FMT, 186, 18, ARM, QBIBB, TimeUS,ArmState,ArmChecks,Forced,Method
FMT, 184, 13, ERR, QBB, TimeUS,Subsys,ECode
FMT, 187, 35, WINC, QBBBBBfffHfb, TimeUS,Heal,ThEnd,Mov,Clut,Mode,DLen,Len,DRate,Tens,Vcc,Temp
FMT, 188, 47, PSCN, Qfffffffff, TimeUS,DPN,TPN,PN,DVN,TVN,VN,DAN,TAN,AN
FMT, 189, 47, PSCE, Qfffffffff, TimeUS,DPE,TPE,PE,DVE,TVE,VE,DAE,TAE,AE
FMT, 190, 47, PSCD, Qfffffffff, TimeUS,DPD,TPD,PD,DVD,TVD,VD,DAD,TAD,AD
FMT, 191, 35, PSON, Qffffff, TimeUS,TPON,PON,TVON,VON,TAON,AON
FMT, 192, 35, PSOE, Qffffff, TimeUS,TPOE,POE,TVOE,VOE,TAOE,AOE
FMT, 193, 35, PSOD, Qffffff, TimeUS,TPOD,POD,TVOD,VOD,TAOD,AOD
FMT, 194, 35, PSOT, Qffffff, TimeUS,TPOT,POT,TVOT,VOT,TAOT,AOT
FMT, 75, 63, RATE, Qfffffffffffff, TimeUS,RDes,R,ROut,PDes,P,POut,YDes,Y,YOut,ADes,A,AOut,AOutSlew
FMT, 195, 39, ANG, Qfffffff, TimeUS,DesRoll,Roll,DesPitch,Pitch,DesYaw,Yaw,Dt
FMT, 201, 33, STAK, QBBHHN, TimeUS,Id,Pri,Total,Free,Name
FMT, 202, 88, FILE, NIBZ, FileName,Offset,Length,Data
FMT, 197, 78, AISR, QBBBZ, TimeUS,num,total,ID,payload
FMT, 198, 41, AIS1, QBBIBbHbLLHHBBbI, US,typ,rep,mmsi,nav,rot,sog,pos,lon,lat,cog,hed,sec,man,raim,rad
FMT, 199, 38, AIS4, QBIHBBBBBBLLBBI, US,rep,mmsi,year,mth,day,h,m,s,fix,lon,lat,epfd,raim,rad
FMT, 200, 175, AIS5, QBIBINZBHHBBBBZB, US,rep,mmsi,ver,imo,cal,nam,typ,bow,stn,prt,str,fix,dght,dst,dte
FMT, 203, 39, SCR, QNIii, TimeUS,Name,Runtime,Total_mem,Run_mem
FMT, 206, 90, VER, QBHBBBBIZHBB, TimeUS,BT,BST,Maj,Min,Pat,FWT,GH,FWS,APJ,BU,FV
FMT, 205, 32, MOTB, QfffffB, TimeUS,LiftMax,BatVolt,ThLimit,ThrAvMx,ThrOut,FailFlags
FMT, 6, 24, PTUN, QBfff, TimeUS,Param,TunVal,TunMin,TunMax
FMT, 0, 55, CTUN, Qffffffefffhh, TimeUS,ThI,ABst,ThO,ThH,DAlt,Alt,BAlt,DSAlt,SAlt,TAlt,DCRt,CRt
FMT, 1, 14, D16, QBh, TimeUS,Id,Value
FMT, 2, 14, DU16, QBH, TimeUS,Id,Value
FMT, 3, 16, D32, QBi, TimeUS,Id,Value
FMT, 4, 16, DU32, QBI, TimeUS,Id,Value
FMT, 5, 16, DFLT, QBf, TimeUS,Id,Value
FMT, 9, 47, SIDD, Qfffffffff, TimeUS,Time,Targ,F,Gx,Gy,Gz,Ax,Ay,Az
FMT, 10, 40, SIDS, QBfffffff, TimeUS,Ax,Mag,FSt,FSp,TFin,TC,TR,TFout
FMT, 8, 49, GUIP, QBfffbffffff, TimeUS,Type,pX,pY,pZ,Terrain,vX,vY,vZ,aX,aY,aZ
FMT, 11, 44, GUIA, QBffffffff, TimeUS,Type,Roll,Pitch,Yaw,RollRt,PitchRt,YawRt,Thrust,ClimbRt
GPS, 51103268, 0, 3, 302173600, 2379, 15, 0.74, 15.3676565, 75.1248384, 630.93, 0.051, 0, 0.016, 0, 1
GPA, 51103268, 0, 1.12, 1.51, 2.14, 0.26, 0, 1, 51088, 200, 552.92, 0, 0
FMT, 249, 25, SURF, QBBfff, TimeUS,I,St,D,FD,TO
SURF, 51112675, 0, 2, 0, 0, 0.05411553
SURF, 51112723, 1, 2, 0, 0, 0.05411553
IMU, 51122772, 0, 0.0007558429, -0.001226926, 0.001178841, 0.01848931, -0.2318556, -9.802984, 0, 0, 44.80676, 1, 1, 2022, 2022
IMU, 51122772, 1, 0.001472149, -0.0001620391, 0.0008309014, 0.02619417, -0.2263272, -9.814953, 0, 0, 45, 1, 1, 1998, 2046
POWR, 51162728, 4.958762, 0, 1, 1, 6
MCU, 51162728, 44.79125, 3.347973, 3.337735, 3.356717
BAT, 51162741, 0, 14.59498, 14.62572, 5.114357, 64.59549, 0.949509, 0, 0.006010715, 98, 1, 0
MAG, 51162753, 0, 407, -168, 107, 102, 25, 42, 0, 0, 0, 1, 51162751
MAG, 51162753, 1, 394, -87, 134, 32, 17, -32, 0, 0, 0, 1, 51162750
SURF, 51162771, 0, 2, 0, 0, 0.05454157
SURF, 51162780, 1, 2, 0, 0, 0.05454157
BARO, 51162803, 0, -0.00982666, 634.6202, 93682.4, 46.7, 0.2508163, 51162, 0, 35, 1
CTUN, 51162816, 0, 0, 0, 0.4229944, 0, 0.06328221, 0, NaN, 0, 0.008040013, 0, 0
ATT, 51162900, -20.70475, 1.364743, 22.20727, 0.09478446, 19.66504, 19.66504, 3
ANG, 51162287, -20.70475, 1.364743, 22.20727, 0.09478446, 19.66504, 19.66504, 0.0025
RATE, 51162299, -101.2977, 0.002536865, -0.2386236, 95.36552, 0.04370442, 0.2245256, 17.46926, 0.03616127, 0.0548946, 0.06217957, -0.2140999, 0, 0
PIDR, 51162941, -1.767998, 4.427665E-05, -1.768042, -0.2386857, 0, 6.216843E-05, 0, 0, 1, 0.4429467, 9
PIDP, 51162945, 1.664542, 0.000762786, 1.66378, 0.2246103, 0, -8.46511E-05, 0, 0, 1, 0.3542233, 9
PIDY, 51162949, 0.3048847, 0.0006311332, 0.30497, 0.0548946, 0, 0, 0, 0, 1, 0.01069456, 9
PIDA, 51162953, 0.06217957, 0.06217957, 0, 0, -422.9946, 0, 0, 0, 1, 0, 13
XKF4, 51162417, 0, 0.01, 0.01, 0, 0.02, 0, 0.007025243, -1.438956, -4.412466, 0, 48, 109375, 0, 0
XKY0, 51162417, 0, 171.1482, 14.70362, 215.9695, 287.963, 359.9993, 72.02824, 144.0098, 0.2002176, 0.1998613, 0.1996968, 0.1999511, 0.2002731
XKY1, 51162417, 0, 0.0703937, 0.07635526, 0.07708109, 0.07156618, 0.06743419, 0.006327501, 0.007501462, 0.0135352, 0.01608914, 0.01163362
XKF1, 51162417, 0, 1.36, 0.09, 19.66, 0.01143547, -0.01717696, -0.002731812, -0.01923483, -1.486965, -4.708915, -0.06328221, 0.01, -0.07, 0.09, 634.63
XKF2, 51162417, 0, 0, 0.01, 0, 0, 0, 400, -5, 144, 0, 0, 0, 0, 0, 0
XKF3, 51162417, 0, 0.04, 0.02, -0.01, 0.03, 0.12, 0.03, 0, 0, 0, -2.3, 0, 0, 0.0002485717
XKF5, 51162417, 0, 0, 0, 0, 0, 0.13, 0.07, 0, 0, 0.5, 0.0008082523, 0.01119149, 0.01242702
XKFS, 51162417, 0, 0, 0, 0, 0, 0, 1, 0, 1
XKQ, 51162417, 0, 0.9852426, 0.01159317, 0.002848687, 0.1707469
XKF4, 51162417, 1, 0.01, 0.01, 0, 0.02, 0, 0.007019323, -1.430486, -4.411744, 0, 48, 109375, 0, 0
XKY0, 51162417, 1, 107.8051, 15.02985, 215.9816, 287.9906, 359.9995, 71.996, 143.985, 0.1999742, 0.1999173, 0.1999747, 0.2000671, 0.2000667
XKY1, 51162417, 1, 0.07407713, 0.074684, 0.07237367, 0.07033886, 0.07139181, 0.009287104, 0.01191343, 0.01330228, 0.01153408, 0.009052559
XKF1, 51162417, 1, 1.26, 0.13, 19.63, 0.008951302, -0.02039591, -0.001859349, -0.01718444, -1.492144, -4.714228, -0.06451742, 0.02, 0.01, 0.09, 634.63
XKF2, 51162417, 1, 0, 0.01, 0, 0, 0, 400, -5, 144, 0, 0, 0, 0, 0, 0
XKF3, 51162417, 1, 0.03, 0.02, -0.01, 0.03, 0.12, 0.03, 0, 0, 0, -2.3, 0, 0.008918714, 0.0002175722
XKFS, 51162417, 1, 0, 0, 0, 0, 0, 1, 0, 1
XKQ, 51162417, 1, 0.9852921, 0.01072034, 0.003012934, 0.1705155
AHR2, 51163078, 1.39, -0.05, 19.93, 634.78, 15.3676565, 75.1248384, 0.9848248, 0.01205307, 0.001622339, 0.1731247
POS, 51163104, 15.3676569, 75.1248397, 634.69, 0.01328222, 0.06328221
MOTB, 51163109, 1, 1, 1, 0.04229945, 0, 2
RCIN, 51163116, 1102, 1927, 1102, 1927, 1401, 2000, 2000, 1000, 2000, 875, 875, 875, 875, 875
RCI2, 51163120, 875, 875, 0, 1
RCOU, 51163126, 1000, 1000, 1000, 1000, 0, 0, 0, 0, 0, 0, 0, 0, 0, 0
RCO2, 51163130, 0, 0, 0, 0
VIBE, 51163135, 0, 0.007813743, 0.006994761, 0.00876991, 0
VIBE, 51163135, 1, 0.06434714, 0.06115341, 0.07355153, 0
FMT, 246, 31, CTRL, Qfffff, TimeUS,RMSRollP,RMSRollD,RMSPitchP,RMSPitchD,RMSYaw
CTRL, 51163143, 0.2387973, 0.000284367, 0.224717, 0.000269618, 0.05484982
IMU, 51163172, 0, 0.000391998, -0.0004811375, 0.002274892, 0.02382304, -0.2310236, -9.806207, 0, 0, 44.80676, 1, 1, 2022, 2022
IMU, 51163172, 1, -0.0009301741, -0.0007733332, 0.001902385, 0.0196897, -0.2249489, -9.806198, 0, 0, 45, 1, 1, 1998, 2046
FMT, 252, 43, DCM, Qffffffff, TimeUS,Roll,Pitch,Yaw,ErrRP,ErrYaw,VWN,VWE,VWD
DCM, 51164937, 1.392839, -0.05558119, 19.9403, 0.02192127, 0.03096502, 0, 0, 0
FMT, 251, 51, EAHR, QffffffLLfI, TimeUS,Roll,Pitch,Yaw,VN,VE,VD,Lat,Lon,Alt,Flg
EAHR, 51164985, 0, 0, 0, 0, 0, 0, 0, 0, 0, 0
MSG, 51175803, ArduCopter V4.6.2 (1ebd4d99)
MSG, 51175833, ChibiOS: 88b84600
VER, 51175839, 10, 5009, 4, 6, 2, 255, 515722649, ArduCopter V4.6.2 (1ebd4d99), 56, 2, 2
MSG, 51175859, Pixhawk6C 003D0048 3133510F 31343630
MSG, 51175868, Param space used: 914/5376
MSG, 51175875, RC Protocol: SBUS
MSG, 51175885, RCOut: PWM:1-16
MSG, 51175890, New mission
CMD, 51177951, 4, 0, 16, 0, 0, 0, 0, 15.3676567, 75.1248401, 634.68, 0
CMD, 51177963, 4, 1, 22, 1, 0, 0, 0, 0, 0, 10, 3
CMD, 51177970, 4, 2, 16, 10, 0, 0, 0, 15.367361, 75.1254623, 10, 3
CMD, 51177977, 4, 3, 20, 0, 0, 0, 0, 0, 0, 0, 0
MSG, 51177983, New rally
MSG, 51177988, New fence
FNCE, 51177995, 14, 0, 98, 15.3679153, 75.1255443, 14, 0
FNCE, 51178000, 14, 1, 98, 15.3678714, 75.1258394, 14, 0
FNCE, 51178005, 14, 2, 98, 15.3676541, 75.1260915, 14, 0
FNCE, 51178011, 14, 3, 98, 15.3674795, 75.1260915, 14, 0
FNCE, 51178016, 14, 4, 98, 15.3673825, 75.1260754, 14, 0
FNCE, 51178021, 14, 5, 98, 15.3673075, 75.12607, 14, 0
FNCE, 51178027, 14, 6, 98, 15.3670748, 75.1260566, 14, 0
FNCE, 51178032, 14, 7, 98, 15.3668963, 75.1258796, 14, 0
FNCE, 51178037, 14, 8, 98, 15.366811, 75.1255792, 14, 0
FNCE, 51178043, 14, 9, 98, 15.3668653, 75.1252922, 14, 0
FNCE, 51178048, 14, 10, 98, 15.3670334, 75.1250857, 14, 0
FNCE, 51178078, 14, 11, 98, 15.3673696, 75.1251125, 14, 0
FNCE, 51178084, 14, 12, 98, 15.3675817, 75.1251393, 14, 0
FNCE, 51178089, 14, 13, 98, 15.3678481, 75.1253163, 14, 0
MSG, 51178098, Frame: QUAD/X
MODE, 51178103, Stabilize, 0, 1
ORGN, 51178123, 0, 15.3676702, 75.1248835, 634.63
ORGN, 51178127, 1, 15.3676567, 75.1248401, 634.68
MSG, 51178142, GPS 1: probing for u-blox at 230400 baud
MSG, 51178152, u-blox 1 HW: 00190000 SW: EXT CORE 4.04 (7f89f7)
MAV, 51182672, 1, 1635, 477, 0, 6, 0, 0
IMU, 51203172, 0, 0.0004964024, -0.001122683, 0.001911516, 0.01667767, -0.2332312, -9.807334, 0, 0, 44.80676, 1, 1, 2022, 2022
IMU, 51203172, 1, 7.00751E-05, -0.001207356, 0.00157221, 0.01399469, -0.2056754, -9.814801, 0, 0, 45, 1, 1, 1998, 2046
SURF, 51212659, 0, 2, 0, 0, 0.05496838
SURF, 51212669, 1, 2, 0, 0, 0.05496838
STAK, 51232794, 18, 176, 1456, 984, I2C1
FILE, @SYS/uarts.txt, 0, 64, UARTV1\nSERIAL0 OTG1  TX =       0 RX =       0 TXBD=     0 RXBD=
IMU, 51242990, 0, 0.0003697763, -0.001146927, 0.001455573, 0.02176685, -0.2307728, -9.804984, 0, 0, 44.80676, 1, 1, 2022, 2022
IMU, 51242990, 1, 1.267125E-05, 0.0005569268, 0.001510538, 0.02725716, -0.2133464, -9.807349, 0, 0, 45, 1, 1, 1998, 2046
FILE, @SYS/uarts.txt, 64, 64,      0 FE=0 OE=0 NE=0 FlowCtrl=0\nSERIAL1 UART7 TX*=   52608 RX*=
RAD, 51247752, 65, 0, 100, 97, 0, 0, 0
FILE, @SYS/uarts.txt, 128, 64,    10306 TXBD= 10422 RXBD=  2041 FE=0 OE=0 NE=0 FlowCtrl=0\nSERIA
POWR, 51262694, 4.962488, 0, 1, 1, 6
MCU, 51262694, 44.83101, 3.348676, 3.340534, 3.353326
BAT, 51262707, 0, 14.59974, 14.63051, 5.120033, 64.73768, 0.9515848, 0, 0.006010715, 98, 1, 0
MAG, 51262719, 0, 414, -167, 101, 102, 25, 42, 0, 0, 0, 1, 51262717
MAG, 51262719, 1, 393, -88, 132, 32, 17, -32, 0, 0, 0, 1, 51262716
SURF, 51262737, 0, 2, 0, 0, 0.05539167
SURF, 51262746, 1, 2, 0, 0, 0.05539167
BARO, 51262767, 0, 0.1459961, 634.776, 93680.65, 46.7, -0.0192833, 51262, 0, 35, 1
CTUN, 51262786, 0, 0, 0, 0.4229944, 0, 0.06385083, 0.14, NaN, 0, 0.007612767, 0, 0
ATT, 51262845, -20.70475, 1.364087, 22.20727, 0.1010563, 19.68742, 19.68743, 3
ANG, 51262287, -20.70475, 1.364087, 22.20727, 0.1010563, 19.68742, 19.68743, 0.002496
RATE, 51262302, -101.2939, 0.02254974, -0.2388224, 95.33837, 0.01875058, 0.2246523, 17.46521, -0.008780922, 0.05488551, 0.06217957, -0.3611565, 0, 0
PIDR, 51262862, -1.767894, 0.0003935672, -1.768288, -0.2387189, 0, -0.0001035668, 0, 0, 1, 0.4007445, 9
PIDP, 51262866, 1.663994, 0.0003272594, 1.663667, 0.224595, 0, 5.732329E-05, 0, 0, 1, 0.3204744, 9
PIDY, 51262885, 0.3048567, -0.000153256, 0.3049195, 0.05488551, 0, 0, 0, 0, 1, 0.01016214, 9
PIDA, 51262900, 0.06217957, 0.06217957, 0, 0, -422.9946, 0, 0, 0, 1, 0, 13
XKF4, 51262456, 0, 0.01, 0.01, 0, 0.02, 0, 0.007100626, -1.438956, -4.412466, 0, 48, 109375, 0, 0
XKY0, 51262456, 0, 171.147, 14.70365, 215.9683, 287.9618, 359.9981, 72.02702, 144.0086, 0.2002176, 0.1998613, 0.1996968, 0.1999511, 0.2002731
XKY1, 51262456, 0, 0.0703937, 0.07635526, 0.07708109, 0.07156618, 0.06743419, 0.006327501, 0.007501462, 0.0135352, 0.01608914, 0.01163362
XKF1, 51262456, 0, 1.36, 0.1, 19.68, 0.009472066, -0.0220089, -0.002732831, -0.007132673, -1.487519, -4.718043, -0.06385083, 0.01, -0.07, 0.09, 634.63
XKF2, 51262456, 0, 0, 0.01, 0, 0, 0, 400, -5, 144, 0, 0, 0, 0, 0, 0
XKF3, 51262456, 0, 0.04, 0.02, -0.01, 0.03, 0.12, -0.07, 0, 0, 0, -2.3, 0, 0, 0.0002485717
XKF5, 51262456, 0, 0, 0, 0, 0, 0.13, 0.07, 0, 0, 0.5, 0.0007645215, 0.007283036, 0.006316957
XKFS, 51262456, 0, 0, 0, 0, 0, 0, 1, 0, 1
XKQ, 51262456, 0, 0.9852093, 0.01157761, 0.002903896, 0.1709387
XKF4, 51262456, 1, 0.01, 0.01, 0, 0.02, 0, 0.007094934, -1.430486, -4.411744, 0, 48, 109375, 0, 0
XKY0, 51262456, 1, 107.8048, 15.02987, 215.9815, 287.9904, 359.9993, 71.99583, 143.9848, 0.1999742, 0.1999173, 0.1999747, 0.2000671, 0.2000667
XKY1, 51262456, 1, 0.07407713, 0.074684, 0.07237367, 0.07033886, 0.07139181, 0.009287104, 0.01191343, 0.01330228, 0.01153408, 0.009052559
XKF1, 51262456, 1, 1.26, 0.13, 19.65, 0.007500156, -0.02463083, -0.002878947, -0.006968007, -1.492352, -4.722922, -0.06505929, 0.02, 0.01, 0.09, 634.63
XKF2, 51262456, 1, 0, 0.01, 0, 0, 0, 400, -5, 144, 0, 0, 0, 0, 0, 0
XKF3, 51262456, 1, 0.03, 0.02, -0.01, 0.03, 0.12, -0.07, 0, 0, 0, -2.3, 0, 0.008918714, 0.0002175722
XKFS, 51262456, 1, 0, 0, 0, 0, 0, 1, 0, 1
XKQ, 51262456, 1, 0.9852622, 0.01068981, 0.00305702, 0.1706895
AHR2, 51263029, 1.39, -0.03, 19.96, 634.67, 15.3676565, 75.1248383, 0.9847919, 0.0120897, 0.001786499, 0.173308
POS, 51263035, 15.3676569, 75.1248396, 634.69, 0.01385084, 0.06385083
MOTB, 51263040, 1, 1, 1, 0.04229945, 0, 2
RCIN, 51263046, 1102, 1927, 1102, 1927, 1401, 2000, 2000, 1000, 2000, 875, 875, 875, 875, 875
RCI2, 51263050, 875, 875, 0, 1
RCOU, 51263056, 1000, 1000, 1000, 1000, 0, 0, 0, 0, 0, 0, 0, 0, 0, 0
RCO2, 51263059, 0, 0, 0, 0
VIBE, 51263064, 0, 0.008439348, 0.006997802, 0.009160369, 0
VIBE, 51263064, 1, 0.06521544, 0.06046487, 0.07426769, 0
CTRL, 51263072, 0.238759, 0.0002337461, 0.2246922, 0.0002363886, 0.05485747
DCM, 51264901, 1.399908, -0.03821205, 19.96169, 0.02192127, 0.03020751, 0, 0, 0
EAHR, 51264925, 0, 0, 0, 0, 0, 0, 0, 0, 0, 0
FILE, @SYS/uarts.txt, 192, 64, L2 UART5 TX*=    1656 RX*=       0 TXBD=   328 RXBD=     0 FE=0 
IMU, 51282769, 0, 0.0005675029, -0.001901796, 0.001584483, 0.01973033, -0.2325848, -9.806664, 0, 0, 44.80676, 1, 1, 2022, 2022
IMU, 51282769, 1, 0.001280267, -0.001335728, 0.002033146, 0.02622174, -0.2042056, -9.808328, 0, 0, 45, 1, 1, 1998, 2046
FILE, @SYS/uarts.txt, 256, 64, OE=0 NE=0 FlowCtrl=0\nSERIAL3 UART1 TX*=    1626 RX*=   30826 TXB
FILE, @SYS/uarts.txt, 320, 64, D=   322 RXBD=  6107 FE=147 OE=0 NE=168 FlowCtrl=0\nSERIAL4 UART8
FMT, 254, 35, IOMC, QHHIIIII, TimeUS,RSErr,Mem,TS,NPkt,Nerr,Nerr2,NDel
IOMC, 51300472, 0, 12896, 51299, 22642, 0, 0, 0
GPS, 51303239, 0, 3, 302173800, 2379, 15, 0.74, 15.3676564, 75.1248383, 630.92, 0.013, 0, 0.064, 0, 1
GPA, 51303239, 0, 1.12, 1.5, 2.14, 0.39, 0, 1, 51288, 200, 552.91, 0, 0
FILE, @SYS/uarts.txt, 384, 64,  TX*=       0 RX*=       0 TXBD=     0 RXBD=     0 FE=0 OE=0 NE=
SURF, 51312696, 0, 2, 0, 0, 0.05580473
SURF, 51312706, 1, 2, 0, 0, 0.05580473
FILE, @SYS/uarts.txt, 448, 64, 0 FlowCtrl=0\nSERIAL5 UART2 TX =       0 RX =       0 TXBD=     0
IMU, 51322758, 0, 0.0003415663, -0.001876954, 0.001570118, 0.01535548, -0.2330157, -9.805686, 0, 0, 44.80676, 1, 1, 2022, 2022
IMU, 51322758, 1, 0.0001021123, 0.002088524, 0.0006543751, 0.01459161, -0.228699, -9.805168, 0, 0, 45, 1, 1, 1998, 2046
STAK, 51323809, 19, 176, 1456, 984, I2C0
FILE, @SYS/uarts.txt, 512, 64,  RXBD=     0 FE=0 OE=0 NE=0 FlowCtrl=0\nSERIAL6 UART3 TX =       
FILE, @SYS/uarts.txt, 576, 64, 0 RX =       0 TXBD=     0 RXBD=     0 FE=0 OE=0 NE=0 FlowCtrl=0
FILE, @SYS/uarts.txt, 640, 64, \nSERIAL7 OTG2  TX =       0 RX =       0 TXBD=     0 RXBD=     0
POWR, 51362660, 4.966012, 0, 1, 1, 6
MCU, 51362660, 44.79125, 3.348676, 3.341935, 3.355727
BAT, 51362676, 0, 14.61832, 14.64912, 5.123328, 64.87996, 0.9536647, 0, 0.006010715, 98, 1, 0
MAG, 51362688, 0, 414, -168, 108, 102, 25, 42, 0, 0, 0, 1, 51362687
MAG, 51362688, 1, 394, -87, 132, 32, 17, -32, 0, 0, 0, 1, 51362685
SURF, 51362734, 0, 2, 0, 0, 0.05620867
SURF, 51362742, 1, 2, 0, 0, 0.05620867
BARO, 51362786, 0, 0.06365967, 634.6937, 93681.59, 46.7, -0.1369095, 51362, 0, 35, 1
CTUN, 51362799, 0, 0, 0, 0.4229944, 0, 0.06294941, 0.06, NaN, 0, 0.007307591, 0, 0
ATT, 51362859, -20.70474, 1.364204, 22.20727, 0.1021238, 19.70812, 19.70812, 3
ANG, 51362287, -20.70474, 1.364204, 22.20727, 0.1021238, 19.70812, 19.70812, 0.002499
RATE, 51362299, -101.2942, 0.0006684647, -0.2386141, 95.33381, -0.009222176, 0.2247219, 17.46621, 0.01090702, 0.05486775, 0.06217957, -0.006961823, 0, 0
PIDR, 51362900, -1.767916, 1.166691E-05, -1.767928, -0.2386702, 0, 5.611905E-05, 0, 0, 1, 0.3625633, 9
PIDP, 51362923, 1.663889, -0.0001609573, 1.66405, 0.2246468, 0, 7.511719E-05, 0, 0, 1, 0.289941, 9
PIDY, 51362938, 0.3048512, 0.0001903635, 0.3048208, 0.05486775, 0, 0, 0, 0, 1, 0.009274666, 9
PIDA, 51362952, 0.06217957, 0.06217957, 0, 0, -422.9946, 0, 0, 0, 1, 0, 13
XKF4, 51362457, 0, 0.02, 0.01, 0, 0.02, 0, 0.007086374, -1.438956, -4.412466, 0, 48, 109375, 0, 0
XKY0, 51362457, 0, 139.7341, 14.26942, 215.9529, 287.9711, 0.01905569, 72.03046, 143.9896, 0.2000858, 0.1996926, 0.1997242, 0.2001369, 0.2003606
XKY1, 51362457, 0, 0.01655744, 0.02360259, 0.02431451, 0.01770505, 0.01291564, -0.05272017, -0.05118119, -0.0440014, -0.04110967, -0.04649942
XKF1, 51362457, 0, 1.36, 0.1, 19.7, 0.007893367, -0.02443058, -0.00215605, 0.00844036, -1.488357, -4.725815, -0.06294941, 0.01, -0.07, 0.09, 634.63
XKF2, 51362457, 0, 0, 0, 0, 0, 0, 400, -5, 144, 0, 0, 0, 0, 0, 0
XKF3, 51362457, 0, 0, -0.03, -0.06, 0.04, 0.13, 0.08, 0, 0, 0, -1.79, 0, 0, 0.0004231687
XKF5, 51362457, 0, 0, 0, 0, 0, 0.13, 0.07, 0, 0, 0.5, 0.0006566598, 0.004998554, 0.008546803
XKFS, 51362457, 0, 0, 0, 0, 0, 0, 1, 0, 1
XKQ, 51362457, 0, 0.9851785, 0.0115765, 0.002915338, 0.1711165
XKF4, 51362457, 1, 0.02, 0.01, 0, 0.02, 0, 0.007079243, -1.430486, -4.411744, 0, 48, 109375, 0, 0
XKY0, 51362457, 1, 58.7322, 14.37211, 215.9821, 287.9969, 359.9982, 71.98415, 143.9742, 0.1998943, 0.1999252, 0.2000595, 0.2001116, 0.2000095
XKY1, 51362457, 1, 0.02104197, 0.02154978, 0.01858002, 0.01623776, 0.01775905, -0.04909338, -0.04580603, -0.04430769, -0.04666885, -0.04962603
XKF1, 51362457, 1, 1.26, 0.13, 19.67, 0.006668924, -0.02634855, -0.00215848, 0.01097815, -1.492949, -4.730327, -0.06385361, 0.02, 0.01, 0.09, 634.63
XKF2, 51362457, 1, 0, 0, 0, 0, 0, 400, -5, 144, 0, 0, 0, 0, 0, 0
XKF3, 51362457, 1, 0, -0.04, -0.06, 0.04, 0.13, 0.09, 0, 0, 0, -1.79, 0, 0.009641554, 0.0004241877
XKFS, 51362457, 1, 0, 0, 0, 0, 0, 1, 0, 1
XKQ, 51362457, 1, 0.985231, 0.01068636, 0.003086995, 0.1708688
AHR2, 51363043, 1.41, -0.04, 19.97, 634.82, 15.3676564, 75.1248383, 0.9847651, 0.01224073, 0.001726164, 0.1734502
POS, 51363049, 15.3676569, 75.1248395, 634.69, 0.01294941, 0.06294941
MOTB, 51363054, 1, 1, 1, 0.04229945, 0, 2
RCIN, 51363060, 1102, 1927, 1102, 1927, 1401, 2000, 2000, 1000, 2000, 875, 875, 875, 875, 875
RCI2, 51363063, 875, 875, 0, 1
RCOU, 51363070, 1000, 1000, 1000, 1000, 0, 0, 0, 0, 0, 0, 0, 0, 0, 0
RCO2, 51363073, 0, 0, 0, 0
VIBE, 51363078, 0, 0.008183237, 0.006811822, 0.009370884, 0
VIBE, 51363078, 1, 0.06761694, 0.06633779, 0.07134283, 0
CTRL, 51363086, 0.2387331, 0.000192853, 0.224685, 0.0002026162, 0.05486568
IMU, 51363096, 0, 0.000357108, -0.001405294, 0.001810051, 0.01688607, -0.2294207, -9.808764, 0, 0, 44.80676, 1, 1, 2022, 2022
IMU, 51363096, 1, -1.838089E-05, -0.00206471, 0.002301316, 0.02803548, -0.2263831, -9.811081, 0, 0, 45, 1, 1, 1998, 2046
DCM, 51364906, 1.41611, -0.04872768, 19.97789, 0.02325477, 0.03014597, 0, 0, 0
EAHR, 51364942, 0, 0, 0, 0, 0, 0, 0, 0, 0, 0
FILE, @SYS/uarts.txt, 704, 64,  FE=0 OE=0 NE=0 FlowCtrl=0\nIOMCU   UART6 TX*=  374036 RX*=  2400
FILE, @SYS/uarts.txt, 768, 53, 10 TXBD= 74106 RXBD= 47552 FE=0 OE=0 NE=0 FlowCtrl=0\n
FILE, @SYS/memory.txt, 0, 64, MemInfoV1\nSTART=0x24000000 LEN=512k FREE=  2896 LRG=  1160 TYPE=
IMU, 51403175, 0, 0.0001222509, -0.0009850017, 0.001733169, 0.02568844, -0.2335956, -9.805039, 0, 0, 44.80676, 1, 1, 2022, 2022
IMU, 51403175, 1, 0.001120725, 0.001668148, 0.001635484, 0.02492363, -0.2247978, -9.81517, 0, 0, 45, 1, 1, 1998, 2046
SURF, 51412661, 0, 2, 0, 0, 0.05653781
SURF, 51412671, 1, 2, 0, 0, 0.05653781
FILE, @SYS/memory.txt, 64, 64, 4\nSTART=0x30000000 LEN=256k FREE=262136 LRG=262136 TYPE=8\nSTART=
FILE, @SYS/memory.txt, 128, 64, 0x20000000 LEN=128k FREE=112544 LRG=112544 TYPE=2\nSTART=0x000004
STAK, 51425266, 20, 181, 1456, 840, SPI1
FILE, @SYS/memory.txt, 192, 64, 00 LEN= 63k FREE= 64504 LRG= 64504 TYPE=2\nSTART=0x30040000 LEN= 
IMU, 51442976, 0, 0.000256528, -0.001327561, 0.002140942, 0.01762921, -0.2375692, -9.802169, 0, 0, 44.80676, 1, 1, 2022, 2022
IMU, 51442976, 1, 0.0008098078, 6.836612E-05, 0.001381082, 0.02166379, -0.2091757, -9.806437, 0, 0, 45, 1, 1, 1998, 2046
FILE, @SYS/memory.txt, 256, 64, 32k FREE= 32760 LRG= 32760 TYPE=8\nSTART=0x38000000 LEN= 64k FREE
POWR, 51462715, 4.962689, 0, 1, 1, 6
MCU, 51462715, 44.79125, 3.348817, 3.341795, 3.354597
BAT, 51462728, 0, 14.61054, 14.64132, 5.120765, 65.02229, 0.9557442, 0, 0.006010715, 98, 1, 0
MAG, 51462739, 0, 409, -167, 96, 102, 25, 42, 0, 0, 0, 1, 51462738
MAG, 51462739, 1, 393, -88, 134, 32, 17, -32, 0, 0, 0, 1, 51462737
SURF, 51462760, 0, 2, 0, 0, 0.05680273
SURF, 51462769, 1, 2, 0, 0, 0.05680273
BARO, 51462788, 0, 0.03131104, 634.6613, 93681.93, 46.7, -0.006504062, 51462, 0, 35, 1
CTUN, 51462804, 0, 0, 0, 0.4229944, 0, 0.06109894, 0.03, NaN, 0, 0.007307591, 0, 0
ATT, 51462861, -20.70475, 1.363649, 22.20727, 0.1014627, 19.72778, 19.72778, 3
ANG, 51462290, -20.70475, 1.363649, 22.20727, 0.1014627, 19.72778, 19.72778, 0.002494
RATE, 51462308, -101.2919, -0.006577017, -0.2386183, 95.33646, -0.03882582, 0.2247771, 17.46567, 0.01168399, 0.05483885, 0.06217957, -0.5101204, 0, 0
PIDR, 51462904, -1.767878, -0.0001147906, -1.767763, -0.2386481, 0, 2.9761E-05, 0, 0, 1, 0.3280188, 9
PIDP, 51462907, 1.663895, -0.0006776385, 1.664573, 0.2247173, 0, 5.974841E-05, 0, 0, 1, 0.2623159, 9
PIDY, 51462911, 0.3048761, 0.0002039241, 0.3046603, 0.05483885, 0, 0, 0, 0, 1, 0.008471726, 9
PIDA, 51462915, 0.06217957, 0.06217957, 0, 0, -422.9946, 0, 0, 0, 1, 0, 13
XKF4, 51462427, 0, 0.02, 0.01, 0, 0.02, 0, 0.00716213, -1.438956, -4.412466, 0, 48, 109375, 0, 0
XKY0, 51462427, 0, 139.7337, 14.26944, 215.9526, 287.9708, 0.01870212, 72.03011, 143.9892, 0.2000858, 0.1996926, 0.1997242, 0.2001369, 0.2003606
XKY1, 51462427, 0, 0.01655744, 0.02360259, 0.02431451, 0.01770505, 0.01291564, -0.05272017, -0.05118119, -0.0440014, -0.04110967, -0.04649942
XKF1, 51462427, 0, 1.36, 0.1, 19.72, 0.007045474, -0.02524289, -0.0009221982, 0.02462183, -1.48928, -4.732147, -0.06109895, 0.01, -0.07, 0.09, 634.63
XKF2, 51462427, 0, 0, 0, 0, 0, 0, 400, -5, 144, 0, 0, 0, 0, 0, 0
XKF3, 51462427, 0, 0, -0.03, -0.06, 0.04, 0.13, 0, 0, 0, 0, -1.94, 0, 0, 0.0004231687
XKF5, 51462427, 0, 0, 0, 0, 0, 0.13, 0.07, 0, 0, 0.5, 0.0006149171, 0.003933383, 0.006349833
XKFS, 51462427, 0, 0, 0, 0, 0, 0, 1, 0, 1
XKQ, 51462427, 0, 0.9851491, 0.01157222, 0.002910811, 0.1712856
XKF4, 51462427, 1, 0.02, 0.01, 0, 0.02, 0, 0.007154548, -1.430486, -4.411744, 0, 48, 109375, 0, 0
XKY0, 51462427, 1, 58.73109, 14.37214, 215.9811, 287.9959, 359.9972, 71.98312, 143.9732, 0.1998943, 0.1999252, 0.2000595, 0.2001116, 0.2000095
XKY1, 51462427, 1, 0.02104197, 0.02154978, 0.01858002, 0.01623776, 0.01775905, -0.04909338, -0.04580603, -0.04430769, -0.04666885, -0.04962603
XKF1, 51462427, 1, 1.27, 0.14, 19.69, 0.006760481, -0.02700078, -0.001519422, 0.02400781, -1.493515, -4.736314, -0.06216104, 0.02, 0.01, 0.09, 634.63
XKF2, 51462427, 1, 0, 0, 0, 0, 0, 400, -5, 144, 0, 0, 0, 0, 0, 0
XKF3, 51462427, 1, 0, -0.04, -0.06, 0.04, 0.13, 0, 0, 0, 0, -1.94, 0, 0.009682309, 0.0004241877
XKFS, 51462427, 1, 0, 0, 0, 0, 0, 1, 0, 1
XKQ, 51462427, 1, 0.9852015, 0.01071459, 0.003120849, 0.1710364
AHR2, 51463022, 1.43, -0.07, 19.99, 634.74, 15.3676564, 75.1248383, 0.9847339, 0.01245975, 0.001520456, 0.1736134
POS, 51463028, 15.3676569, 75.1248395, 634.69, 0.01109895, 0.06109895
MOTB, 51463033, 1, 1, 1, 0.04229945, 0, 2
RCIN, 51463039, 1102, 1927, 1102, 1927, 1400, 2000, 2000, 1000, 2000, 875, 875, 875, 875, 875
RCI2, 51463072, 875, 875, 0, 1
RCOU, 51463107, 1000, 1000, 1000, 1000, 0, 0, 0, 0, 0, 0, 0, 0, 0, 0
RCO2, 51463121, 0, 0, 0, 0
VIBE, 51463126, 0, 0.008549944, 0.006999763, 0.008732188, 0
VIBE, 51463126, 1, 0.06739988, 0.06296905, 0.07262508, 0
CTRL, 51463134, 0.2386982, 0.0001645075, 0.2246701, 0.0001697323, 0.0548652
FILE, @SYS/memory.txt, 320, 26, = 56808 LRG= 56152 TYPE=1\n
DCM, 51464935, 1.436987, -0.0771233, 19.99702, 0.02325477, 0.03040173, 0, 0, 0
EAHR, 51464968, 0, 0, 0, 0, 0, 0, 0, 0, 0, 0
IMU, 51482753, 0, -7.385809E-05, -0.000789298, 0.002268837, 0.01757668, -0.2309259, -9.806826, 0, 0, 44.80676, 1, 1, 2022, 2022
IMU, 51482753, 1, 0.0008738649, 0.0001752433, 0.004203679, 0.02484582, -0.220212, -9.802256, 0, 0, 45, 1, 1, 1998, 2046
FILE, @SYS/threads.txt, 0, 64, ThreadsV2\nISR           PRI=255 sp=0x24000000 STACK=1312/1536\nAr
FILE, @SYS/threads.txt, 64, 64, duCopter    PRI=182 sp=0x24000600 STACK=4176/7168\nidle          
GPS, 51503232, 0, 3, 302174000, 2379, 15, 0.74, 15.3676563, 75.1248381, 630.92, 0.062, 0, 0.05, 0, 1
GPA, 51503232, 0, 1.12, 1.5, 2.14, 0.33, 0, 1, 51488, 200, 552.91, 0, 0
FILE, @SYS/threads.txt, 128, 64, PRI=  1 sp=0x240214B0 STACK=288/496\nUART_RX       PRI= 60 sp=0x2
SURF, 51512643, 0, 2, 0, 0, 0.05701251
SURF, 51512655, 1, 2, 0, 0, 0.05701251
FILE, @SYS/threads.txt, 192, 64, 407B0E8 STACK=880/1200\nOTG1          PRI= 60 sp=0x2407A1A0 STACK
IMU, 51522758, 0, 0.00019183, -0.0008871875, 0.001571915, 0.01651489, -0.2353674, -9.806866, 0, 0, 44.80676, 1, 1, 2022, 2022
IMU, 51522758, 1, 0.0005917654, 0.0009240257, 0.001868534, 0.01074801, -0.2281468, -9.811369, 0, 0, 45, 1, 1, 1998, 2046
STAK, 51525267, 255, 255, 1536, 1312, ISR
FILE, @SYS/threads.txt, 256, 64, =480/752\nmonitor       PRI=183 sp=0x2401CE20 STACK=1096/1456\ntim
FILE, @SYS/threads.txt, 320, 64, er         PRI=181 sp=0x2401E3E0 STACK=1544/1968\nrcout         P
FILE, @SYS/threads.txt, 384, 64, RI=181 sp=0x2401DA00 STACK=656/944\nrcin          PRI=177 sp=0x24
POWR, 51562716, 4.96712, 0, 1, 1, 6
MCU, 51562716, 44.81113, 3.348535, 3.342355, 3.355162
BAT, 51562731, 0, 14.61548, 14.64625, 5.119483, 65.16451, 0.9578229, 0, 0.006010715, 98, 1, 0
MAG, 51562743, 0, 410, -169, 83, 102, 25, 42, 0, 0, 0, 1, 51562742
MAG, 51562743, 1, 394, -88, 132, 32, 17, -32, 0, 0, 0, 1, 51562740
SURF, 51562766, 0, 2, 0, 0, 0.05717413
SURF, 51562777, 1, 2, 0, 0, 0.05717413
BARO, 51562801, 0, 0.2136841, 634.8437, 93679.87, 46.7, 0.06332398, 51562, 0, 35, 1
CTUN, 51562814, 0, 0, 0, 0.4229944, 0, 0.05851983, 0.21, NaN, 0, -0.00305862, 0, 0
ATT, 51562897, -20.70474, 1.362965, 22.20727, 0.1035581, 19.74804, 19.74804, 3
ANG, 51562287, -20.70474, 1.362965, 22.20727, 0.1035581, 19.74804, 19.74804, 0.002499
RATE, 51562302, -101.2886, -0.002321362, -0.2385572, 95.32733, 0.01874929, 0.2246369, 17.46789, 0.03218753, 0.05482575, 0.06217957, -0.2231598, 0, 0
PIDR, 51562938, -1.767843, -4.051541E-05, -1.767802, -0.2386533, 0, 9.611736E-05, 0, 0, 1, 0.2967675, 9
PIDP, 51562942, 1.663804, 0.0003272369, 1.663477, 0.2245694, 0, 6.756569E-05, 0, 0, 1, 0.2373242, 9
PIDY, 51562945, 0.3048736, 0.0005617784, 0.3045875, 0.05482575, 0, 0, 0, 0, 1, 0.007670374, 9
PIDA, 51562949, 0.06217957, 0.06217957, 0, 0, -422.9946, 0, 0, 0, 1, 0, 13
XKF4, 51562458, 0, 0.02, 0.01, 0, 0.02, 0, 0.007169319, -1.438956, -4.412466, 0, 48, 109375, 0, 0
XKY0, 51562458, 0, 161.642, 14.44376, 215.9465, 287.9469, 0.009879254, 72.0484, 144.0092, 0.2002897, 0.1997053, 0.1995283, 0.2000028, 0.2004739
XKY1, 51562458, 0, 0.02665132, 0.03466133, 0.03536244, 0.02778563, 0.02240811, 0.03195881, 0.03381952, 0.04201581, 0.04521008, 0.03899647
XKF1, 51562458, 0, 1.36, 0.1, 19.74, 0.005483093, -0.0277839, 0.0002308649, 0.03081087, -1.490768, -4.739589, -0.05851983, 0.01, -0.07, 0.09, 634.63
XKF2, 51562458, 0, 0, 0.01, 0, 0, 0, 400, -5, 144, 0, 0, 0, 0, 0, 0
XKF3, 51562458, 0, 0.01, 0.03, -0.04, 0.05, 0.13, -0.02, 0, 0, 0, -2.02, 0, 0, 0.0003367483
XKF5, 51562458, 0, 0, 0, 0, 0, 0.12, 0.07, 0, 0, 0.5, 0.0006276021, 0.007938494, 0.01250395
XKFS, 51562458, 0, 0, 0, 0, 0, 0, 1, 0, 1
XKQ, 51562458, 0, 0.9851189, 0.01156268, 0.002929847, 0.1714596
XKV1, 51562458, 0, 1.633745E-05, 6.347042E-06, 6.420022E-06, 0.0005801062, 0.02960207, 0.02959647, 0.01185143, 0.1120487, 0.112048, 0.1544313, 4.090293E-11, 4.124888E-11
XKV2, 51562458, 0, 6.619565E-10, 4.296157E-06, 4.296242E-06, 5.713195E-08, 0, 0, 0, 0, 0, 0, 0, 0
XKF4, 51562458, 1, 0.02, 0.01, 0, 0.02, 0, 0.007160295, -1.430486, -4.411744, 0, 48, 109375, 0, 0
XKY0, 51562458, 1, 93.3902, 14.54142, 215.9692, 287.9888, 0.002073344, 71.99076, 143.9705, 0.199915, 0.1998473, 0.1999906, 0.2001469, 0.2001002
XKY1, 51562458, 1, 0.03130692, 0.03219988, 0.02920518, 0.02646228, 0.02776038, 0.03606422, 0.0395034, 0.04141469, 0.0391579, 0.03585142
XKF1, 51562458, 1, 1.27, 0.14, 19.72, 0.005009116, -0.02975813, -0.0003184874, 0.03126698, -1.494903, -4.744027, -0.05945027, 0.02, 0.01, 0.09, 634.63
XKF2, 51562458, 1, 0, 0, 0, 0, 0, 400, -5, 144, 0, 0, 0, 0, 0, 0
XKF3, 51562458, 1, 0.01, 0.03, -0.04, 0.04, 0.13, -0.01, 0, 0, 0, -2.03, 0, 0.009698611, 0.0003239001
XKFS, 51562458, 1, 0, 0, 0, 0, 0, 1, 0, 1
XKQ, 51562458, 1, 0.9851692, 0.01071987, 0.003138994, 0.171222
AHR2, 51563073, 1.42, -0.07, 20.01, 634.71, 15.3676563, 75.124838, 0.9847043, 0.01234846, 0.001534587, 0.1737888
POS, 51563079, 15.3676569, 75.1248394, 634.68, 0.008519826, 0.05851983
MOTB, 51563084, 1, 1, 1, 0.04229945, 0, 2
RCIN, 51563091, 1102, 1927, 1102, 1927, 1395, 2000, 2000, 1000, 2000, 875, 875, 875, 875, 875
RCI2, 51563094, 875, 875, 0, 1
RCOU, 51563101, 1000, 1000, 1000, 1000, 0, 0, 0, 0, 0, 0, 0, 0, 0, 0
RCO2, 51563104, 0, 0, 0, 0
VIBE, 51563109, 0, 0.009240559, 0.00814955, 0.0098361, 0
VIBE, 51563109, 1, 0.06502204, 0.06266213, 0.07889106, 0
CTRL, 51563118, 0.2386847, 0.0001382321, 0.2246461, 0.000154842, 0.05485462
IMU, 51563145, 0, 0.0003082843, -0.0009207596, 0.002158531, 0.01699073, -0.2299166, -9.806744, 0, 0, 44.80676, 1, 1, 2022, 2022
IMU, 51563145, 1, 9.205012E-05, -0.001413222, 0.0007637783, 0.03293228, -0.2246943, -9.80592, 0, 0, 45, 1, 1, 1998, 2046
DCM, 51564923, 1.423081, -0.07195946, 20.01701, 0.02666966, 0.03078398, 0, 0, 0
EAHR, 51564966, 0, 0, 0, 0, 0, 0, 0, 0, 0, 0
FILE, @SYS/threads.txt, 448, 64, 01D410 STACK=848/1456\nio            PRI= 58 sp=0x2401C430 STACK=
FILE, @SYS/threads.txt, 512, 64, 1576/2480\nstorage       PRI= 59 sp=0x2401DDF0 STACK=960/1456\nUAR
FILE, @SYS/threads.txt, 576, 64, T7         PRI= 60 sp=0x24078FF8 STACK=224/752\nUART5         PRI
IMU, 51603143, 0, 0.0003575252, -0.001985758, 0.001881015, 0.01795892, -0.2376257, -9.807491, 0, 0, 44.80676, 1, 1, 2022, 2022
IMU, 51603143, 1, 0.0006023443, -9.302739E-05, 0.0004481682, 0.03344136, -0.2112512, -9.802968, 0, 0, 45, 1, 1, 1998, 2046
FILE, @SYS/threads.txt, 640, 64, = 60 sp=0x240784B0 STACK=224/752\nUART1         PRI= 60 sp=0x2407
SURF, 51612698, 0, 2, 0, 0, 0.05723985
SURF, 51612708, 1, 2, 0, 0, 0.05723985
FILE, @SYS/threads.txt, 704, 64, 78E8 STACK=344/752\nUART8         PRI= 60 sp=0x24076D20 STACK=408
STAK, 51626225, 0, 182, 7168, 4176, ArduCopter
FILE, @SYS/threads.txt, 768, 64, /752\nOTG2          PRI= 60 sp=0x24075DD8 STACK=480/752\nUART6    
FILE, @SYS/threads.txt, 832, 64,      PRI=181 sp=0x24074F58 STACK=344/752\nIOMCU         PRI=183 s
IMU, 51642997, 0, 0.0007283805, -0.001075696, 0.001130731, 0.02341506, -0.2366869, -9.802999, 0, 0, 44.80676, 1, 1, 2022, 2022
IMU, 51642997, 1, 0.0001664606, 0.001985132, 0.0001518775, 0.03178389, -0.2194887, -9.812798, 0, 0, 45, 1, 1, 1998, 2046
FILE, @SYS/threads.txt, 896, 64, p=0x2406AB30 STACK=664/1456\nlog_io        PRI= 59 sp=0x2406B2C0 
FILE, @SYS/threads.txt, 960, 64, STACK=752/2016\nI2C1          PRI=176 sp=0x2406BBD0 STACK=984/145
POWR, 51662660, 4.963696, 0, 1, 1, 6
MCU, 51662660, 44.77137, 3.348676, 3.341795, 3.354173
BAT, 51662675, 0, 14.61054, 14.64132, 5.121863, 65.30672, 0.9599006, 0, 0.006010715, 98, 1, 0
MAG, 51662686, 0, 406, -167, 88, 102, 25, 42, 0, 0, 0, 1, 51662685
MAG, 51662686, 1, 392, -87, 133, 32, 17, -32, 0, 0, 0, 1, 51662683
SURF, 51662704, 0, 2, 0, 0, 0.05722913
SURF, 51662727, 1, 2, 0, 0, 0.05722913
BARO, 51662760, 0, 0.0960083, 634.726, 93681.2, 46.7, 0.09834289, 51662, 0, 35, 1
CTUN, 51662795, 0, 0, 0, 0.4229944, 0, 0.05591933, 0.09, NaN, 0, -0.00318069, 0, 0
ATT, 51662851, -20.70474, 1.361911, 22.20727, 0.1031385, 19.76669, 19.7667, 3
ANG, 51662287, -20.70474, 1.361911, 22.20727, 0.1031385, 19.76669, 19.7667, 0.002501
RATE, 51662299, -101.2842, 0.001330741, -0.2385825, 95.32891, -0.02461494, 0.2247652, 17.46906, 0.001171691, 0.05488468, 0.06217957, -0.7871628, 0, 0
PIDR, 51662868, -1.767761, 2.322582E-05, -1.767784, -0.2386509, 0, 6.845363E-05, 0, 0, 1, 0.2684927, 9
PIDP, 51662872, 1.663792, -0.0004296118, 1.664221, 0.2246699, 0, 9.530552E-05, 0, 0, 1, 0.2147129, 9
PIDY, 51662876, 0.3048706, 2.044986E-05, 0.3049149, 0.05488468, 0, 0, 0, 0, 1, 0.006939574, 9
PIDA, 51662879, 0.06217957, 0.06217957, 0, 0, -422.9946, 0, 0, 0, 1, 0, 13
XKF4, 51662452, 0, 0.02, 0.01, 0, 0.02, 0, 0.007244205, -1.438956, -4.412466, 0, 48, 109375, 0, 0
XKY0, 51662452, 0, 161.643, 14.44379, 215.9476, 287.9479, 0.0109273, 72.04945, 144.0103, 0.2002897, 0.1997053, 0.1995283, 0.2000028, 0.2004739
XKY1, 51662452, 0, 0.02665132, 0.03466133, 0.03536244, 0.02778563, 0.02240811, 0.03195881, 0.03381952, 0.04201581, 0.04521008, 0.03899647
XKF1, 51662452, 0, 1.36, 0.1, 19.76, 0.003937679, -0.03191092, 0.00146093, 0.03358795, -1.492661, -4.747919, -0.05591933, 0.01, -0.07, 0.09, 634.63
XKF2, 51662452, 0, 0, 0.01, 0, 0, 0, 400, -5, 144, 0, 0, 0, 0, 0, 0
XKF3, 51662452, 0, 0.01, 0.03, -0.04, 0.05, 0.13, 0.16, 0, 0, 0, -2.08, 0, 0, 0.0003367483
XKF5, 51662452, 0, 0, 0, 0, 0, 0.12, 0.07, 0, 0, 0.5, 0.0006536643, 0.00478877, 0.006572008
XKFS, 51662452, 0, 0, 0, 0, 0, 0, 1, 0, 1
XKQ, 51662452, 0, 0.9850911, 0.01155378, 0.002926545, 0.1716201
XKF4, 51662452, 1, 0.02, 0.01, 0, 0.02, 0, 0.007235865, -1.430486, -4.411744, 0, 48, 109375, 0, 0
XKY0, 51662452, 1, 93.39365, 14.54144, 215.9727, 287.9922, 0.005550563, 71.99424, 143.9739, 0.199915, 0.1998473, 0.1999906, 0.2001469, 0.2001002
XKY1, 51662452, 1, 0.03130692, 0.03219988, 0.02920518, 0.02646228, 0.02776038, 0.03606422, 0.0395034, 0.04141469, 0.0391579, 0.03585142
XKF1, 51662452, 1, 1.26, 0.14, 19.73, 0.003567864, -0.03340643, 0.0004874273, 0.03233059, -1.496508, -4.75204, -0.05703245, 0.02, 0.01, 0.09, 634.63
XKF2, 51662452, 1, 0, 0, 0, 0, 0, 400, -5, 144, 0, 0, 0, 0, 0, 0
XKF3, 51662452, 1, 0.01, 0.03, -0.04, 0.04, 0.13, 0.16, 0, 0, 0, -2.09, 0, 0.009698611, 0.0003239001
XKFS, 51662452, 1, 0, 0, 0, 0, 0, 1, 0, 1
XKQ, 51662452, 1, 0.9851439, 0.01069785, 0.003119902, 0.1713691
AHR2, 51663051, 1.38, -0.05, 20.03, 634.89, 15.3676563, 75.124838, 0.9846804, 0.01199966, 0.001667705, 0.1739479
POS, 51663056, 15.3676568, 75.1248393, 634.68, 0.005919328, 0.05591933
MOTB, 51663061, 1, 1, 1, 0.04229945, 0, 2
RCIN, 51663067, 1102, 1927, 1102, 1927, 1401, 2000, 2000, 1000, 2000, 875, 875, 875, 875, 875
RCI2, 51663071, 875, 875, 0, 1
RCOU, 51663077, 1000, 1000, 1000, 1000, 0, 0, 0, 0, 0, 0, 0, 0, 0, 0
RCO2, 51663081, 0, 0, 0, 0
VIBE, 51663085, 0, 0.00890294, 0.008385494, 0.008984024, 0
VIBE, 51663085, 1, 0.0643113, 0.05853135, 0.07646061, 0
CTRL, 51663100, 0.2386806, 0.0001231067, 0.2246447, 0.0001396632, 0.05485406
DCM, 51664904, 1.386298, -0.05036164, 20.03615, 0.02666966, 0.03123362, 0, 0, 0
EAHR, 51664941, 0, 0, 0, 0, 0, 0, 0, 0, 0, 0
FILE, @SYS/threads.txt, 1024, 64, 6\nI2C0          PRI=176 sp=0x2406C4A0 STACK=984/1456\nSPI1       
IMU, 51682985, 0, 0.0006468112, -0.001063002, 0.001297111, 0.01743676, -0.232022, -9.809805, 0, 0, 44.80676, 1, 1, 2022, 2022
IMU, 51682985, 1, 0.002586124, -0.000343843, 0.001490856, 0.04082001, -0.2202708, -9.796179, 0, 0, 45, 1, 1, 1998, 2046
FILE, @SYS/threads.txt, 1088, 40,    PRI=181 sp=0x24070FC0 STACK=840/1456\n
GPS, 51703248, 0, 3, 302174200, 2379, 15, 0.74, 15.3676563, 75.1248381, 630.93, 0.041, 0, 0.082, 0, 1
GPA, 51703248, 0, 1.12, 1.5, 2.14, 0.35, 0, 1, 51688, 200, 552.92, 0, 0
SURF, 51712687, 0, 2, 0, 0, 0.05716517
SURF, 51712696, 1, 2, 0, 0, 0.05716517
FILE, @SYS/timers.txt, 0, 64, TIMERV1\nTIM5  CLK= 200Mhz MODE=  PWM FREQ=       7 TGT=       8\n
IMU, 51722747, 0, 0.0006653656, -0.001589217, 0.001678165, 0.01570684, -0.2337124, -9.806412, 0, 0, 44.80676, 1, 1, 2022, 2022
IMU, 51722747, 1, 0.0009163052, -0.004112693, 0.002089169, 0.03500731, -0.2114931, -9.806737, 0, 0, 45, 1, 1, 1998, 2046
STAK, 51726263, 1, 1, 496, 288, idle
FILE, @SYS/timers.txt, 64, 64, TIM4  CLK= 200Mhz MODE=  PWM FREQ=       7 TGT=       8\nTIM1  CL
FILE, @SYS/timers.txt, 128, 48, K= 200Mhz MODE=  PWM FREQ=       7 TGT=       8\n
POWR, 51762698, 4.966617, 0, 1, 1, 6
MCU, 51762698, 44.73161, 3.348676, 3.341655, 3.355586
BAT, 51762713, 0, 14.61155, 14.64233, 5.122046, 65.44906, 0.9619804, 0, 0.006010715, 98, 1, 0
MAG, 51762724, 0, 411, -168, 89, 102, 25, 42, 0, 0, 0, 1, 51762723
MAG, 51762724, 1, 393, -88, 132, 32, 17, -32, 0, 0, 0, 1, 51762721
SURF, 51762745, 0, 2, 0, 0, 0.05705723
SURF, 51762753, 1, 2, 0, 0, 0.05705723
BARO, 51762776, 0, 0.1489258, 634.7789, 93680.6, 46.7, 0.2215385, 51762, 0, 35, 1
CTUN, 51762788, 0, 0, 0, 0.4229944, 0, 0.05234768, 0.14, NaN, 0, -0.00318069, 0, 0
ATT, 51762848, -20.70474, 1.362534, 22.20728, 0.1029885, 19.7866, 19.7866, 3
ANG, 51762288, -20.70474, 1.362534, 22.20728, 0.1029885, 19.7866, 19.7866, 0.002494
RATE, 51762302, -101.2869, 0.02638785, -0.2388181, 95.32966, 0.002882987, 0.2244849, 17.46643, 0.008341148, 0.05487242, 0.06217957, -0.2939224, 0, 0
PIDR, 51762867, -1.767757, 0.0004605548, -1.768218, -0.2387094, 0, -0.0001087073, 0, 0, 1, 0.2429116, 9
PIDP, 51762875, 1.663825, 5.031761E-05, 1.663775, 0.2246096, 0, -0.0001247205, 0, 0, 1, 0.1942558, 9
PIDY, 51762904, 0.3048939, 0.0001455805, 0.3048468, 0.05487242, 0, 0, 0, 0, 1, 0.006278394, 9
PIDA, 51762918, 0.06217957, 0.06217957, 0, 0, -422.9946, 0, 0, 0, 1, 0, 13
XKF4, 51762432, 0, 0.03, 0.01, 0, 0.02, 0, 0.007273587, -1.438956, -4.412466, 0, 48, 109375, 0, 0
XKY0, 51762432, 0, 126.352, 14.44073, 215.924, 287.9705, 0.04647144, 72.04695, 143.9713, 0.2000035, 0.199431, 0.1996443, 0.2003494, 0.2005718
XKY1, 51762432, 0, 0.009825154, 0.0183046, 0.01927338, 0.01138641, 0.005556532, -0.07980297, -0.07807071, -0.06946398, -0.06589103, -0.07228187
XKF1, 51762432, 0, 1.36, 0.1, 19.78, 0.002329005, -0.03146432, 0.002954222, 0.03653228, -1.49459, -4.75384, -0.05234768, 0.01, -0.07, 0.09, 634.63
XKF2, 51762432, 0, 0, 0, 0, 0, 0, 400, -5, 144, 0, 0, 0, 0, 0, 0
XKF3, 51762432, 0, 0, -0.07, -0.07, 0.05, 0.13, 0.04, 0, 0, 0, -2.12, 0, 0, 0.0007383667
XKF5, 51762432, 0, 0, 0, 0, 0, 0.11, 0.07, 0, 0, 0.5, 0.000672768, 0.01398893, 0.01459672
XKFS, 51762432, 0, 0, 0, 0, 0, 0, 1, 0, 1
XKQ, 51762432, 0, 0.9850612, 0.01155885, 0.002928196, 0.1717912
XKF4, 51762432, 1, 0.03, 0.01, 0, 0.02, 0, 0.00726327, -1.430486, -4.411744, 0, 48, 109375, 0, 0
XKY0, 51762432, 1, 42.99918, 14.76723, 215.9819, 288.0067, 0.001243673, 71.97314, 143.9612, 0.1997887, 0.19991, 0.2001557, 0.2001862, 0.1999594
XKY1, 51762432, 1, 0.01558439, 0.0158549, 0.01201571, 0.009374485, 0.011579, -0.07534981, -0.07122531, -0.06969471, -0.07287213, -0.07636619
XKF1, 51762432, 1, 1.27, 0.14, 19.75, 0.003884469, -0.03114286, 0.003174674, 0.03936672, -1.49824, -4.757336, -0.05316723, 0.02, 0.01, 0.08, 634.63
XKF2, 51762432, 1, 0, 0, 0, 0, 0, 400, -5, 144, 0, 0, 0, 0, 0, 0
XKF3, 51762432, 1, 0, -0.07, -0.07, 0.04, 0.13, 0.05, 0, 0, 0, -2.13, 0, 0.01154865, 0.0007485157
XKFS, 51762432, 1, 0, 0, 0, 0, 0, 1, 0, 1
XKQ, 51762432, 1, 0.9851127, 0.0107195, 0.003141953, 0.1715467
AHR2, 51763066, 1.4, -0.05, 20.05, 634.77, 15.3676563, 75.1248381, 0.9846488, 0.01214119, 0.001649758, 0.1741166
POS, 51763072, 15.3676568, 75.1248393, 634.68, 0.002347684, 0.05234768
MOTB, 51763077, 1, 1, 1, 0.04229945, 0, 2
RCIN, 51763083, 1102, 1927, 1102, 1927, 1401, 2000, 2000, 1000, 2000, 875, 875, 875, 875, 875
RCI2, 51763087, 875, 875, 0, 1
RCOU, 51763093, 1000, 1000, 1000, 1000, 0, 0, 0, 0, 0, 0, 0, 0, 0, 0
RCO2, 51763096, 0, 0, 0, 0
VIBE, 51763101, 0, 0.007811994, 0.008076945, 0.00930866, 0
VIBE, 51763101, 1, 0.0654438, 0.06188385, 0.07130242, 0
CTRL, 51763109, 0.238673, 0.000107306, 0.2246444, 0.0001200673, 0.05486276
IMU, 51763120, 0, 0.0008054017, -0.001196734, 0.001716822, 0.0135348, -0.2316213, -9.8066, 0, 0, 44.80676, 1, 1, 2022, 2022
IMU, 51763120, 1, 0.0008471702, 0.0006417847, 0.001916877, 0.0482613, -0.2281021, -9.790505, 0, 0, 45, 1, 1, 1998, 2046
DCM, 51764937, 1.404485, -0.05672234, 20.05575, 0.03135373, 0.03100809, 0, 0, 0
EAHR, 51764967, 0, 0, 0, 0, 0, 0, 0, 0, 0, 0
FILE, @ROMFS/hwdef.dat, 0, 64, MCU STM32H7xx STM32H743xx\nOSCILLATOR_HZ 16000000\nSTM32_ST_USE_TI
FILE, @ROMFS/hwdef.dat, 64, 64, MER 2\nUSB_VENDOR 0x3162\nUSB_PRODUCT 0x0053\nUSB_STRING_MANUFACTUR
FILE, @ROMFS/hwdef.dat, 128, 64, ER "Holybro"\nAPJ_BOARD_ID 56\nFLASH_RESERVE_START_KB 128\nenv USE_
FILE, @ROMFS/hwdef.dat, 192, 64, ALT_RAM_MAP 1\nFLASH_SIZE_KB 2048\nenv OPTIMIZE -O2\nSERIAL_ORDER O
IMU, 51803186, 0, 0.0001494271, -0.0008386532, 0.00146263, 0.01960165, -0.2309481, -9.809898, 0, 0, 44.80676, 1, 1, 2022, 2022
IMU, 51803186, 1, 0.0009380951, -0.0008576385, 0.001871049, 0.02474567, -0.2236182, -9.799505, 0, 0, 45, 1, 1, 1998, 2046
FILE, @ROMFS/hwdef.dat, 256, 64, TG1 UART7 UART5 USART1 UART8 USART2 USART3 OTG2\nPA11 OTG_FS_DM O
SURF, 51812673, 0, 2, 0, 0, 0.05682727
SURF, 51812700, 1, 2, 0, 0, 0.05682727
FILE, @ROMFS/hwdef.dat, 320, 64, TG1\nPA12 OTG_FS_DP OTG1\nPA9 VBUS INPUT OPENDRAIN\nPA13 JTMS-SWDIO
STAK, 51826278, 2, 60, 1200, 880, UART_RX
FILE, @ROMFS/hwdef.dat, 384, 64,  SWD\nPA14 JTCK-SWCLK SWD\nPE8  UART7_TX UART7\nPE7  UART7_RX UART7
FILE, @ROMFS/hwdef.dat, 448, 64, \nPE9  UART7_RTS UART7 LOW PULLDOWN\nPE10 UART7_CTS UART7\nPC12 UAR
IMU, 51843027, 0, 0.000628102, -0.0004737899, 0.001923917, 0.01654458, -0.2300188, -9.808143, 0, 0, 44.80676, 1, 1, 2022, 2022
IMU, 51843027, 1, 0.0006420765, 0.003479667, 0.001844181, 0.02740697, -0.2187805, -9.806184, 0, 0, 45, 1, 1, 1998, 2046
RAD, 51847745, 66, 0, 100, 98, 0, 0, 0
FILE, @ROMFS/hwdef.dat, 512, 64, T5_TX UART5\nPD2 UART5_RX UART5\nPC8 UART5_RTS UART5 LOW PULLDOWN\n
POWR, 51862690, 4.96561, 0, 1, 1, 6
MCU, 51862690, 44.79125, 3.348535, 3.341935, 3.355586
BAT, 51862703, 0, 14.61246, 14.64326, 5.123328, 65.59137, 0.9640599, 0, 0.006010715, 98, 1, 0
MAG, 51862715, 0, 407, -168, 114, 102, 25, 42, 0, 0, 0, 1, 51862713
MAG, 51862715, 1, 393, -87, 134, 32, 17, -32, 0, 0, 0, 1, 51862712
SURF, 51862733, 0, 2, 0, 0, 0.05649904
SURF, 51862742, 1, 2, 0, 0, 0.05649904
BARO, 51862771, 0, -0.003967285, 634.626, 93682.31, 46.7, 0.1608086, 51862, 0, 35, 1
CTUN, 51862785, 0, 0, 0, 0.4229944, 0, 0.04826283, 0, NaN, 0, -0.01348587, 0, 0
ATT, 51862843, -20.70474, 1.363959, 22.20728, 0.10514, 19.80635, 19.80636, 3
ANG, 51862287, -20.70474, 1.363959, 22.20728, 0.10514, 19.80635, 19.80636, 0.002498
RATE, 51862301, -101.2926, 0.003453322, -0.2385748, 95.32073, 0.008017401, 0.2247366, 17.46478, -0.000651069, 0.05487006, 0.06217957, -0.1078606, 0, 0
PIDR, 51862860, -1.767886, 6.027185E-05, -1.767946, -0.2386728, 0, 9.795836E-05, 0, 0, 1, 0.2197682, 9
PIDP, 51862864, 1.663677, 0.0001399301, 1.663537, 0.2245775, 0, 0.0001590433, 0, 0, 1, 0.1757481, 9
PIDY, 51862868, 0.3048318, -1.13633E-05, 0.3048337, 0.05487006, 0, 0, 0, 0, 1, 0.005680221, 9
PIDA, 51862896, 0.06217957, 0.06217957, 0, 0, -422.9946, 0, 0, 0, 1, 0, 13
XKF4, 51862428, 0, 0.03, 0.01, 0, 0.02, 0, 0.007348821, -1.438956, -4.412466, 0, 48, 109375, 0, 0
XKY0, 51862428, 0, 126.3514, 14.44076, 215.9235, 287.9699, 0.04595278, 72.04643, 143.9708, 0.2000035, 0.199431, 0.1996443, 0.2003494, 0.2005718
XKY1, 51862428, 0, 0.009825154, 0.0183046, 0.01927338, 0.01138641, 0.005556532, -0.07980297, -0.07807071, -0.06946398, -0.06589103, -0.07228187
XKF1, 51862428, 0, 1.36, 0.1, 19.8, 0.001215926, -0.02767562, 0.004729699, 0.04664459, -1.496466, -4.757256, -0.04826283, 0.01, -0.07, 0.08, 634.63
XKF2, 51862428, 0, 0, 0, 0, 0, 0, 400, -5, 144, 0, 0, 0, 0, 0, 0
XKF3, 51862428, 0, 0, -0.07, -0.07, 0.05, 0.13, 0.1, 0, 0, 0, -1.95, 0, 0, 0.0007383667
XKF5, 51862428, 0, 0, 0, 0, 0, 0.11, 0.07, 0, 0, 0.5, 0.0006544385, 0.01043963, 0.01216993
XKFS, 51862428, 0, 0, 0, 0, 0, 0, 1, 0, 1
XKQ, 51862428, 0, 0.9850315, 0.01156737, 0.002950821, 0.1719607
XKF4, 51862428, 1, 0.03, 0.01, 0, 0.02, 0, 0.007338863, -1.430486, -4.411744, 0, 48, 109375, 0, 0
XKY0, 51862428, 1, 43, 14.76726, 215.9827, 288.0075, 0.002089851, 71.97399, 143.962, 0.1997887, 0.19991, 0.2001557, 0.2001862, 0.1999594
XKY1, 51862428, 1, 0.01558439, 0.0158549, 0.01201571, 0.009374485, 0.011579, -0.07534981, -0.07122531, -0.06969471, -0.07287213, -0.07636619
XKF1, 51862428, 1, 1.27, 0.14, 19.77, 0.003173449, -0.02732571, 0.004762127, 0.0464903, -1.499707, -4.760421, -0.04919894, 0.02, 0.01, 0.08, 634.63
XKF2, 51862428, 1, 0, 0, 0, 0, 0, 400, -5, 144, 0, 0, 0, 0, 0, 0
XKF3, 51862428, 1, 0, -0.07, -0.07, 0.04, 0.13, 0.1, 0, 0, 0, -1.96, 0, 0.0119546, 0.0007485157
XKFS, 51862428, 1, 0, 0, 0, 0, 0, 1, 0, 1
XKQ, 51862428, 1, 0.985083, 0.01072659, 0.003188282, 0.1717158
AHR2, 51863008, 1.45, -0.07, 20.07, 634.82, 15.3676563, 75.1248382, 0.9846157, 0.01263316, 0.001538615, 0.17427
POS, 51863014, 15.3676568, 75.1248392, 634.67, -0.001737168, 0.04826283
MOTB, 51863019, 1, 1, 1, 0.04229945, 0, 2
RCIN, 51863037, 1102, 1927, 1102, 1927, 1401, 2000, 2000, 1000, 2000, 875, 875, 875, 875, 875
RCI2, 51863053, 875, 875, 0, 1
RCOU, 51863060, 1000, 1000, 1000, 1000, 0, 0, 0, 0, 0, 0, 0, 0, 0, 0
RCO2, 51863064, 0, 0, 0, 0
VIBE, 51863068, 0, 0.008284172, 0.007699101, 0.01013936, 0
VIBE, 51863068, 1, 0.0666584, 0.05991317, 0.07008976, 0
CTRL, 51863076, 0.2386719, 9.971508E-05, 0.2246127, 0.0001111363, 0.0548684
DCM, 51864904, 1.458118, -0.07938509, 20.07319, 0.03135373, 0.03180232, 0, 0, 0
EAHR, 51864962, 0, 0, 0, 0, 0, 0, 0, 0, 0, 0
FILE, @ROMFS/hwdef.dat, 576, 64, PC9 UART5_CTS UART5\nPB6  USART1_TX USART1\nPA10 USART1_RX USART1\n
FILE, @ROMFS/hwdef.dat, 640, 64, PE1 UART8_TX UART8\nPE0 UART8_RX UART8\nPD5 USART2_TX USART2\nPA3 U
IMU, 51882705, 0, 0.0007343515, -0.0008427235, 0.001422059, 0.0174145, -0.2319473, -9.807853, 0, 0, 44.80676, 1, 1, 2022, 2022
IMU, 51882705, 1, 0.0005867022, -0.001947785, 0.003599202, 0.02616487, -0.2075262, -9.804625, 0, 0, 45, 1, 1, 1998, 2046
FILE, @ROMFS/hwdef.dat, 704, 64, SART2_RX USART2\nPD8 USART3_TX USART3\nPD9 USART3_RX USART3\nPC6 US
GPS, 51903286, 0, 3, 302174400, 2379, 15, 0.74, 15.3676562, 75.1248379, 630.93, 0.043, 0, -0.039, 0, 1
GPA, 51903286, 0, 1.12, 1.5, 2.14, 0.26, 0, 1, 51888, 200, 552.92, 0, 0
FILE, @ROMFS/hwdef.dat, 768, 64, ART6_TX USART6\nPC7 USART6_RX USART6\nIOMCU_UART USART6\nPC5 BATT_V
SURF, 51912665, 0, 2, 0, 0, 0.05609687
SURF, 51912674, 1, 2, 0, 0, 0.05609687
FILE, @ROMFS/hwdef.dat, 832, 64, OLTAGE_SENS ADC1 SCALE(1)\nPC4 BATT_CURRENT_SENS ADC1 SCALE(1)\nPB
IMU, 51922766, 0, 0.0002206023, -0.001722779, 0.001656095, 0.01639402, -0.2328892, -9.808224, 0, 0, 44.80676, 1, 1, 2022, 2022
IMU, 51922766, 1, -0.0004996987, 0.001373281, 0.002054091, 0.02330402, -0.2209767, -9.80106, 0, 0, 45, 1, 1, 1998, 2046
STAK, 51927287, 3, 60, 752, 480, OTG1
FILE, @ROMFS/hwdef.dat, 896, 64, 1 BATT2_VOLTAGE_SENS ADC1 SCALE(1)\nPA2 BATT2_CURRENT_SENS ADC1 S
FILE, @ROMFS/hwdef.dat, 960, 64, CALE(1)\ndefine HAL_BATT_VOLT_PIN 8\ndefine HAL_BATT_CURR_PIN 4\nde
FMT, 253, 28, HEAT, Qfbfff, TimeUS,Temp,Targ,P,I,Out
HEAT, 51939797, 44.87923, 45, 6.038666, 1.81143, 7.850096
FILE, @ROMFS/hwdef.dat, 1024, 64, fine HAL_BATT_VOLT_SCALE 18.18\ndefine HAL_BATT_CURR_SCALE 36.36\n
FILE, @ROMFS/hwdef.dat, 1088, 64, PA4 VDD_5V_SENS  ADC1 SCALE(2)\nPA5 SPI1_SCK SPI1\nPA6 SPI1_MISO S
POWR, 51962711, 4.967322, 0, 1, 1, 6
MCU, 51962711, 44.75149, 3.348535, 3.340534, 3.354738
BAT, 51962724, 0, 14.60633, 14.63712, 5.122413, 65.7337, 0.9661389, 0, 0.006010715, 98, 1, 0
MAG, 51962736, 0, 407, -169, 97, 102, 25, 42, 0, 0, 0, 1, 51962735
MAG, 51962736, 1, 392, -87, 132, 32, 17, -32, 0, 0, 0, 1, 51962733
SURF, 51962760, 0, 2, 0, 0, 0.05563252
SURF, 51962768, 1, 2, 0, 0, 0.05563252
BARO, 51962789, 0, 0.03131104, 634.6613, 93681.93, 46.7, -0.1553917, 51962, 0, 35, 1
CTUN, 51962805, 0, 0, 0, 0.4229944, 0, 0.04612721, 0.03, NaN, 0, -0.01348587, 0, 0
DU32, 51962823, 7, 6349272
TERR, 51962851, 2, 15.3676568, 75.1248392, 100, 634.6835, -0.01348587, 0, 336, -0.4605171
ATT, 51962967, -20.70474, 1.364807, 22.20728, 0.1046068, 19.8265, 19.8265, 3
ANG, 51962289, -20.70474, 1.364807, 22.20728, 0.1046068, 19.8265, 19.8265, 0.002495
RATE, 51962301, -101.2964, -0.0169553, -0.2385344, 95.3232, -0.03276785, 0.2248039, 17.46267, -0.01188261, 0.05485526, 0.06217957, -0.1671791, 0, 0
PIDR, 51962984, -1.767972, -0.0002959258, -1.767676, -0.2386363, 0, 0.0001019288, 0, 0, 1, 0.1988293, 9
PIDP, 51962988, 1.663682, -0.0005719069, 1.664253, 0.2246742, 0, 0.0001296301, 0, 0, 1, 0.1590032, 9
PIDY, 51962992, 0.3048113, -0.0002073906, 0.3047515, 0.05485526, 0, 0, 0, 0, 1, 0.005139022, 9
PIDA, 51962996, 0.06217957, 0.06217957, 0, 0, -422.9946, 0, 0, 0, 1, 0, 13
XKF4, 51962458, 0, 0.01, 0.01, 0, 0.02, 0, 0.007395267, -1.438956, -4.412466, 0, 48, 109375, 0, 0
XKY0, 51962458, 0, 133.6187, 14.31993, 215.9332, 287.9654, 0.03185393, 72.04082, 143.9799, 0.2000673, 0.1995417, 0.1996492, 0.2002415, 0.2005003
XKY1, 51962458, 0, -0.01579736, -0.006847211, -0.006127085, -0.01462769, -0.02059383, 0.01181985, 0.01396071, 0.02313839, 0.02665047, 0.01966152
